~Version Information
VERS. 2.0:
WRAP. NO:

~Well Information
STRT.FT -71.25:
STOP.FT 665.00:
STEP.FT 0.25:
NULL. -999.25:

~Curve Information
DEPT.FT     : Depth below casing
PRETEMP.C   : Pre-pump Temperature
POSTTEMP.C  : Post-pump Temperature (aligned)
DIFFTEMP.C  : Post minus Pre Temperature

~A  DEPT  PRETEMP  POSTTEMP  DIFFTEMP
# ...
   54.00     23.04707     22.99272     -0.05435
   54.25     23.04643     22.98776     -0.05866
   54.50     23.04460     22.98539     -0.05921
   54.75     23.04257     22.98346     -0.05911
   55.00     23.04054     22.98152     -0.05902
   55.25     23.03929     22.97961     -0.05968
   55.50     23.04049     22.97776     -0.06272
   55.75     23.04168     22.97592     -0.06576
   56.00     23.04288     22.97408     -0.06881
   56.25     23.04086     22.97298     -0.06788
   56.50     23.03690     22.97233     -0.06456
   56.75     23.03293     22.97169     -0.06125
   57.00     23.02892     22.97103     -0.05789
   57.25     23.01739     22.96845     -0.04894
   57.50     23.00587     22.96587     -0.04000
   57.75     22.99435     22.96329     -0.03106
   58.00     22.98575     22.96053     -0.02522
   58.25     22.98171     22.95750     -0.02421
   58.50     22.97767     22.95447     -0.02320
   58.75     22.97363     22.95144     -0.02219
   59.00     22.97372     22.94798     -0.02574
   59.25     22.97510     22.94439     -0.03072
   59.50     22.97648     22.94079     -0.03569
   59.75     22.97740     22.93710     -0.04030
   60.00     22.97556     22.93286     -0.04269
   60.25     22.97371     22.92862     -0.04509
   60.50     22.97187     22.92438     -0.04749
   60.75     22.96954     22.92199     -0.04755
   61.00     22.96677     22.92125     -0.04552
   61.25     22.96401     22.92052     -0.04349
   61.50     22.96124     22.91978     -0.04146
   61.75     22.95713     22.91795     -0.03918
   62.00     22.95289     22.91601     -0.03688
   62.25     22.94865     22.91408     -0.03457
   62.50     22.94493     22.91152     -0.03341
   62.75     22.94245     22.90748     -0.03497
   63.00     22.93998     22.90344     -0.03653
   63.25     22.93750     22.89940     -0.03810
   63.50     22.93562     22.89590     -0.03972
   63.75     22.93406     22.89268     -0.04138
   64.00     22.93249     22.88945     -0.04304
   64.25     22.93081     22.88631     -0.04449
   64.50     22.92684     22.88493     -0.04191
   64.75     22.92288     22.88355     -0.03933
   65.00     22.91891     22.88217     -0.03675
   65.25     22.91491     22.88150     -0.03341
   65.50     22.91086     22.88178     -0.02908
   65.75     22.90680     22.88205     -0.02474
   66.00     22.90274     22.88233     -0.02041
   66.25     22.89899     22.87862     -0.02037
   66.50     22.89530     22.87401     -0.02129
   66.75     22.89161     22.86940     -0.02221
   67.00     22.88802     22.86408     -0.02395
   67.25     22.88481     22.85591     -0.02890
   67.50     22.88160     22.84773     -0.03386
   67.75     22.87838     22.83956     -0.03882
   68.00     22.87563     22.83253     -0.04311
   68.25     22.87324     22.82635     -0.04688
   68.50     22.87084     22.82018     -0.05066
   68.75     22.86844     22.81400     -0.05444
   69.00     22.86086     22.81187     -0.04899
   69.25     22.85303     22.80993     -0.04309
   69.50     22.84519     22.80800     -0.03719
   69.75     22.83704     22.80581     -0.03123
   70.00     22.82829     22.80314     -0.02515
   70.25     22.81953     22.80047     -0.01906
   70.50     22.81077     22.79779     -0.01298
   70.75     22.80840     22.79392     -0.01448
   71.00     22.80849     22.78959     -0.01890
   71.25     22.80858     22.78526     -0.02333
   71.50     22.80874     22.78092     -0.02783
   71.75     22.80948     22.77651     -0.03297
   72.00     22.81021     22.77210     -0.03811
   72.25     22.81095     22.76770     -0.04325
   72.50     22.80936     22.76376     -0.04560
   72.75     22.80522     22.76035     -0.04486
   73.00     22.80107     22.75694     -0.04413
   73.25     22.79692     22.75353     -0.04339
   73.50     22.79206     22.74941     -0.04265
   73.75     22.78708     22.74517     -0.04191
   74.00     22.78211     22.74093     -0.04118
   74.25     22.77793     22.73696     -0.04098
   74.50     22.77627     22.73382     -0.04245
   74.75     22.77461     22.73069     -0.04393
   75.00     22.77295     22.72755     -0.04540
   75.25     22.77078     22.72540     -0.04537
   75.50     22.76829     22.72383     -0.04445
   75.75     22.76580     22.72227     -0.04353
   76.00     22.76328     22.72066     -0.04262
   76.25     22.75759     22.71487     -0.04271
   76.50     22.75189     22.70909     -0.04280
   76.75     22.74620     22.70331     -0.04289
   77.00     22.74183     22.69804     -0.04379
   77.25     22.73962     22.69361     -0.04600
   77.50     22.73740     22.68919     -0.04822
   77.75     22.73519     22.68476     -0.05043
   78.00     22.73213     22.68217     -0.04997
   78.25     22.72882     22.68014     -0.04868
   78.50     22.72550     22.67811     -0.04739
   78.75     22.72208     22.67646     -0.04562
   79.00     22.71812     22.67702     -0.04110
   79.25     22.71416     22.67757     -0.03659
   79.50     22.71019     22.67812     -0.03207
   79.75     22.70559     22.67726     -0.02834
   80.00     22.70043     22.67514     -0.02530
   80.25     22.69527     22.67302     -0.02225
   80.50     22.69011     22.67090     -0.01921
   80.75     22.68371     22.66660     -0.01710
   81.00     22.67719     22.66210     -0.01508
   81.25     22.67067     22.65760     -0.01306
   81.50     22.66446     22.65273     -0.01172
   81.75     22.65902     22.64693     -0.01209
   82.00     22.65358     22.64112     -0.01246
   82.25     22.64814     22.63531     -0.01283
   82.50     22.64658     22.62907     -0.01751
   82.75     22.64695     22.62262     -0.02433
   83.00     22.64732     22.61617     -0.03115
   83.25     22.64751     22.60990     -0.03761
   83.50     22.64447     22.60704     -0.03742
   83.75     22.64143     22.60419     -0.03724
   84.00     22.63838     22.60133     -0.03706
   84.25     22.63410     22.59923     -0.03486
   84.50     22.62820     22.59813     -0.03007
   84.75     22.62230     22.59702     -0.02528
   85.00     22.61640     22.59592     -0.02049
   85.25     22.60947     22.59150     -0.01796
   85.50     22.60231     22.58636     -0.01594
   85.75     22.59514     22.58122     -0.01392
   86.00     22.58826     22.57557     -0.01268
   86.25     22.58254     22.56774     -0.01480
   86.50     22.57683     22.55990     -0.01692
   86.75     22.57111     22.55207     -0.01905
   87.00     22.56582     22.54597     -0.01985
   87.25     22.56084     22.54118     -0.01966
   87.50     22.55586     22.53638     -0.01948
   87.75     22.55088     22.53159     -0.01929
   88.00     22.54529     22.52645     -0.01884
   88.25     22.53967     22.52128     -0.01838
   88.50     22.53404     22.51612     -0.01792
   88.75     22.52845     22.51077     -0.01768
   89.00     22.52292     22.50506     -0.01787
   89.25     22.51739     22.49934     -0.01805
   89.50     22.51186     22.49363     -0.01823
   89.75     22.50867     22.49032     -0.01835
   90.00     22.50638     22.48793     -0.01844
   90.25     22.50408     22.48555     -0.01853
   90.50     22.50200     22.48315     -0.01885
   90.75     22.50200     22.48066     -0.02134
   91.00     22.50200     22.47817     -0.02383
   91.25     22.50200     22.47568     -0.02632
   91.50     22.49919     22.47082     -0.02837
   91.75     22.49329     22.46335     -0.02993
   92.00     22.48739     22.45589     -0.03150
   92.25     22.48149     22.44842     -0.03307
   92.50     22.47472     22.44159     -0.03313
   92.75     22.46780     22.43486     -0.03294
   93.00     22.46089     22.42813     -0.03276
   93.25     22.45515     22.42230     -0.03284
   93.50     22.45303     22.41926     -0.03377
   93.75     22.45091     22.41622     -0.03469
   94.00     22.44879     22.41318     -0.03561
   94.25     22.44529     22.40824     -0.03705
   94.50     22.44097     22.40218     -0.03879
   94.75     22.43666     22.39612     -0.04054
   95.00     22.43234     22.39006     -0.04228
   95.25     22.42451     22.38195     -0.04256
   95.50     22.41668     22.37384     -0.04284
