~Version Information
VERS. 2.0:
WRAP. NO:

~Well Information
STRT.FT -71.25:
STOP.FT 665.00:
STEP.FT 0.25:
NULL. -999.25:

~Curve Information
DEPT.FT     : Depth below casing
PRETEMP.C   : Pre-pump Temperature
POSTTEMP.C  : Post-pump Temperature (aligned)
DIFFTEMP.C  : Post minus Pre Temperature

~A  DEPT  PRETEMP  POSTTEMP  DIFFTEMP
# ...
  388.00     22.23518     22.25041      0.01522
  388.25     22.23761     22.25251      0.01490
  388.50     22.24056     22.25435      0.01380
  388.75     22.24351     22.25620      0.01269
  389.00     22.24646     22.25804      0.01159
  389.25     22.24985     22.25898      0.00914
  389.50     22.25333     22.25972      0.00638
  389.75     22.25682     22.26045      0.00363
  390.00     22.26002     22.26146      0.00143
  390.25     22.26196     22.26367      0.00171
  390.50     22.26390     22.26588      0.00199
  390.75     22.26583     22.26809      0.00226
  391.00     22.26756     22.27067      0.00312
  391.25     22.26912     22.27353      0.00441
  391.50     22.27069     22.27639      0.00570
  391.75     22.27226     22.27925      0.00699
  392.00     22.27637     22.28131      0.00494
  392.25     22.28061     22.28334      0.00273
  392.50     22.28485     22.28537      0.00052
  392.75     22.28847     22.28709     -0.00139
  393.00     22.29087     22.28819     -0.00268
  393.25     22.29327     22.28930     -0.00397
  393.50     22.29566     22.29041     -0.00526
  393.75     22.29561     22.29230     -0.00330
  394.00     22.29460     22.29451     -0.00009
  394.25     22.29359     22.29671      0.00312
  394.50     22.29301     22.29883      0.00583
  394.75     22.29678     22.30012      0.00334
  395.00     22.30056     22.30141      0.00085
  395.25     22.30434     22.30270     -0.00164
  395.50     22.30856     22.30290     -0.00566
  395.75     22.31326     22.30189     -0.01137
  396.00     22.31796     22.30087     -0.01709
  396.25     22.32266     22.29986     -0.02280
  396.50     22.32389     22.29916     -0.02472
  396.75     22.32453     22.29852     -0.02601
  397.00     22.32518     22.29787     -0.02731
  397.25     22.32513     22.29796     -0.02717
  397.50     22.32292     22.30036     -0.02257
  397.75     22.32071     22.30275     -0.01796
  398.00     22.31850     22.30515     -0.01335
  398.25     22.32048     22.30806     -0.01242
  398.50     22.32498     22.31127     -0.01371
  398.75     22.32948     22.31448     -0.01499
  399.00     22.33397     22.31770     -0.01628
  399.25     22.34032     22.32001     -0.02032
  399.50     22.34668     22.32231     -0.02437
  399.75     22.35304     22.32462     -0.02843
  400.00     22.35728     22.32695     -0.03032
  400.25     22.35802     22.32935     -0.02867
  400.50     22.35875     22.33175     -0.02701
  400.75     22.35949     22.33414     -0.02535
  401.00     22.35960     22.33689     -0.02270
  401.25     22.35950     22.33975     -0.01975
  401.50     22.35941     22.34261     -0.01680
  401.75     22.35970     22.34560     -0.01410
  402.00     22.36218     22.34938     -0.01281
  402.25     22.36467     22.35316     -0.01152
  402.50     22.36716     22.35694     -0.01023
  402.75     22.36906     22.35998     -0.00908
  403.00     22.37044     22.36237     -0.00807
  403.25     22.37182     22.36475     -0.00706
  403.50     22.37319     22.36714     -0.00605
  403.75     22.37234     22.36664     -0.00570
  404.00     22.37123     22.36581     -0.00543
  404.25     22.37013     22.36498     -0.00515
  404.50     22.36858     22.36407     -0.00451
  404.75     22.36590     22.36296     -0.00294
  405.00     22.36323     22.36186     -0.00137
  405.25     22.36056     22.36075      0.00019
  405.50     22.35991     22.36247      0.00256
  405.75     22.36028     22.36560      0.00532
  406.00     22.36065     22.36874      0.00809
  406.25     22.36108     22.37192      0.01084
  406.50     22.36274     22.37607      0.01333
  406.75     22.36440     22.38022      0.01582
  407.00     22.36606     22.38437      0.01831
  407.25     22.36692     22.38743      0.02051
  407.50     22.36674     22.38909      0.02235
  407.75     22.36655     22.39074      0.02418
  408.00     22.36637     22.39239      0.02602
  408.25     22.36767     22.39279      0.02512
  408.50     22.36933     22.39288      0.02356
  408.75     22.37099     22.39297      0.02199
  409.00     22.37283     22.39286      0.02002
  409.25     22.37551     22.39184      0.01634
  409.50     22.37818     22.39083      0.01265
  409.75     22.38085     22.38982      0.00896
  410.00     22.38390     22.38965      0.00575
  410.25     22.38721     22.39011      0.00289
  410.50     22.39053     22.39057      0.00003
  410.75     22.39385     22.39103     -0.00282
  411.00     22.39594     22.39360     -0.00234
  411.25     22.39796     22.39627     -0.00169
  411.50     22.39999     22.39895     -0.00104
  411.75     22.40192     22.40075     -0.00118
  412.00     22.40367     22.40084     -0.00283
  412.25     22.40541     22.40093     -0.00448
  412.50     22.40716     22.40102     -0.00614
  412.75     22.41074     22.40177     -0.00897
  413.00     22.41507     22.40278     -0.01229
  413.25     22.41940     22.40379     -0.01561
  413.50     22.42372     22.40514     -0.01858
  413.75     22.42796     22.40975     -0.01822
  414.00     22.43220     22.41436     -0.01785
  414.25     22.43644     22.41897     -0.01748
  414.50     22.44011     22.42279     -0.01733
  414.75     22.44316     22.42574     -0.01742
  415.00     22.44620     22.42868     -0.01751
  415.25     22.44924     22.43163     -0.01761
  415.50     22.45141     22.43340     -0.01801
  415.75     22.45344     22.43496     -0.01848
  416.00     22.45547     22.43653     -0.01894
  416.25     22.45734     22.43839     -0.01895
  416.50     22.45871     22.44114     -0.01757
  416.75     22.46009     22.44389     -0.01620
  417.00     22.46147     22.44665     -0.01482
  417.25     22.46273     22.45065     -0.01208
  417.50     22.46393     22.45545     -0.00849
  417.75     22.46513     22.46024     -0.00489
  418.00     22.46633     22.46503     -0.00130
  418.25     22.46514     22.47111      0.00597
  418.50     22.46394     22.47720      0.01326
  418.75     22.46274     22.48328      0.02054
  419.00     22.46302     22.48817      0.02515
  419.25     22.46569     22.49112      0.02543
  419.50     22.46836     22.49407      0.02571
  419.75     22.47104     22.49702      0.02598
  420.00     22.47378     22.49764      0.02386
  420.25     22.47655     22.49755      0.02101
  420.50     22.47931     22.49746      0.01815
  420.75     22.48193     22.49768      0.01576
  421.00     22.48367     22.49970      0.01603
  421.25     22.48541     22.50172      0.01631
  421.50     22.48716     22.50374      0.01658
  421.75     22.48981     22.50562      0.01581
  422.00     22.49332     22.50737      0.01406
  422.25     22.49682     22.50912      0.01231
  422.50     22.50032     22.51088      0.01055
  422.75     22.50349     22.51213      0.00864
  423.00     22.50663     22.51333      0.00670
  423.25     22.50976     22.51453      0.00477
  423.50     22.51221     22.51522      0.00301
  423.75     22.51295     22.51467      0.00172
  424.00     22.51369     22.51412      0.00043
  424.25     22.51442     22.51356     -0.00086
  424.50     22.51701     22.51536     -0.00165
  424.75     22.52051     22.51830     -0.00221
  425.00     22.52402     22.52125     -0.00276
  425.25     22.52744     22.52423     -0.00320
  425.50     22.52936     22.52772     -0.00164
  425.75     22.53129     22.53121     -0.00008
  426.00     22.53322     22.53470      0.00148
  426.25     22.53468     22.53742      0.00273
  426.50     22.53551     22.53908      0.00356
  426.75     22.53634     22.54073      0.00439
  427.00     22.53717     22.54239      0.00522
  427.25     22.53763     22.54205      0.00442
  427.50     22.53800     22.54122      0.00322
  427.75     22.53837     22.54039      0.00202
  428.00     22.53805     22.53984      0.00178
  428.25     22.53483     22.54048      0.00565
  428.50     22.53160     22.54113      0.00953
  428.75     22.52838     22.54177      0.01340
  429.00     22.52716     22.54295      0.01579
  429.25     22.52744     22.54451      0.01708
  429.50     22.52771     22.54608      0.01837
