~Version Information
VERS. 2.0:
WRAP. NO:

~Well Information
STRT.FT -71.25:
STOP.FT 665.00:
STEP.FT 0.25:
NULL. -999.25:

~Curve Information
DEPT.FT     : Depth below casing
PRETEMP.C   : Pre-pump Temperature
POSTTEMP.C  : Post-pump Temperature (aligned)
DIFFTEMP.C  : Post minus Pre Temperature

~A  DEPT  PRETEMP  POSTTEMP  DIFFTEMP
# ...
  -29.50     18.50224     25.31736      6.81512
  -29.25     18.46408     25.29598      6.83190
  -29.00     18.42592     25.27459      6.84867
  -28.75     18.41915     25.31018      6.89103
  -28.50     18.41933     25.35838      6.93905
  -28.25     18.41952     25.40659      6.98707
  -28.00     18.42718     25.47011      7.04293
  -27.75     18.46709     25.59971      7.13262
  -27.50     18.50700     25.72931      7.22231
  -27.25     18.54692     25.85891      7.31200
  -27.00     18.57855     25.98751      7.40896
  -26.75     18.60399     26.11536      7.51137
  -26.50     18.62943     26.24321      7.61378
  -26.25     18.65488     26.37106      7.71619
  -26.00     18.64543     26.30800      7.66257
  -25.75     18.63437     26.23610      7.60173
  -25.50     18.62331     26.16420      7.54089
  -25.25     18.60576     26.05374      7.44797
  -25.00     18.57562     25.86828      7.29265
  -24.75     18.54548     25.68282      7.13734
  -24.50     18.51534     25.49736      6.98202
  -24.25     18.48535     25.38960      6.90425
  -24.00     18.45542     25.31155      6.85614
  -23.75     18.42548     25.23351      6.80802
  -23.50     18.39731     25.16611      6.76879
  -23.25     18.38635     25.20261      6.81626
  -23.00     18.37538     25.23911      6.86373
  -22.75     18.36441     25.27561      6.91121
  -22.50     18.36578     25.33026      6.96448
  -22.25     18.38072     25.40483      7.02412
  -22.00     18.39565     25.47940      7.08375
  -21.75     18.41058     25.55398      7.14339
  -21.50     18.43123     25.65861      7.22738
  -21.25     18.45280     25.76811      7.31532
  -21.00     18.47437     25.87762      7.40326
  -20.75     18.49479     25.97364      7.47886
  -20.50     18.51165     26.02793      7.51628
  -20.25     18.52852     26.08223      7.55370
  -20.00     18.54539     26.13652      7.59113
  -19.75     18.54359     26.07997      7.53637
  -19.50     18.53074     25.95776      7.42702
  -19.25     18.51789     25.83555      7.31767
  -19.00     18.50503     25.71335      7.20832
  -18.75     18.46086     25.55673      7.09587
  -18.50     18.41662     25.40003      6.98341
  -18.25     18.37237     25.24333      6.87095
  -18.00     18.34405     25.14540      6.80135
  -17.75     18.34156     25.14282      6.80125
  -17.50     18.33907     25.14024      6.80116
  -17.25     18.33658     25.13765      6.80107
  -17.00     18.37077     25.22175      6.85098
  -16.75     18.41621     25.33246      6.91624
  -16.50     18.46166     25.44316      6.98150
  -16.25     18.50581     25.55517      7.04936
  -16.00     18.54259     25.67463      7.13204
  -15.75     18.57937     25.79409      7.21473
  -15.50     18.61615     25.91356      7.29741
  -15.25     18.63108     26.01682      7.38574
  -15.00     18.62686     26.10588      7.47902
  -14.75     18.62264     26.19495      7.57231
  -14.50     18.61841     26.28401      7.66559
  -14.25     18.59804     26.23591      7.63787
  -14.00     18.57592     26.17296      7.59704
  -13.75     18.55380     26.11000      7.55620
  -13.50     18.52390     26.01092      7.48703
  -13.25     18.47458     25.82168      7.34710
  -13.00     18.42527     25.63244      7.20718
  -12.75     18.37595     25.44320      7.06725
  -12.50     18.33046     25.30706      6.97660
  -12.25     18.28686     25.19709      6.91023
  -12.00     18.24326     25.08713      6.84386
  -11.75     18.20329     24.98549      6.78220
  -11.50     18.22744     25.03112      6.80368
  -11.25     18.25159     25.07675      6.82515
  -11.00     18.27574     25.12238      6.84663
  -10.75     18.31218     25.20447      6.89228
  -10.50     18.36442     25.33347      6.96904
  -10.25     18.41667     25.46247      7.04580
  -10.00     18.46891     25.59147      7.12256
   -9.75     18.48904     25.72282      7.23377
   -9.50     18.50148     25.85472      7.35324
   -9.25     18.51393     25.98663      7.47270
   -9.00     18.52145     26.10175      7.58030
   -8.75     18.50809     26.14562      7.63754
   -8.50     18.49472     26.18950      7.69478
   -8.25     18.48135     26.23338      7.75202
   -8.00     18.47477     26.16690      7.69214
   -7.75     18.47320     26.01868      7.54548
   -7.50     18.47163     25.87046      7.39883
   -7.25     18.47007     25.72224      7.25217
   -7.00     18.44147     25.50283      7.06136
   -6.75     18.41170     25.28031      6.86861
   -6.50     18.38192     25.05779      6.67587
   -6.25     18.33147     24.85841      6.52694
   -6.00     18.24121     24.70351      6.46230
   -5.75     18.15096     24.54862      6.39766
   -5.50     18.06070     24.39373      6.33303
   -5.25     17.98259     24.31363      6.33104
   -5.00     17.90940     24.26385      6.35445
   -4.75     17.83621     24.21408      6.37787
   -4.50     17.77048     24.17710      6.40661
   -4.25     17.77555     24.26153      6.48598
   -4.00     17.78062     24.34597      6.56534
   -3.75     17.78569     24.43040      6.64471
   -3.50     17.81642     24.60687      6.79045
   -3.25     17.87505     24.88340      7.00836
   -3.00     17.93367     25.15994      7.22627
   -2.75     17.99230     25.43647      7.44417
   -2.50     18.05895     25.63227      7.57331
   -2.25     18.12689     25.81524      7.68835
   -2.00     18.19482     25.99821      7.80339
   -1.75     18.30153     26.04964      7.74811
   -1.50     18.52667     25.69937      7.17270
   -1.25     18.75180     25.34909      6.59729
   -1.00     18.97693     24.99881      6.02188
   -0.75     19.44771     24.70380      5.25610
   -0.50     20.07147     24.44322      4.37175
   -0.25     20.69524     24.18263      3.48740
    0.00     21.31900     23.92205      2.60305
    0.25     22.03208     24.07598      2.04390
    0.50     22.74517     24.22992      1.48475
    0.75     23.45825     24.38386      0.92561
    1.00     24.04709     24.55934      0.51224
    1.25     24.43645     24.76941      0.33296
    1.50     24.82581     24.97948      0.15367
    1.75     25.21516     25.18955     -0.02561
    2.00     25.39304     25.30956     -0.08349
    2.25     25.50688     25.40229     -0.10460
    2.50     25.62072     25.49502     -0.12570
    2.75     25.71956     25.57641     -0.14315
    3.00     25.73425     25.59422     -0.14002
    3.25     25.74894     25.61204     -0.13690
    3.50     25.76363     25.62985     -0.13378
    3.75     25.76827     25.64016     -0.12811
    4.00     25.76366     25.64357     -0.12009
    4.25     25.75905     25.64698     -0.11207
    4.50     25.75444     25.65039     -0.10405
    4.75     25.74758     25.64930     -0.09828
    5.00     25.74048     25.64773     -0.09275
    5.25     25.73338     25.64616     -0.08722
    5.50     25.72525     25.64228     -0.08297
    5.75     25.71456     25.63270     -0.08186
    6.00     25.70386     25.62311     -0.08075
    6.25     25.69317     25.61352     -0.07965
    6.50     25.67802     25.60134     -0.07668
    6.75     25.66069     25.58788     -0.07281
    7.00     25.64336     25.57442     -0.06894
    7.25     25.62575     25.56059     -0.06516
    7.50     25.60334     25.54048     -0.06286
    7.75     25.58094     25.52037     -0.06057
    8.00     25.55854     25.50027     -0.05827
    8.25     25.53578     25.47863     -0.05715
    8.50     25.51255     25.45494     -0.05761
    8.75     25.48932     25.43125     -0.05807
    9.00     25.46610     25.40757     -0.05853
    9.25     25.44100     25.38141     -0.05959
    9.50     25.41547     25.35468     -0.06079
    9.75     25.38994     25.32795     -0.06198
   10.00     25.36408     25.30129     -0.06279
   10.25     25.33689     25.27493     -0.06196
   10.50     25.30970     25.24857     -0.06113
   10.75     25.28251     25.22220     -0.06030
   11.00     25.25297     25.19573     -0.05724
   11.25     25.22173     25.16919     -0.05254
   11.50     25.19048     25.14264     -0.04784
   11.75     25.15923     25.11609     -0.04314
   12.00     25.12669     25.08329     -0.04339
