~Version Information
VERS. 2.0:
WRAP. NO:

~Well Information
STRT.FT -71.25:
STOP.FT 665.00:
STEP.FT 0.25:
NULL. -999.25:

~Curve Information
DEPT.FT     : Depth below casing
PRETEMP.C   : Pre-pump Temperature
POSTTEMP.C  : Post-pump Temperature (aligned)
DIFFTEMP.C  : Post minus Pre Temperature

~A  DEPT  PRETEMP  POSTTEMP  DIFFTEMP
# ...
   12.25     25.09409     25.05024     -0.04385
   12.50     25.06150     25.01719     -0.04431
   12.75     25.02758     24.98260     -0.04498
   13.00     24.99099     24.94490     -0.04609
   13.25     24.95439     24.90720     -0.04720
   13.50     24.91780     24.86950     -0.04830
   13.75     24.88042     24.83180     -0.04862
   14.00     24.84271     24.79410     -0.04862
   14.25     24.80501     24.75640     -0.04862
   14.50     24.76779     24.71934     -0.04846
   14.75     24.73498     24.68818     -0.04680
   15.00     24.70216     24.65702     -0.04514
   15.25     24.66935     24.62587     -0.04348
   15.50     24.63937     24.59689     -0.04249
   15.75     24.61246     24.57025     -0.04221
   16.00     24.58554     24.54361     -0.04193
   16.25     24.55862     24.51697     -0.04166
   16.50     24.53101     24.48851     -0.04249
   16.75     24.50328     24.45978     -0.04350
   17.00     24.47555     24.43104     -0.04451
   17.25     24.44786     24.40188     -0.04598
   17.50     24.42030     24.37137     -0.04893
   17.75     24.39274     24.34086     -0.05188
   18.00     24.36518     24.31035     -0.05483
   18.25     24.33904     24.28087     -0.05818
   18.50     24.31378     24.25201     -0.06177
   18.75     24.28853     24.22316     -0.06537
   19.00     24.26326     24.19431     -0.06895
   19.25     24.23441     24.16509     -0.06932
   19.50     24.20556     24.13587     -0.06969
   19.75     24.17671     24.10665     -0.07006
   20.00     24.14501     24.07522     -0.06979
   20.25     24.10878     24.04029     -0.06850
   20.50     24.07256     24.00535     -0.06721
   20.75     24.03633     23.97042     -0.06591
   21.00     23.99802     23.93389     -0.06413
   21.25     23.95909     23.89689     -0.06221
   21.50     23.92016     23.85989     -0.06028
   21.75     23.88197     23.82330     -0.05867
   22.00     23.84833     23.78929     -0.05904
   22.25     23.81468     23.75528     -0.05941
   22.50     23.78104     23.72126     -0.05978
   22.75     23.74971     23.68942     -0.06029
   23.00     23.72049     23.65955     -0.06093
   23.25     23.69127     23.62969     -0.06158
   23.50     23.66205     23.59982     -0.06222
   23.75     23.63224     23.57364     -0.05861
   24.00     23.60238     23.54783     -0.05455
   24.25     23.57251     23.52202     -0.05049
   24.50     23.54340     23.49621     -0.04719
   24.75     23.51611     23.47040     -0.04571
   25.00     23.48883     23.44459     -0.04424
   25.25     23.46154     23.41878     -0.04276
   25.50     23.43687     23.39514     -0.04173
   25.75     23.41346     23.37256     -0.04090
   26.00     23.39004     23.34997     -0.04007
   26.25     23.36680     23.32759     -0.03922
   26.50     23.34726     23.30961     -0.03765
   26.75     23.32772     23.29164     -0.03608
   27.00     23.30818     23.27366     -0.03451
   27.25     23.28915     23.25739     -0.03176
   27.50     23.27081     23.24337     -0.02743
   27.75     23.25246     23.22936     -0.02310
   28.00     23.23412     23.21535     -0.01877
   28.25     23.21869     23.20164     -0.01705
   28.50     23.20395     23.18800     -0.01595
   28.75     23.18920     23.17436     -0.01484
   29.00     23.17557     23.16127     -0.01429
   29.25     23.16653     23.15049     -0.01605
   29.50     23.15750     23.13970     -0.01780
   29.75     23.14847     23.12892     -0.01955
   30.00     23.14249     23.12023     -0.02225
   30.25     23.13872     23.11307     -0.02565
   30.50     23.13496     23.10591     -0.02905
   30.75     23.13119     23.09875     -0.03244
   31.00     23.12741     23.09436     -0.03306
   31.25     23.12363     23.09012     -0.03352
   31.50     23.11986     23.08588     -0.03398
   31.75     23.11629     23.08133     -0.03496
   32.00     23.11316     23.07617     -0.03699
   32.25     23.11002     23.07101     -0.03902
   32.50     23.10689     23.06585     -0.04104
   32.75     23.10686     23.05963     -0.04723
   33.00     23.10806     23.05299     -0.05507
   33.25     23.10926     23.04635     -0.06290
   33.50     23.11061     23.04016     -0.07045
   33.75     23.11338     23.03795     -0.07543
   34.00     23.11614     23.03574     -0.08041
   34.25     23.11891     23.03352     -0.08538
   34.50     23.11882     23.03229     -0.08653
   34.75     23.11570     23.03211     -0.08359
   35.00     23.11258     23.03193     -0.08065
   35.25     23.10946     23.03174     -0.07772
   35.50     23.10263     23.03172     -0.07091
   35.75     23.09516     23.03172     -0.06345
   36.00     23.08769     23.03172     -0.05598
   36.25     23.08143     23.03115     -0.05028
   36.50     23.07903     23.02875     -0.05028
   36.75     23.07664     23.02635     -0.05028
   37.00     23.07424     23.02396     -0.05028
   37.25     23.07511     23.02122     -0.05389
   37.50     23.07797     23.01827     -0.05970
   37.75     23.08082     23.01532     -0.06551
   38.00     23.08367     23.01239     -0.07129
   38.25     23.08524     23.01349     -0.07175
   38.50     23.08681     23.01460     -0.07221
   38.75     23.08838     23.01571     -0.07267
   39.00     23.08919     23.01799     -0.07120
   39.25     23.08882     23.02212     -0.06670
   39.50     23.08846     23.02625     -0.06220
   39.75     23.08809     23.03038     -0.05771
   40.00     23.08849     23.03208     -0.05641
   40.25     23.08913     23.03300     -0.05613
   40.50     23.08978     23.03392     -0.05586
   40.75     23.09048     23.03464     -0.05584
   41.00     23.09149     23.03408     -0.05741
   41.25     23.09251     23.03353     -0.05897
   41.50     23.09352     23.03298     -0.06054
   41.75     23.09531     23.03470     -0.06061
   42.00     23.09780     23.03848     -0.05932
   42.25     23.10029     23.04226     -0.05803
   42.50     23.10277     23.04604     -0.05673
   42.75     23.10577     23.04932     -0.05645
   43.00     23.10881     23.05254     -0.05627
   43.25     23.11185     23.05577     -0.05608
   43.50     23.11241     23.05810     -0.05431
   43.75     23.10699     23.05829     -0.04871
   44.00     23.10158     23.05847     -0.04311
   44.25     23.09616     23.05865     -0.03751
   44.50     23.09000     23.05633     -0.03366
   44.75     23.08345     23.05274     -0.03071
   45.00     23.07691     23.04914     -0.02776
   45.25     23.07060     23.04546     -0.02515
   45.50     23.06922     23.03993     -0.02929
   45.75     23.06784     23.03440     -0.03344
   46.00     23.06645     23.02887     -0.03759
   46.25     23.06602     23.02464     -0.04138
   46.50     23.06685     23.02216     -0.04470
   46.75     23.06768     23.01967     -0.04802
   47.00     23.06851     23.01718     -0.05133
   47.25     23.07174     23.01784     -0.05390
   47.50     23.07552     23.01922     -0.05630
   47.75     23.07930     23.02061     -0.05870
   48.00     23.08193     23.02210     -0.05983
   48.25     23.07990     23.02403     -0.05587
   48.50     23.07788     23.02597     -0.05191
   48.75     23.07585     23.02791     -0.04794
   49.00     23.07543     23.02754     -0.04789
   49.25     23.07616     23.02552     -0.05064
   49.50     23.07690     23.02350     -0.05340
   49.75     23.07763     23.02148     -0.05615
   50.00     23.07907     23.01866     -0.06041
   50.25     23.08054     23.01581     -0.06474
   50.50     23.08202     23.01295     -0.06907
   50.75     23.08226     23.01148     -0.07078
   51.00     23.08005     23.01277     -0.06728
   51.25     23.07783     23.01406     -0.06377
   51.50     23.07562     23.01535     -0.06027
   51.75     23.07116     23.01572     -0.05544
   52.00     23.06581     23.01572     -0.05010
   52.25     23.06046     23.01572     -0.04475
   52.50     23.05547     23.01541     -0.04006
   52.75     23.05353     23.01246     -0.04107
   53.00     23.05160     23.00951     -0.04208
   53.25     23.04966     23.00656     -0.04310
   53.50     23.04835     23.00264     -0.04572
   53.75     23.04771     22.99768     -0.05003
