~Version Information
VERS. 2.0:
WRAP. NO:

~Well Information
STRT.FT -71.25:
STOP.FT 665.00:
STEP.FT 0.25:
NULL. -999.25:

~Curve Information
DEPT.FT     : Depth below casing
PRETEMP.C   : Pre-pump Temperature
POSTTEMP.C  : Post-pump Temperature (aligned)
DIFFTEMP.C  : Post minus Pre Temperature

~A  DEPT  PRETEMP  POSTTEMP  DIFFTEMP
# ...
  429.75     22.52799     22.54765      0.01966
  430.00     22.53222     22.54956      0.01734
  430.25     22.53663     22.55149      0.01486
  430.50     22.54103     22.55342      0.01238
  430.75     22.54469     22.55586      0.01117
  431.00     22.54681     22.55936      0.01255
  431.25     22.54893     22.56287      0.01393
  431.50     22.55105     22.56637      0.01532
  431.75     22.55108     22.56836      0.01729
  432.00     22.55025     22.56975      0.01950
  432.25     22.54942     22.57113      0.02171
  432.50     22.54869     22.57228      0.02358
  432.75     22.54897     22.57117      0.02220
  433.00     22.54925     22.57007      0.02082
  433.25     22.54952     22.56896      0.01944
  433.50     22.55139     22.56781      0.01642
  433.75     22.55498     22.56661      0.01163
  434.00     22.55858     22.56541      0.00684
  434.25     22.56217     22.56421      0.00204
  434.50     22.56504     22.56468     -0.00036
  434.75     22.56780     22.56542     -0.00238
  435.00     22.57055     22.56615     -0.00440
  435.25     22.57329     22.56778     -0.00550
  435.50     22.57596     22.57239     -0.00357
  435.75     22.57863     22.57700     -0.00163
  436.00     22.58131     22.58161      0.00030
  436.25     22.58375     22.58508      0.00133
  436.50     22.58606     22.58785      0.00179
  436.75     22.58836     22.59061      0.00225
  437.00     22.59066     22.59338      0.00271
  437.25     22.59279     22.59301      0.00023
  437.50     22.59491     22.59264     -0.00226
  437.75     22.59703     22.59228     -0.00475
  438.00     22.59886     22.59304     -0.00583
  438.25     22.60025     22.59562     -0.00463
  438.50     22.60163     22.59820     -0.00343
  438.75     22.60301     22.60078     -0.00223
  439.00     22.60523     22.60511     -0.00012
  439.25     22.60771     22.60998      0.00227
  439.50     22.61019     22.61485      0.00465
  439.75     22.61267     22.61946      0.00679
  440.00     22.61516     22.62250      0.00734
  440.25     22.61765     22.62555      0.00790
  440.50     22.62014     22.62859      0.00845
  440.75     22.62359     22.63048      0.00689
  441.00     22.62792     22.63131      0.00339
  441.25     22.63225     22.63214     -0.00011
  441.50     22.63658     22.63297     -0.00361
  441.75     22.64217     22.63413     -0.00803
  442.00     22.64788     22.63533     -0.01255
  442.25     22.65360     22.63653     -0.01707
  442.50     22.65783     22.63778     -0.02005
  442.75     22.65838     22.63916     -0.01922
  443.00     22.65893     22.64054     -0.01839
  443.25     22.65948     22.64193     -0.01756
  443.50     22.65967     22.64411     -0.01556
  443.75     22.65967     22.64668     -0.01299
  444.00     22.65967     22.64925     -0.01042
  444.25     22.65972     22.65180     -0.00792
  444.50     22.66101     22.65392     -0.00709
  444.75     22.66230     22.65604     -0.00626
  445.00     22.66359     22.65816     -0.00543
  445.25     22.66363     22.65970     -0.00393
  445.50     22.66197     22.66043     -0.00154
  445.75     22.66031     22.66117      0.00086
  446.00     22.65865     22.66191      0.00326
  446.25     22.65938     22.66324      0.00386
  446.50     22.66067     22.66472      0.00405
  446.75     22.66196     22.66619      0.00423
  447.00     22.66399     22.66829      0.00429
  447.25     22.66915     22.67299      0.00383
  447.50     22.67432     22.67769      0.00337
  447.75     22.67948     22.68239      0.00291
  448.00     22.68510     22.68687      0.00176
  448.25     22.69107     22.69118      0.00011
  448.50     22.69704     22.69550     -0.00154
  448.75     22.70301     22.69981     -0.00319
  449.00     22.70124     22.70292      0.00168
  449.25     22.69903     22.70597      0.00694
  449.50     22.69682     22.70901      0.01219
  449.75     22.69400     22.71150      0.01751
  450.00     22.68994     22.71289      0.02295
  450.25     22.68589     22.71427      0.02838
  450.50     22.68183     22.71565      0.03382
  450.75     22.68468     22.71763      0.03295
  451.00     22.69030     22.71984      0.02954
  451.25     22.69592     22.72205      0.02613
  451.50     22.70163     22.72416      0.02252
  451.75     22.70818     22.72526      0.01708
  452.00     22.71472     22.72637      0.01164
  452.25     22.72127     22.72747      0.00621
  452.50     22.72568     22.72787      0.00219
  452.75     22.72779     22.72750     -0.00029
  453.00     22.72991     22.72714     -0.00277
  453.25     22.73202     22.72677     -0.00525
  453.50     22.73374     22.72711     -0.00664
  453.75     22.73540     22.72757     -0.00784
  454.00     22.73706     22.72803     -0.00903
  454.25     22.73961     22.72847     -0.01114
  454.50     22.74504     22.72884     -0.01621
  454.75     22.75048     22.72921     -0.02128
  455.00     22.75592     22.72957     -0.02635
  455.25     22.75937     22.73148     -0.02789
  455.50     22.76158     22.73434     -0.02724
  455.75     22.76379     22.73720     -0.02660
  456.00     22.76599     22.74005     -0.02594
  456.25     22.76074     22.74097     -0.01977
  456.50     22.75548     22.74189     -0.01359
  456.75     22.75023     22.74282     -0.00741
  457.00     22.74615     22.74356     -0.00259
  457.25     22.74395     22.74402      0.00007
  457.50     22.74174     22.74448      0.00273
  457.75     22.73954     22.74494      0.00540
  458.00     22.74192     22.74519      0.00326
  458.25     22.74579     22.74537     -0.00042
  458.50     22.74967     22.74556     -0.00411
  458.75     22.75358     22.74600     -0.00758
  459.00     22.75772     22.74802     -0.00970
  459.25     22.76187     22.75005     -0.01182
  459.50     22.76602     22.75208     -0.01394
  459.75     22.76901     22.75464     -0.01437
  460.00     22.77095     22.75768     -0.01327
  460.25     22.77288     22.76072     -0.01216
  460.50     22.77482     22.76376     -0.01106
  460.75     22.77567     22.76430     -0.01137
  461.00     22.77641     22.76458     -0.01183
  461.25     22.77714     22.76485     -0.01229
  461.50     22.77692     22.76529     -0.01163
  461.75     22.77435     22.76611     -0.00824
  462.00     22.77178     22.76694     -0.00484
  462.25     22.76921     22.76777     -0.00144
  462.50     22.76943     22.76969      0.00026
  462.75     22.77109     22.77218      0.00109
  463.00     22.77275     22.77467      0.00192
  463.25     22.77447     22.77710      0.00263
  463.50     22.77770     22.77830      0.00060
  463.75     22.78093     22.77950     -0.00143
  464.00     22.78415     22.78070     -0.00346
  464.25     22.78659     22.78134     -0.00525
  464.50     22.78797     22.78125     -0.00672
  464.75     22.78936     22.78116     -0.00820
  465.00     22.79074     22.78107     -0.00967
  465.25     22.79152     22.78404     -0.00748
  465.50     22.79217     22.78773     -0.00444
  465.75     22.79281     22.79141     -0.00140
  466.00     22.79340     22.79549      0.00209
  466.25     22.79377     22.80118      0.00741
  466.50     22.79414     22.80688      0.01274
  466.75     22.79451     22.81257      0.01806
  467.00     22.79623     22.81723      0.02101
  467.25     22.79899     22.82110      0.02211
  467.50     22.80176     22.82498      0.02322
  467.75     22.80452     22.82885      0.02432
  468.00     22.80807     22.82966      0.02159
  468.25     22.81167     22.83031      0.01864
  468.50     22.81526     22.83095      0.01569
  468.75     22.81920     22.83239      0.01320
  469.00     22.82380     22.83543      0.01163
  469.25     22.82841     22.83847      0.01006
  469.50     22.83302     22.84152      0.00849
  469.75     22.83638     22.84416      0.00778
  470.00     22.83924     22.84665      0.00742
  470.25     22.84209     22.84914      0.00705
  470.50     22.84476     22.85136      0.00661
  470.75     22.84568     22.85118      0.00550
  471.00     22.84659     22.85100      0.00440
  471.25     22.84751     22.85081      0.00330
