~Version Information
VERS. 2.0:
WRAP. NO:

~Well Information
STRT.FT -71.25:
STOP.FT 665.00:
STEP.FT 0.25:
NULL. -999.25:

~Curve Information
DEPT.FT     : Depth below casing
PRETEMP.C   : Pre-pump Temperature
POSTTEMP.C  : Post-pump Temperature (aligned)
DIFFTEMP.C  : Post minus Pre Temperature

~A  DEPT  PRETEMP  POSTTEMP  DIFFTEMP
# ...
  638.50     23.98915     23.96787     -0.02128
  638.75     23.99284     23.97155     -0.02128
  639.00     23.99554     23.97452     -0.02102
  639.25     23.99821     23.97746     -0.02075
  639.50     24.00087     23.98040     -0.02047
  639.75     24.00225     23.98334     -0.01891
  640.00     24.00096     23.98629     -0.01467
  640.25     23.99967     23.98924     -0.01043
  640.50     23.99838     23.99219     -0.00618
  640.75     23.99584     23.99449     -0.00136
  641.00     23.99280     23.99651      0.00371
  641.25     23.98976     23.99854      0.00878
  641.50     23.98709     24.00051      0.01342
  641.75     23.98801     24.00189      0.01389
  642.00     23.98893     24.00328      0.01435
  642.25     23.98985     24.00466      0.01481
  642.50     23.99315     24.00745      0.01430
  642.75     23.99904     24.01178      0.01273
  643.00     24.00494     24.01611      0.01117
  643.25     24.01084     24.02044      0.00960
  643.50     24.01625     24.02516      0.00891
  643.75     24.02157     24.02993      0.00836
  644.00     24.02690     24.03471      0.00781
  644.25     24.03115     24.03898      0.00783
  644.50     24.03179     24.04156      0.00976
  644.75     24.03244     24.04414      0.01170
  645.00     24.03308     24.04672      0.01363
  645.25     24.03379     24.04970      0.01591
  645.50     24.03452     24.05292      0.01840
  645.75     24.03526     24.05615      0.02089
  646.00     24.03600     24.05937      0.02338
  646.25     24.04069     24.06214      0.02145
  646.50     24.04539     24.06491      0.01952
  646.75     24.05009     24.06767      0.01758
  647.00     24.05405     24.06885      0.01480
  647.25     24.05682     24.06747      0.01065
  647.50     24.05959     24.06609      0.00650
  647.75     24.06235     24.06471      0.00236
  648.00     24.06384     24.06522      0.00138
  648.25     24.06494     24.06633      0.00138
  648.50     24.06605     24.06743      0.00138
  648.75     24.06720     24.06889      0.00169
  649.00     24.06867     24.07267      0.00400
  649.25     24.07015     24.07645      0.00630
  649.50     24.07162     24.08023      0.00861
  649.75     24.07487     24.08348      0.00862
  650.00     24.07975     24.08625      0.00650
  650.25     24.08464     24.08901      0.00438
  650.50     24.08952     24.09178      0.00226
  650.75     24.09416     24.09513      0.00097
  651.00     24.09877     24.09854     -0.00023
  651.25     24.10338     24.10195     -0.00143
  651.50     24.10746     24.10523     -0.00223
  651.75     24.11022     24.10818     -0.00205
  652.00     24.11299     24.11112     -0.00186
  652.25     24.11575     24.11407     -0.00168
  652.50     24.11802     24.11566     -0.00236
  652.75     24.12004     24.11658     -0.00346
  653.00     24.12206     24.11750     -0.00456
  653.25     24.12411     24.11852     -0.00559
  653.50     24.12687     24.12193     -0.00495
  653.75     24.12964     24.12534     -0.00430
  654.00     24.13240     24.12875     -0.00366
  654.25     24.13474     24.13255     -0.00219
  654.50     24.13649     24.13688      0.00039
  654.75     24.13824     24.14121      0.00297
  655.00     24.14000     24.14555      0.00555
  655.25     24.14071     24.14824      0.00754
  655.50     24.14117     24.15055      0.00938
  655.75     24.14163     24.15285      0.01122
  656.00     24.14281     24.15510      0.01229
  656.25     24.14705     24.15713      0.01008
  656.50     24.15129     24.15916      0.00787
  656.75     24.15553     24.16119      0.00566
  657.00     24.15913     24.16279      0.00366
  657.25     24.16225     24.16407      0.00182
  657.50     24.16537     24.16536     -0.00001
  657.75     24.16849     24.16664     -0.00185
  658.00     24.16875     24.16898      0.00022
  658.25     24.16885     24.17137      0.00253
  658.50     24.16894     24.17377      0.00483
  658.75     24.17036     24.17732      0.00696
  659.00     24.17451     24.18321      0.00871
  659.25     24.17866     24.18911      0.01046
  659.50     24.18280     24.19501      0.01221
  659.75     24.18853     24.19881      0.01029
  660.00     24.19489     24.20176      0.00688
  660.25     24.20125     24.20471      0.00347
  660.50     24.20719     24.20731      0.00012
  660.75     24.20922     24.20657     -0.00265
  661.00     24.21125     24.20584     -0.00541
  661.25     24.21328     24.20510     -0.00818
  661.50     24.21433     24.20467     -0.00966
  661.75     24.21433     24.20458     -0.00975
  662.00     24.21433     24.20449     -0.00985
  662.25     24.21433     24.20440     -0.00994
  662.50     24.21285     24.20712     -0.00573
  662.75     24.21110     24.21035     -0.00075
  663.00     24.20934     24.21357      0.00423
  663.25     24.20806     24.21708      0.00901
  663.50     24.20834     24.22150      0.01316
  663.75     24.20862     24.22593      0.01731
  664.00     24.20889     24.23035      0.02146
  664.25     24.21281     24.23568      0.02288
  664.50     24.21898     24.24158      0.02260
  664.75     24.22516     24.24748      0.02233
  665.00     24.23133     24.25338      0.02205
