~Version Information
VERS. 2.0:
WRAP. NO:

~Well Information
STRT.FT -71.25:
STOP.FT 665.00:
STEP.FT 0.25:
NULL. -999.25:

~Curve Information
DEPT.FT     : Depth below casing
PRETEMP.C   : Pre-pump Temperature
POSTTEMP.C  : Post-pump Temperature (aligned)
DIFFTEMP.C  : Post minus Pre Temperature

~A  DEPT  PRETEMP  POSTTEMP  DIFFTEMP
# ...
  346.25     22.04236     22.04448      0.00212
  346.50     22.04264     22.04835      0.00571
  346.75     22.04467     22.05022      0.00555
  347.00     22.04688     22.05188      0.00499
  347.25     22.04910     22.05354      0.00444
  347.50     22.05139     22.05480      0.00341
  347.75     22.05388     22.05507      0.00120
  348.00     22.05637     22.05535     -0.00102
  348.25     22.05885     22.05562     -0.00323
  348.50     22.05985     22.05602     -0.00383
  348.75     22.06013     22.05648     -0.00364
  349.00     22.06040     22.05694     -0.00346
  349.25     22.06074     22.05735     -0.00338
  349.50     22.06240     22.05671     -0.00569
  349.75     22.06406     22.05606     -0.00799
  350.00     22.06572     22.05542     -0.01030
  350.25     22.06714     22.05698     -0.01016
  350.50     22.06824     22.06149     -0.00675
  350.75     22.06935     22.06601     -0.00334
  351.00     22.07046     22.07053      0.00007
  351.25     22.06970     22.07504      0.00535
  351.50     22.06850     22.07956      0.01106
  351.75     22.06730     22.08408      0.01678
  352.00     22.06608     22.08757      0.02149
  352.25     22.06479     22.08683      0.02204
  352.50     22.06350     22.08610      0.02260
  352.75     22.06221     22.08536      0.02315
  353.00     22.06337     22.08484      0.02147
  353.25     22.06630     22.08447      0.01817
  353.50     22.06924     22.08410      0.01486
  353.75     22.07218     22.08373      0.01155
  354.00     22.07635     22.08581      0.00946
  354.25     22.08059     22.08802      0.00743
  354.50     22.08483     22.09024      0.00540
  354.75     22.08834     22.09300      0.00466
  355.00     22.09037     22.09687      0.00650
  355.25     22.09239     22.10074      0.00835
  355.50     22.09442     22.10461      0.01019
  355.75     22.09612     22.10697      0.01085
  356.00     22.09769     22.10872      0.01103
  356.25     22.09925     22.11047      0.01122
  356.50     22.10076     22.11222      0.01146
  356.75     22.10168     22.11397      0.01229
  357.00     22.10260     22.11572      0.01312
  357.25     22.10352     22.11748      0.01395
  357.50     22.10440     22.11962      0.01522
  357.75     22.10523     22.12219      0.01697
  358.00     22.10605     22.12476      0.01871
  358.25     22.10688     22.12734      0.02046
  358.50     22.10747     22.12991      0.02244
  358.75     22.10802     22.13250      0.02447
  359.00     22.10858     22.13508      0.02650
  359.25     22.10898     22.13687      0.02790
  359.50     22.10889     22.13614      0.02725
  359.75     22.10879     22.13540      0.02661
  360.00     22.10870     22.13466      0.02596
  360.25     22.11107     22.13364      0.02257
  360.50     22.11494     22.13244      0.01750
  360.75     22.11881     22.13124      0.01243
  361.00     22.12268     22.13006      0.00737
  361.25     22.12711     22.13190      0.00479
  361.50     22.13153     22.13374      0.00221
  361.75     22.13596     22.13559     -0.00037
  362.00     22.13842     22.13853      0.00011
  362.25     22.13777     22.14321      0.00544
  362.50     22.13713     22.14789      0.01076
  362.75     22.13649     22.15258      0.01609
  363.00     22.13347     22.15497      0.02150
  363.25     22.12969     22.15663      0.02694
  363.50     22.12591     22.15829      0.03238
  363.75     22.12290     22.15924      0.03633
  364.00     22.12456     22.15582      0.03127
  364.25     22.12622     22.15241      0.02620
  364.50     22.12788     22.14900      0.02113
  364.75     22.12983     22.14903      0.01920
  365.00     22.13204     22.15216      0.02012
  365.25     22.13425     22.15529      0.02104
  365.50     22.13646     22.15843      0.02196
  365.75     22.13868     22.16031      0.02163
  366.00     22.14089     22.16206      0.02117
  366.25     22.14310     22.16381      0.02071
  366.50     22.14520     22.16381      0.01861
  366.75     22.14704     22.15959      0.01255
  367.00     22.14888     22.15537      0.00649
  367.25     22.15071     22.15114      0.00043
  367.50     22.15353     22.14923     -0.00430
  367.75     22.15685     22.14849     -0.00836
  368.00     22.16017     22.14775     -0.01241
  368.25     22.16354     22.14725     -0.01629
  368.50     22.16815     22.15177     -0.01638
  368.75     22.17276     22.15629     -0.01647
  369.00     22.17737     22.16080     -0.01657
  369.25     22.18036     22.16508     -0.01527
  369.50     22.18119     22.16905     -0.01214
  369.75     22.18202     22.17301     -0.00900
  370.00     22.18284     22.17697     -0.00587
  370.25     22.18210     22.17801     -0.00409
  370.50     22.18099     22.17838     -0.00261
  370.75     22.17989     22.17875     -0.00114
  371.00     22.17936     22.17896     -0.00040
  371.25     22.18120     22.17850     -0.00270
  371.50     22.18303     22.17804     -0.00499
  371.75     22.18487     22.17758     -0.00729
  372.00     22.18718     22.17931     -0.00787
  372.25     22.18985     22.18272     -0.00713
  372.50     22.19253     22.18613     -0.00639
  372.75     22.19520     22.18954     -0.00565
  373.00     22.19542     22.18972     -0.00571
  373.25     22.19551     22.18972     -0.00580
  373.50     22.19561     22.18972     -0.00589
  373.75     22.19530     22.18815     -0.00715
  374.00     22.19419     22.18344     -0.01075
  374.25     22.19309     22.17874     -0.01434
  374.50     22.19198     22.17404     -0.01794
  374.75     22.19120     22.17338     -0.01783
  375.00     22.19056     22.17430     -0.01626
  375.25     22.18991     22.17522     -0.01469
  375.50     22.18932     22.17663     -0.01270
  375.75     22.18923     22.18232     -0.00691
  376.00     22.18914     22.18801     -0.00113
  376.25     22.18905     22.19370      0.00466
  376.50     22.18904     22.19819      0.00915
  376.75     22.18914     22.20133      0.01219
  377.00     22.18923     22.20446      0.01523
  377.25     22.18932     22.20759      0.01827
  377.50     22.19044     22.20781      0.01738
  377.75     22.19173     22.20754      0.01581
  378.00     22.19302     22.20726      0.01424
  378.25     22.19490     22.20681      0.01191
  378.50     22.19868     22.20579      0.00711
  378.75     22.20246     22.20478      0.00232
  379.00     22.20624     22.20376     -0.00247
  379.25     22.20962     22.20350     -0.00612
  379.50     22.21275     22.20368     -0.00907
  379.75     22.21589     22.20387     -0.01202
  380.00     22.21900     22.20405     -0.01495
  380.25     22.21909     22.20488     -0.01421
  380.50     22.21918     22.20571     -0.01348
  380.75     22.21928     22.20653     -0.01274
  381.00     22.21916     22.20656     -0.01260
  381.25     22.21870     22.20527     -0.01343
  381.50     22.21824     22.20398     -0.01426
  381.75     22.21778     22.20269     -0.01509
  382.00     22.21865     22.20511     -0.01353
  382.25     22.21994     22.20871     -0.01123
  382.50     22.22123     22.21230     -0.00893
  382.75     22.22250     22.21629     -0.00621
  383.00     22.22370     22.22265     -0.00105
  383.25     22.22490     22.22901      0.00411
  383.50     22.22610     22.23537      0.00927
  383.75     22.22623     22.23935      0.01312
  384.00     22.22540     22.24120      0.01580
  384.25     22.22457     22.24304      0.01847
  384.50     22.22374     22.24488      0.02114
  384.75     22.22358     22.24321      0.01963
  385.00     22.22349     22.24119      0.01770
  385.25     22.22340     22.23917      0.01577
  385.50     22.22336     22.23772      0.01436
  385.75     22.22345     22.23772      0.01426
  386.00     22.22354     22.23772      0.01417
  386.25     22.22364     22.23772      0.01408
  386.50     22.22465     22.23876      0.01411
  386.75     22.22612     22.24032      0.01420
  387.00     22.22760     22.24189      0.01429
  387.25     22.22910     22.24349      0.01440
  387.50     22.23112     22.24580      0.01467
  387.75     22.23315     22.24810      0.01495
