~Version Information
VERS. 2.0:
WRAP. NO:

~Well Information
STRT.FT -71.25:
STOP.FT 665.00:
STEP.FT 0.25:
NULL. -999.25:

~Curve Information
DEPT.FT     : Depth below casing
PRETEMP.C   : Pre-pump Temperature
POSTTEMP.C  : Post-pump Temperature (aligned)
DIFFTEMP.C  : Post minus Pre Temperature

~A  DEPT  PRETEMP  POSTTEMP  DIFFTEMP
# ...
  262.75     21.55095     21.54991     -0.00104
  263.00     21.55455     21.54982     -0.00473
  263.25     21.55814     21.54973     -0.00841
  263.50     21.56268     21.55192     -0.01076
  263.75     21.56738     21.55450     -0.01288
  264.00     21.57209     21.55708     -0.01500
  264.25     21.57611     21.55966     -0.01644
  264.50     21.57795     21.56224     -0.01571
  264.75     21.57979     21.56483     -0.01497
  265.00     21.58164     21.56741     -0.01423
  265.25     21.58239     21.56804     -0.01435
  265.50     21.58248     21.56748     -0.01500
  265.75     21.58258     21.56693     -0.01564
  266.00     21.58267     21.56638     -0.01628
  266.25     21.58294     21.56694     -0.01601
  266.50     21.58322     21.56749     -0.01573
  266.75     21.58349     21.56804     -0.01546
  267.00     21.58412     21.56866     -0.01546
  267.25     21.58531     21.56940     -0.01592
  267.50     21.58651     21.57013     -0.01638
  267.75     21.58771     21.57087     -0.01684
  268.00     21.58758     21.57350     -0.01408
  268.25     21.58703     21.57672     -0.01030
  268.50     21.58647     21.57995     -0.00652
  268.75     21.58637     21.58300     -0.00336
  269.00     21.58895     21.58503     -0.00392
  269.25     21.59153     21.58706     -0.00447
  269.50     21.59411     21.58909     -0.00502
  269.75     21.59626     21.58976     -0.00650
  270.00     21.59801     21.58920     -0.00880
  270.25     21.59976     21.58865     -0.01111
  270.50     21.60151     21.58810     -0.01341
  270.75     21.60008     21.58964     -0.01044
  271.00     21.59833     21.59138     -0.00695
  271.25     21.59659     21.59313     -0.00346
  271.50     21.59515     21.59567      0.00052
  271.75     21.59451     21.60028      0.00577
  272.00     21.59386     21.60489      0.01103
  272.25     21.59322     21.60950      0.01628
  272.50     21.59679     21.61307      0.01627
  272.75     21.60251     21.61611      0.01360
  273.00     21.60822     21.61915      0.01093
  273.25     21.61391     21.62194      0.00804
  273.50     21.61898     21.61973      0.00075
  273.75     21.62405     21.61752     -0.00653
  274.00     21.62912     21.61531     -0.01381
  274.25     21.63280     21.61377     -0.01902
  274.50     21.63464     21.61312     -0.02151
  274.75     21.63648     21.61248     -0.02400
  275.00     21.63833     21.61183     -0.02649
  275.25     21.63717     21.61276     -0.02441
  275.50     21.63533     21.61405     -0.02129
  275.75     21.63350     21.61533     -0.01816
  276.00     21.63166     21.61655     -0.01511
  276.25     21.62982     21.61747     -0.01234
  276.50     21.62797     21.61840     -0.00958
  276.75     21.62613     21.61932     -0.00681
  277.00     21.62439     21.62040     -0.00399
  277.25     21.62273     21.62159     -0.00114
  277.50     21.62107     21.62279      0.00172
  277.75     21.61941     21.62399      0.00458
  278.00     21.62170     21.62642      0.00472
  278.25     21.62419     21.62891      0.00472
  278.50     21.62668     21.63140      0.00472
  278.75     21.62926     21.63407      0.00481
  279.00     21.63203     21.63711      0.00508
  279.25     21.63479     21.64015      0.00536
  279.50     21.63756     21.64320      0.00564
  279.75     21.63866     21.64405      0.00538
  280.00     21.63912     21.64405      0.00493
  280.25     21.63958     21.64405      0.00447
  280.50     21.63993     21.64413      0.00420
  280.75     21.63920     21.64505      0.00586
  281.00     21.63846     21.64597      0.00751
  281.25     21.63772     21.64690      0.00917
  281.50     21.63803     21.64808      0.01005
  281.75     21.63951     21.64955      0.01005
  282.00     21.64098     21.65103      0.01005
  282.25     21.64246     21.65250      0.01005
  282.50     21.64575     21.65422      0.00847
  282.75     21.64934     21.65597      0.00663
  283.00     21.65294     21.65772      0.00478
  283.25     21.65653     21.65965      0.00312
  283.50     21.66013     21.66214      0.00201
  283.75     21.66372     21.66462      0.00090
  284.00     21.66732     21.66711     -0.00020
  284.25     21.66981     21.66879     -0.00102
  284.50     21.67165     21.66999     -0.00166
  284.75     21.67349     21.67118     -0.00230
  285.00     21.67532     21.67237     -0.00295
  285.25     21.67488     21.67504      0.00016
  285.50     21.67441     21.67771      0.00330
  285.75     21.67395     21.68038      0.00643
  286.00     21.67440     21.68240      0.00800
  286.25     21.67633     21.68332      0.00698
  286.50     21.67827     21.68424      0.00597
  286.75     21.68020     21.68516      0.00496
  287.00     21.68375     21.68349     -0.00027
  287.25     21.68781     21.68100     -0.00681
  287.50     21.69187     21.67851     -0.01336
  287.75     21.69572     21.67623     -0.01949
  288.00     21.69839     21.67522     -0.02317
  288.25     21.70107     21.67421     -0.02686
  288.50     21.70374     21.67319     -0.03055
  288.75     21.70519     21.67403     -0.03117
  289.00     21.70556     21.67651     -0.02906
  289.25     21.70593     21.67898     -0.02694
  289.50     21.70630     21.68146     -0.02483
  289.75     21.70816     21.68420     -0.02396
  290.00     21.71018     21.68697     -0.02322
  290.25     21.71221     21.68973     -0.02248
  290.50     21.71414     21.69208     -0.02206
  290.75     21.71579     21.69337     -0.02242
  291.00     21.71745     21.69466     -0.02279
  291.25     21.71911     21.69595     -0.02316
  291.50     21.71850     21.69700     -0.02150
  291.75     21.71675     21.69792     -0.01883
  292.00     21.71500     21.69884     -0.01616
  292.25     21.71328     21.69993     -0.01335
  292.50     21.71217     21.70426     -0.00791
  292.75     21.71107     21.70860     -0.00247
  293.00     21.70996     21.71293      0.00297
  293.25     21.71049     21.71765      0.00716
  293.50     21.71315     21.72289      0.00973
  293.75     21.71581     21.72812      0.01231
  294.00     21.71848     21.73335      0.01488
  294.25     21.72374     21.73697      0.01323
  294.50     21.72964     21.74020      0.01056
  294.75     21.73554     21.74343      0.00789
  295.00     21.74054     21.74588      0.00534
  295.25     21.74165     21.74495      0.00331
  295.50     21.74275     21.74403      0.00128
  295.75     21.74386     21.74311     -0.00075
  296.00     21.74260     21.74066     -0.00193
  296.25     21.73956     21.73707     -0.00249
  296.50     21.73651     21.73347     -0.00304
  296.75     21.73347     21.72988     -0.00359
  297.00     21.73298     21.73218     -0.00080
  297.25     21.73261     21.73476      0.00215
  297.50     21.73224     21.73734      0.00510
  297.75     21.73365     21.74133      0.00767
  298.00     21.73854     21.74805      0.00952
  298.25     21.74342     21.75478      0.01136
  298.50     21.74831     21.76151      0.01320
  298.75     21.75185     21.76550      0.01365
  299.00     21.75488     21.76844      0.01356
  299.25     21.75791     21.77138      0.01347
  299.50     21.76090     21.77389      0.01298
  299.75     21.76348     21.77214      0.00865
  300.00     21.76607     21.77039      0.00432
  300.25     21.76865     21.76863     -0.00001
  300.50     21.77048     21.76772     -0.00277
  300.75     21.77150     21.76772     -0.00378
  301.00     21.77251     21.76772     -0.00479
  301.25     21.77352     21.76772     -0.00581
  301.50     21.77375     21.76938     -0.00437
  301.75     21.77384     21.77131     -0.00252
  302.00     21.77393     21.77325     -0.00068
  302.25     21.77472     21.77530      0.00058
  302.50     21.77767     21.77769      0.00003
  302.75     21.78062     21.78009     -0.00053
  303.00     21.78357     21.78249     -0.00108
  303.25     21.78547     21.78614      0.00067
  303.50     21.78676     21.79055      0.00379
  303.75     21.78804     21.79496      0.00692
  304.00     21.78933     21.79937      0.01004
  304.25     21.79053     21.80296      0.01244
