~Version Information
VERS. 2.0:
WRAP. NO:

~Well Information
STRT.FT -71.25:
STOP.FT 665.00:
STEP.FT 0.25:
NULL. -999.25:

~Curve Information
DEPT.FT     : Depth below casing
PRETEMP.C   : Pre-pump Temperature
POSTTEMP.C  : Post-pump Temperature (aligned)
DIFFTEMP.C  : Post minus Pre Temperature

~A  DEPT  PRETEMP  POSTTEMP  DIFFTEMP
# ...
  304.50     21.79173     21.80656      0.01483
  304.75     21.79292     21.81015      0.01723
  305.00     21.79489     21.81217      0.01728
  305.25     21.79812     21.81162      0.01350
  305.50     21.80135     21.81107      0.00972
  305.75     21.80457     21.81051      0.00594
  306.00     21.80547     21.81087      0.00540
  306.25     21.80566     21.81152      0.00586
  306.50     21.80584     21.81217      0.00632
  306.75     21.80607     21.81280      0.00673
  307.00     21.80653     21.81335      0.00682
  307.25     21.80699     21.81390      0.00691
  307.50     21.80745     21.81446      0.00701
  307.75     21.80742     21.81374      0.00632
  308.00     21.80696     21.81190      0.00494
  308.25     21.80650     21.81007      0.00356
  308.50     21.80605     21.80823      0.00218
  308.75     21.80774     21.80730     -0.00044
  309.00     21.80968     21.80647     -0.00321
  309.25     21.81162     21.80564     -0.00597
  309.50     21.81371     21.80589     -0.00782
  309.75     21.81620     21.80884     -0.00736
  310.00     21.81869     21.81179     -0.00690
  310.25     21.82118     21.81474     -0.00644
  310.50     21.82280     21.81991     -0.00290
  310.75     21.82400     21.82617      0.00217
  311.00     21.82520     21.83244      0.00724
  311.25     21.82648     21.83859      0.01211
  311.50     21.82924     21.84255      0.01331
  311.75     21.83201     21.84652      0.01451
  312.00     21.83477     21.85048      0.01571
  312.25     21.83693     21.85276      0.01582
  312.50     21.83831     21.85285      0.01454
  312.75     21.83969     21.85294      0.01325
  313.00     21.84107     21.85303      0.01196
  313.25     21.84245     21.85349      0.01105
  313.50     21.84383     21.85405      0.01022
  313.75     21.84521     21.85460      0.00939
  314.00     21.84693     21.85521      0.00828
  314.25     21.85006     21.85604      0.00597
  314.50     21.85320     21.85686      0.00367
  314.75     21.85633     21.85769      0.00137
  315.00     21.85989     21.85789     -0.00200
  315.25     21.86376     21.85761     -0.00614
  315.50     21.86763     21.85734     -0.01029
  315.75     21.87150     21.85706     -0.01444
  316.00     21.87502     21.85731     -0.01771
  316.25     21.87852     21.85759     -0.02093
  316.50     21.88202     21.85787     -0.02416
  316.75     21.88465     21.85924     -0.02541
  317.00     21.88556     21.86273     -0.02284
  317.25     21.88648     21.86622     -0.02027
  317.50     21.88740     21.86970     -0.01770
  317.75     21.88780     21.87412     -0.01368
  318.00     21.88798     21.87891     -0.00907
  318.25     21.88817     21.88371     -0.00446
  318.50     21.88853     21.88821     -0.00032
  318.75     21.89065     21.88996     -0.00069
  319.00     21.89277     21.89172     -0.00106
  319.25     21.89489     21.89347     -0.00143
  319.50     21.89613     21.89451     -0.00162
  319.75     21.89641     21.89479     -0.00162
  320.00     21.89669     21.89507     -0.00162
  320.25     21.89696     21.89534     -0.00162
  320.50     21.89779     21.89705     -0.00074
  320.75     21.89872     21.89899      0.00027
  321.00     21.89964     21.90092      0.00128
  321.25     21.90121     21.90290      0.00169
  321.50     21.90479     21.90501      0.00022
  321.75     21.90837     21.90712     -0.00125
  322.00     21.91195     21.90924     -0.00272
  322.25     21.91282     21.91073     -0.00209
  322.50     21.91199     21.91183     -0.00016
  322.75     21.91116     21.91294      0.00178
  323.00     21.91033     21.91405      0.00371
  323.25     21.90923     21.91709      0.00786
  323.50     21.90812     21.92013      0.01201
  323.75     21.90702     21.92317      0.01615
  324.00     21.90760     21.92593      0.01833
  324.25     21.91092     21.92823      0.01731
  324.50     21.91424     21.93054      0.01630
  324.75     21.91756     21.93284      0.01529
  325.00     21.92179     21.93416      0.01236
  325.25     21.92631     21.93517      0.00886
  325.50     21.93083     21.93619      0.00536
  325.75     21.93503     21.93727      0.00224
  326.00     21.93741     21.93874      0.00133
  326.25     21.93980     21.94021      0.00041
  326.50     21.94219     21.94168     -0.00051
  326.75     21.94142     21.94296      0.00154
  327.00     21.93773     21.94406      0.00633
  327.25     21.93404     21.94517      0.01113
  327.50     21.93036     21.94628      0.01592
  327.75     21.92700     21.94721      0.02021
  328.00     21.92368     21.94814      0.02445
  328.25     21.92037     21.94906      0.02869
  328.50     21.91916     21.94979      0.03063
  328.75     21.92322     21.95007      0.02685
  329.00     21.92728     21.95035      0.02307
  329.25     21.93133     21.95062      0.01929
  329.50     21.93625     21.95028      0.01403
  329.75     21.94160     21.94964      0.00804
  330.00     21.94695     21.94899      0.00205
  330.25     21.95217     21.94834     -0.00382
  330.50     21.95520     21.94761     -0.00759
  330.75     21.95823     21.94687     -0.01135
  331.00     21.96126     21.94614     -0.01512
  331.25     21.96335     21.94693     -0.01642
  331.50     21.96418     21.94979     -0.01440
  331.75     21.96501     21.95264     -0.01237
  332.00     21.96584     21.95550     -0.01034
  332.25     21.96503     21.95813     -0.00690
  332.50     21.96383     21.96072     -0.00312
  332.75     21.96264     21.96330      0.00066
  333.00     21.96190     21.96584      0.00395
  333.25     21.96309     21.96824      0.00514
  333.50     21.96429     21.97063      0.00634
  333.75     21.96549     21.97303      0.00754
  334.00     21.96743     21.97426      0.00683
  334.25     21.96992     21.97463      0.00471
  334.50     21.97241     21.97500      0.00259
  334.75     21.97490     21.97537      0.00047
  335.00     21.97773     21.97397     -0.00376
  335.25     21.98058     21.97250     -0.00807
  335.50     21.98342     21.97103     -0.01239
  335.75     21.98624     21.97011     -0.01613
  336.00     21.98901     21.97029     -0.01871
  336.25     21.99177     21.97048     -0.02130
  336.50     21.99454     21.97066     -0.02388
  336.75     21.99599     21.97255     -0.02344
  337.00     21.99691     21.97514     -0.02178
  337.25     21.99783     21.97772     -0.02012
  337.50     21.99853     21.98042     -0.01811
  337.75     21.99715     21.98429     -0.01286
  338.00     21.99577     21.98817     -0.00760
  338.25     21.99439     21.99204     -0.00235
  338.50     21.99393     21.99591      0.00198
  338.75     21.99449     21.99978      0.00529
  339.00     21.99504     22.00365      0.00861
  339.25     21.99559     22.00752      0.01193
  339.50     21.99654     22.01146      0.01492
  339.75     21.99755     22.01541      0.01786
  340.00     21.99856     22.01936      0.02080
  340.25     21.99987     22.02333      0.02346
  340.50     22.00218     22.02739      0.02521
  340.75     22.00448     22.03144      0.02696
  341.00     22.00679     22.03550      0.02871
  341.25     22.00920     22.03773      0.02853
  341.50     22.01169     22.03884      0.02715
  341.75     22.01418     22.03994      0.02576
  342.00     22.01667     22.04105      0.02438
  342.25     22.01833     22.04049      0.02217
  342.50     22.01999     22.03994      0.01995
  342.75     22.02165     22.03939      0.01774
  343.00     22.02331     22.03905      0.01574
  343.25     22.02496     22.03905      0.01408
  343.50     22.02662     22.03905      0.01242
  343.75     22.02828     22.03905      0.01077
  344.00     22.03001     22.03834      0.00833
  344.25     22.03175     22.03742      0.00567
  344.50     22.03350     22.03651      0.00301
  344.75     22.03526     22.03568      0.00042
  345.00     22.03710     22.03540     -0.00170
  345.25     22.03894     22.03512     -0.00382
  345.50     22.04079     22.03485     -0.00594
  345.75     22.04181     22.03674     -0.00507
  346.00     22.04209     22.04061     -0.00148
