~Version Information
VERS. 2.0:
WRAP. NO:

~Well Information
STRT.FT -71.25:
STOP.FT 665.00:
STEP.FT 0.25:
NULL. -999.25:

~Curve Information
DEPT.FT     : Depth below casing
PRETEMP.C   : Pre-pump Temperature
POSTTEMP.C  : Post-pump Temperature (aligned)
DIFFTEMP.C  : Post minus Pre Temperature

~A  DEPT  PRETEMP  POSTTEMP  DIFFTEMP
  -71.25     20.01987     27.50250      7.48263
  -71.00     19.55115     26.62451      7.07337
  -70.75     19.08242     25.74652      6.66410
  -70.50     18.69011     25.02055      6.33043
  -70.25     18.48225     24.66152      6.17926
  -70.00     18.27439     24.30249      6.02809
  -69.75     18.06653     23.94346      5.87692
  -69.50     18.00741     23.86553      5.85812
  -69.25     18.01935     23.92191      5.90256
  -69.00     18.03128     23.97828      5.94700
  -68.75     18.04740     24.04067      5.99327
  -68.50     18.14981     24.22715      6.07734
  -68.25     18.25222     24.41362      6.16140
  -68.00     18.35463     24.60010      6.24547
  -67.75     18.46405     24.77297      6.30892
  -67.50     18.58278     24.92783      6.34505
  -67.25     18.70150     25.08269      6.38119
  -67.00     18.82023     25.23755      6.41732
  -66.75     18.88277     25.26083      6.37806
  -66.50     18.93245     25.25401      6.32156
  -66.25     18.98213     25.24719      6.26506
  -66.00     19.01936     25.22705      6.20769
  -65.75     19.00599     25.15285      6.14686
  -65.50     18.99263     25.07865      6.08602
  -65.25     18.97926     25.00445      6.02518
  -65.00     18.99379     24.97269      5.97890
  -64.75     19.02840     24.97149      5.94309
  -64.50     19.06302     24.97030      5.90728
  -64.25     19.09763     24.96911      5.87147
  -64.00     19.15850     25.03233      5.87383
  -63.75     19.22072     25.09889      5.87817
  -63.50     19.28294     25.16544      5.88250
  -63.25     19.34121     25.23338      5.89217
  -63.00     19.39163     25.30408      5.91245
  -62.75     19.44205     25.37478      5.93273
  -62.50     19.49247     25.44548      5.95301
  -62.25     19.49806     25.48048      5.98242
  -62.00     19.48607     25.50150      6.01542
  -61.75     19.47409     25.52251      6.04842
  -61.50     19.45018     25.53132      6.08114
  -61.25     19.32150     25.43287      6.11137
  -61.00     19.19282     25.33443      6.14161
  -60.75     19.06414     25.23598      6.17184
  -60.50     18.90937     25.09952      6.19015
  -60.25     18.72703     24.92287      6.19584
  -60.00     18.54468     24.74622      6.20153
  -59.75     18.36234     24.56956      6.20723
  -59.50     18.20075     24.41629      6.21554
  -59.25     18.04266     24.26696      6.22430
  -59.00     17.88458     24.11763      6.23305
  -58.75     17.74452     23.99158      6.24706
  -58.50     17.66175     23.93950      6.27776
  -58.25     17.57897     23.88742      6.30845
  -58.00     17.49620     23.83534      6.33915
  -57.75     17.46822     23.82875      6.36054
  -57.50     17.47338     23.84968      6.37630
  -57.25     17.47854     23.87060      6.39206
  -57.00     17.48421     23.89186      6.40764
  -56.75     17.56330     23.96044      6.39713
  -56.50     17.64239     24.02902      6.38663
  -56.25     17.72148     24.09760      6.37612
  -56.00     17.80687     24.17525      6.36839
  -55.75     17.90208     24.26707      6.36499
  -55.50     17.99729     24.35889      6.36159
  -55.25     18.09250     24.45070      6.35820
  -55.00     18.14603     24.54349      6.39747
  -54.75     18.18640     24.63659      6.45019
  -54.50     18.22677     24.72969      6.50292
  -54.25     18.26477     24.82700      6.56223
  -54.00     18.28865     24.94932      6.66067
  -53.75     18.31252     25.07164      6.75912
  -53.50     18.33639     25.19396      6.85756
  -53.25     18.37117     25.31783      6.94667
  -53.00     18.41569     25.44310      7.02741
  -52.75     18.46021     25.56837      7.10816
  -52.50     18.50473     25.69364      7.18891
  -52.25     18.54934     25.81958      7.27024
  -52.00     18.59395     25.94559      7.35164
  -51.75     18.63856     26.07159      7.43303
  -51.50     18.67003     26.18715      7.51712
  -51.25     18.67012     26.27777      7.60765
  -51.00     18.67021     26.36839      7.69818
  -50.75     18.67030     26.45901      7.78871
  -50.50     18.64876     26.42901      7.78025
  -50.25     18.61631     26.33822      7.72190
  -50.00     18.58387     26.24742      7.66356
  -49.75     18.55159     26.15101      7.59943
  -49.50     18.52255     25.94491      7.42236
  -49.25     18.49351     25.73880      7.24528
  -49.00     18.46448     25.53269      7.06821
  -48.75     18.44162     25.38586      6.94424
  -48.50     18.42687     25.31682      6.88994
  -48.25     18.41213     25.24778      6.83565
  -48.00     18.39738     25.17874      6.78136
  -47.75     18.41408     25.26220      6.84813
  -47.50     18.43786     25.38001      6.94215
  -47.25     18.46164     25.49781      7.03617
  -47.00     18.49137     25.62103      7.12966
  -46.75     18.54490     25.76591      7.22101
  -46.50     18.59843     25.91080      7.31237
  -46.25     18.65196     26.05569      7.40373
  -46.00     18.69443     26.18677      7.49235
  -45.75     18.72853     26.30743      7.57890
  -45.50     18.76264     26.42809      7.66546
  -45.25     18.79674     26.54875      7.75201
  -45.00     18.77900     26.60939      7.83039
  -44.75     18.75872     26.66710      7.90837
  -44.50     18.73844     26.72480      7.98636
  -44.25     18.70928     26.71174      8.00247
  -44.00     18.66263     26.55956      7.89692
  -43.75     18.61599     26.40737      7.79138
  -43.50     18.56935     26.25519      7.68584
  -43.25     18.52869     26.04865      7.51996
  -43.00     18.49034     25.82106      7.33072
  -42.75     18.45200     25.59347      7.14148
  -42.50     18.41626     25.38526      6.96899
  -42.25     18.40286     25.34265      6.93979
  -42.00     18.38945     25.30005      6.91060
  -41.75     18.37605     25.25745      6.88140
  -41.50     18.38321     25.30407      6.92087
  -41.25     18.41316     25.44962      7.03646
  -41.00     18.44312     25.59517      7.15205
  -40.75     18.47308     25.74072      7.26764
  -40.50     18.52281     25.87741      7.35460
  -40.25     18.57581     26.01263      7.43682
  -40.00     18.62881     26.14785      7.51904
  -39.75     18.67451     26.27276      7.59825
  -39.50     18.69727     26.36530      7.66803
  -39.25     18.72004     26.45785      7.73781
  -39.00     18.74281     26.55040      7.80759
  -38.75     18.73749     26.60673      7.86924
  -38.50     18.71537     26.64139      7.92602
  -38.25     18.69325     26.67605      7.98280
  -38.00     18.67096     26.70880      8.03785
  -37.75     18.63056     26.53986      7.90930
  -37.50     18.59016     26.37092      7.78076
  -37.25     18.54976     26.20198      7.65222
  -37.00     18.50951     26.00907      7.49956
  -36.75     18.46950     25.77688      7.30737
  -36.50     18.42950     25.54468      7.11518
  -36.25     18.38949     25.31249      6.92299
  -36.00     18.36531     25.21007      6.84476
  -35.75     18.34604     25.14803      6.80199
  -35.50     18.32678     25.08600      6.75922
  -35.25     18.31365     25.04709      6.73343
  -35.00     18.33633     25.14295      6.80662
  -34.75     18.35901     25.23882      6.87981
  -34.50     18.38168     25.33468      6.95300
  -34.25     18.41369     25.44418      7.03049
  -34.00     18.45397     25.56576      7.11179
  -33.75     18.49426     25.68735      7.19309
  -33.50     18.53454     25.80893      7.27439
  -33.25     18.55386     25.91833      7.36446
  -33.00     18.57121     26.02658      7.45536
  -32.75     18.58857     26.13483      7.54626
  -32.50     18.60205     26.21630      7.61426
  -32.25     18.60573     26.23013      7.62440
  -32.00     18.60942     26.24396      7.63454
  -31.75     18.61311     26.25778      7.64468
  -31.50     18.62005     26.17546      7.55541
  -31.25     18.62863     26.04522      7.41659
  -31.00     18.63720     25.91497      7.27777
  -30.75     18.64408     25.78511      7.14103
  -30.50     18.61966     25.66252      7.04286
  -30.25     18.59523     25.53992      6.94469
  -30.00     18.57080     25.41733      6.84652
  -29.75     18.54040     25.33875      6.79834
