~Version Information
VERS. 2.0:
WRAP. NO:

~Well Information
STRT.FT -71.25:
STOP.FT 665.00:
STEP.FT 0.25:
NULL. -999.25:

~Curve Information
DEPT.FT     : Depth below casing
PRETEMP.C   : Pre-pump Temperature
POSTTEMP.C  : Post-pump Temperature (aligned)
DIFFTEMP.C  : Post minus Pre Temperature

~A  DEPT  PRETEMP  POSTTEMP  DIFFTEMP
# ...
  513.25     23.06120     23.06572      0.00452
  513.50     23.06341     23.06305     -0.00036
  513.75     23.06563     23.06038     -0.00525
  514.00     23.06815     23.05910     -0.00905
  514.25     23.07119     23.06011     -0.01108
  514.50     23.07424     23.06113     -0.01311
  514.75     23.07728     23.06214     -0.01514
  515.00     23.08011     23.06793     -0.01218
  515.25     23.08287     23.07521     -0.00766
  515.50     23.08564     23.08250     -0.00314
  515.75     23.08785     23.08967      0.00181
  516.00     23.08684     23.09619      0.00934
  516.25     23.08583     23.10271      0.01687
  516.50     23.08482     23.10922      0.02440
  516.75     23.08424     23.11162      0.02738
  517.00     23.08405     23.11015      0.02609
  517.25     23.08387     23.10867      0.02480
  517.50     23.08369     23.10720      0.02351
  517.75     23.08731     23.10307      0.01575
  518.00     23.09137     23.09864      0.00727
  518.25     23.09543     23.09422     -0.00121
  518.50     23.09930     23.09071     -0.00859
  518.75     23.10271     23.08951     -0.01320
  519.00     23.10612     23.08831     -0.01781
  519.25     23.10953     23.08711     -0.02242
  519.50     23.11017     23.08874     -0.02143
  519.75     23.10944     23.09179     -0.01765
  520.00     23.10870     23.09483     -0.01387
  520.25     23.10788     23.09789     -0.00999
  520.50     23.10559     23.10138     -0.00421
  520.75     23.10329     23.10487      0.00158
  521.00     23.10100     23.10836      0.00736
  521.25     23.10029     23.11015      0.00986
  521.50     23.10176     23.10960      0.00784
  521.75     23.10324     23.10904      0.00581
  522.00     23.10471     23.10849      0.00378
  522.25     23.10804     23.11105      0.00301
  522.50     23.11182     23.11437      0.00255
  522.75     23.11560     23.11769      0.00209
  523.00     23.11915     23.12121      0.00206
  523.25     23.12173     23.12564      0.00390
  523.50     23.12431     23.13006      0.00575
  523.75     23.12689     23.13449      0.00759
  524.00     23.13021     23.13591      0.00569
  524.25     23.13408     23.13508      0.00099
  524.50     23.13796     23.13425     -0.00371
  524.75     23.14183     23.13342     -0.00841
  525.00     23.14419     23.13049     -0.01371
  525.25     23.14649     23.12746     -0.01903
  525.50     23.14878     23.12443     -0.02436
  525.75     23.15042     23.12307     -0.02735
  526.00     23.15070     23.12519     -0.02551
  526.25     23.15098     23.12731     -0.02367
  526.50     23.15125     23.12943     -0.02182
  526.75     23.14983     23.13240     -0.01743
  527.00     23.14771     23.13572     -0.01199
  527.25     23.14559     23.13904     -0.00655
  527.50     23.14362     23.14206     -0.00157
  527.75     23.14316     23.14215     -0.00101
  528.00     23.14270     23.14224     -0.00046
  528.25     23.14224     23.14233      0.00009
  528.50     23.14275     23.14251     -0.00023
  528.75     23.14431     23.14279     -0.00152
  529.00     23.14588     23.14307     -0.00281
  529.25     23.14745     23.14334     -0.00410
  529.50     23.14877     23.14307     -0.00571
  529.75     23.15006     23.14270     -0.00736
  530.00     23.15134     23.14233     -0.00901
  530.25     23.15307     23.14258     -0.01050
  530.50     23.15630     23.14488     -0.01142
  530.75     23.15953     23.14719     -0.01234
  531.00     23.16275     23.14949     -0.01326
  531.25     23.16490     23.15191     -0.01300
  531.50     23.16638     23.15440     -0.01198
  531.75     23.16785     23.15689     -0.01097
  532.00     23.16933     23.15937     -0.00995
  532.25     23.16805     23.16168     -0.00637
  532.50     23.16676     23.16398     -0.00277
  532.75     23.16547     23.16629      0.00082
  533.00     23.16498     23.16866      0.00368
  533.25     23.16581     23.17115      0.00534
  533.50     23.16664     23.17364      0.00700
  533.75     23.16747     23.17613      0.00866
  534.00     23.16830     23.17559      0.00729
  534.25     23.16912     23.17412      0.00500
  534.50     23.16995     23.17265      0.00270
  534.75     23.17074     23.17132      0.00058
  535.00     23.17129     23.17086     -0.00043
  535.25     23.17185     23.17040     -0.00145
  535.50     23.17240     23.16994     -0.00246
  535.75     23.17372     23.17191     -0.00181
  536.00     23.17575     23.17615      0.00041
  536.25     23.17777     23.18039      0.00262
  536.50     23.17980     23.18463      0.00483
  536.75     23.18291     23.18505      0.00214
  537.00     23.18614     23.18505     -0.00109
  537.25     23.18936     23.18505     -0.00431
  537.50     23.19232     23.18452     -0.00780
  537.75     23.19463     23.18268     -0.01195
  538.00     23.19693     23.18083     -0.01610
  538.25     23.19924     23.17899     -0.02025
  538.50     23.20061     23.17955     -0.02107
  538.75     23.20153     23.18129     -0.02024
  539.00     23.20245     23.18304     -0.01941
  539.25     23.20334     23.18474     -0.01860
  539.50     23.20362     23.18548     -0.01814
  539.75     23.20390     23.18622     -0.01768
  540.00     23.20417     23.18696     -0.01722
  540.25     23.20305     23.18801     -0.01504
  540.50     23.20001     23.18948     -0.01053
  540.75     23.19696     23.19095     -0.00601
  541.00     23.19392     23.19243     -0.00149
  541.25     23.19266     23.19547      0.00280
  541.50     23.19183     23.19888      0.00704
  541.75     23.19101     23.20229      0.01128
  542.00     23.19135     23.20582      0.01447
  542.25     23.19670     23.20988      0.01318
  542.50     23.20204     23.21393      0.01189
  542.75     23.20739     23.21799      0.01060
  543.00     23.21162     23.22098      0.00936
  543.25     23.21501     23.22318      0.00817
  543.50     23.21841     23.22539      0.00698
  543.75     23.22181     23.22759      0.00578
  544.00     23.21939     23.22780      0.00841
  544.25     23.21663     23.22789      0.01127
  544.50     23.21386     23.22799      0.01413
  544.75     23.21236     23.22829      0.01593
  545.00     23.21347     23.22903      0.01556
  545.25     23.21457     23.22976      0.01519
  545.50     23.21568     23.23050      0.01482
  545.75     23.21961     23.23032      0.01072
  546.00     23.22468     23.22977      0.00509
  546.25     23.22974     23.22922     -0.00053
  546.50     23.23461     23.22865     -0.00596
  546.75     23.23756     23.22801     -0.00955
  547.00     23.24051     23.22736     -0.01315
  547.25     23.24346     23.22672     -0.01674
  547.50     23.24504     23.22810     -0.01694
  547.75     23.24514     23.23170     -0.01344
  548.00     23.24523     23.23529     -0.00994
  548.25     23.24532     23.23889     -0.00643
  548.50     23.24763     23.24445     -0.00318
  548.75     23.25029     23.25033      0.00003
  549.00     23.25296     23.25620      0.00325
  549.25     23.25588     23.26123      0.00535
  549.50     23.25966     23.26344      0.00378
  549.75     23.26344     23.26565      0.00222
  550.00     23.26721     23.26787      0.00065
  550.25     23.26975     23.26911     -0.00063
  550.50     23.27150     23.26976     -0.00174
  550.75     23.27325     23.27040     -0.00284
  551.00     23.27500     23.27105     -0.00395
  551.25     23.27353     23.27390      0.00038
  551.50     23.27205     23.27676      0.00471
  551.75     23.27058     23.27962      0.00904
  552.00     23.27027     23.28276      0.01249
  552.25     23.27183     23.28635      0.01452
  552.50     23.27340     23.28995      0.01655
  552.75     23.27497     23.29354      0.01858
  553.00     23.27773     23.29502      0.01729
  553.25     23.28085     23.29584      0.01499
  553.50     23.28397     23.29667      0.01270
  553.75     23.28694     23.29733      0.01039
  554.00     23.28897     23.29696      0.00799
  554.25     23.29100     23.29659      0.00559
  554.50     23.29303     23.29623      0.00320
  554.75     23.29376     23.29696      0.00320
