~Version Information
VERS. 2.0:
WRAP. NO:

~Well Information
STRT.FT -71.25:
STOP.FT 665.00:
STEP.FT 0.25:
NULL. -999.25:

~Curve Information
DEPT.FT     : Depth below casing
PRETEMP.C   : Pre-pump Temperature
POSTTEMP.C  : Post-pump Temperature (aligned)
DIFFTEMP.C  : Post minus Pre Temperature

~A  DEPT  PRETEMP  POSTTEMP  DIFFTEMP
# ...
  179.25     21.78459     21.74699     -0.03759
  179.50     21.78210     21.74764     -0.03446
  179.75     21.77961     21.74829     -0.03133
  180.00     21.77712     21.74893     -0.02819
  180.25     21.77352     21.74875     -0.02477
  180.50     21.76966     21.74838     -0.02128
  180.75     21.76580     21.74801     -0.01779
  181.00     21.76215     21.74732     -0.01483
  181.25     21.75939     21.74520     -0.01419
  181.50     21.75662     21.74308     -0.01354
  181.75     21.75385     21.74096     -0.01290
  182.00     21.75077     21.73752     -0.01325
  182.25     21.74746     21.73310     -0.01436
  182.50     21.74414     21.72868     -0.01546
  182.75     21.74082     21.72425     -0.01657
  183.00     21.73873     21.72027     -0.01847
  183.25     21.73670     21.71630     -0.02040
  183.50     21.73468     21.71234     -0.02234
  183.75     21.73361     21.70956     -0.02405
  184.00     21.73444     21.70910     -0.02534
  184.25     21.73527     21.70864     -0.02664
  184.50     21.73610     21.70818     -0.02793
  184.75     21.73627     21.70831     -0.02795
  185.00     21.73618     21.70868     -0.02749
  185.25     21.73608     21.70905     -0.02704
  185.50     21.73555     21.70933     -0.02622
  185.75     21.73067     21.70878     -0.02189
  186.00     21.72578     21.70823     -0.01756
  186.25     21.72090     21.70767     -0.01323
  186.50     21.71579     21.70563     -0.01016
  186.75     21.71045     21.70194     -0.00850
  187.00     21.70510     21.69826     -0.00684
  187.25     21.69975     21.69457     -0.00519
  187.50     21.69916     21.69112     -0.00804
  187.75     21.69934     21.68771     -0.01163
  188.00     21.69953     21.68430     -0.01523
  188.25     21.69989     21.68116     -0.01873
  188.50     21.70081     21.67885     -0.02196
  188.75     21.70173     21.67655     -0.02519
  189.00     21.70266     21.67424     -0.02841
  189.25     21.70035     21.67390     -0.02645
  189.50     21.69613     21.67473     -0.02141
  189.75     21.69191     21.67555     -0.01636
  190.00     21.68768     21.67638     -0.01131
  190.25     21.68399     21.67556     -0.00844
  190.50     21.68031     21.67473     -0.00558
  190.75     21.67662     21.67390     -0.00272
  191.00     21.67514     21.67149     -0.00365
  191.25     21.67726     21.66651     -0.01074
  191.50     21.67938     21.66154     -0.01784
  191.75     21.68150     21.65656     -0.02494
  192.00     21.68221     21.65144     -0.03077
  192.25     21.68249     21.64628     -0.03621
  192.50     21.68276     21.64112     -0.04165
  192.75     21.68266     21.63727     -0.04539
  193.00     21.68036     21.64105     -0.03931
  193.25     21.67805     21.64483     -0.03322
  193.50     21.67575     21.64861     -0.02714
  193.75     21.67506     21.65272     -0.02233
  194.00     21.67579     21.65713     -0.01866
  194.25     21.67653     21.66154     -0.01499
  194.50     21.67726     21.66594     -0.01132
  194.75     21.68040     21.66788     -0.01253
  195.00     21.68382     21.66954     -0.01428
  195.25     21.68723     21.67119     -0.01603
  195.50     21.68975     21.67243     -0.01731
  195.75     21.69002     21.67262     -0.01740
  196.00     21.69030     21.67280     -0.01750
  196.25     21.69057     21.67299     -0.01759
  196.50     21.68931     21.67434     -0.01497
  196.75     21.68728     21.67628     -0.01101
  197.00     21.68526     21.67821     -0.00704
  197.25     21.68339     21.68012     -0.00327
  197.50     21.68450     21.68150     -0.00299
  197.75     21.68560     21.68289     -0.00272
  198.00     21.68671     21.68427     -0.00244
  198.25     21.68797     21.68493     -0.00304
  198.50     21.68944     21.68465     -0.00479
  198.75     21.69091     21.68438     -0.00653
  199.00     21.69238     21.68410     -0.00828
  199.25     21.69200     21.68152     -0.01047
  199.50     21.69117     21.67839     -0.01278
  199.75     21.69034     21.67526     -0.01508
  200.00     21.68970     21.67226     -0.01744
  200.25     21.68989     21.66987     -0.02002
  200.50     21.69007     21.66747     -0.02260
  200.75     21.69025     21.66507     -0.02518
  201.00     21.69113     21.66352     -0.02760
  201.25     21.69251     21.66260     -0.02991
  201.50     21.69389     21.66168     -0.03221
  201.75     21.69527     21.66076     -0.03452
  202.00     21.69445     21.66213     -0.03233
  202.25     21.69353     21.66360     -0.02993
  202.50     21.69261     21.66508     -0.02753
  202.75     21.69100     21.66630     -0.02470
  203.00     21.68806     21.66703     -0.02103
  203.25     21.68512     21.66777     -0.01736
  203.50     21.68219     21.66850     -0.01368
  203.75     21.68186     21.66695     -0.01491
  204.00     21.68259     21.66446     -0.01813
  204.25     21.68333     21.66197     -0.02136
  204.50     21.68384     21.65940     -0.02444
  204.75     21.68208     21.65598     -0.02610
  205.00     21.68033     21.65257     -0.02776
  205.25     21.67858     21.64916     -0.02942
  205.50     21.67397     21.64681     -0.02716
  205.75     21.66623     21.64561     -0.02062
  206.00     21.65848     21.64441     -0.01407
  206.25     21.65074     21.64321     -0.00753
  206.50     21.64768     21.64114     -0.00654
  206.75     21.64538     21.63893     -0.00645
  207.00     21.64307     21.63672     -0.00635
  207.25     21.64142     21.63458     -0.00685
  207.50     21.64179     21.63265     -0.00914
  207.75     21.64216     21.63072     -0.01144
  208.00     21.64253     21.62879     -0.01373
  208.25     21.64006     21.62612     -0.01394
  208.50     21.63582     21.62299     -0.01283
  208.75     21.63158     21.61985     -0.01173
  209.00     21.62734     21.61672     -0.01062
  209.25     21.62328     21.60963     -0.01366
  209.50     21.61923     21.60253     -0.01670
  209.75     21.61517     21.59543     -0.01974
  210.00     21.61101     21.58844     -0.02257
  210.25     21.60668     21.58162     -0.02506
  210.50     21.60235     21.57480     -0.02755
  210.75     21.59801     21.56798     -0.03004
  211.00     21.59460     21.56483     -0.02977
  211.25     21.59147     21.56280     -0.02866
  211.50     21.58833     21.56077     -0.02756
  211.75     21.58528     21.55910     -0.02618
  212.00     21.58271     21.55947     -0.02324
  212.25     21.58014     21.55984     -0.02030
  212.50     21.57757     21.56021     -0.01736
  212.75     21.57370     21.55895     -0.01475
  213.00     21.56863     21.55618     -0.01245
  213.25     21.56356     21.55342     -0.01015
  213.50     21.55849     21.55065     -0.00784
  213.75     21.55267     21.54422     -0.00845
  214.00     21.54677     21.53740     -0.00937
  214.25     21.54087     21.53058     -0.01029
  214.50     21.53455     21.52402     -0.01053
  214.75     21.52718     21.51812     -0.00905
  215.00     21.51980     21.51222     -0.00758
  215.25     21.51243     21.50633     -0.00610
  215.50     21.50765     21.50271     -0.00494
  215.75     21.50415     21.50022     -0.00392
  216.00     21.50065     21.49774     -0.00291
  216.25     21.49725     21.49512     -0.00213
  216.50     21.49569     21.49025     -0.00544
  216.75     21.49413     21.48538     -0.00874
  217.00     21.49257     21.48052     -0.01205
  217.25     21.48971     21.47545     -0.01426
  217.50     21.48510     21.47010     -0.01500
  217.75     21.48050     21.46476     -0.01574
  218.00     21.47589     21.45941     -0.01648
  218.25     21.47083     21.45674     -0.01409
  218.50     21.46567     21.45472     -0.01095
  218.75     21.46051     21.45269     -0.00782
  219.00     21.45570     21.45062     -0.00507
  219.25     21.45238     21.44841     -0.00397
  219.50     21.44906     21.44620     -0.00286
  219.75     21.44574     21.44399     -0.00175
  220.00     21.44327     21.44172     -0.00155
  220.25     21.44143     21.43942     -0.00201
  220.50     21.43959     21.43711     -0.00247
  220.75     21.43774     21.43481     -0.00293
