~Version Information
VERS. 2.0:
WRAP. NO:

~Well Information
STRT.FT -71.25:
STOP.FT 665.00:
STEP.FT 0.25:
NULL. -999.25:

~Curve Information
DEPT.FT     : Depth below casing
PRETEMP.C   : Pre-pump Temperature
POSTTEMP.C  : Post-pump Temperature (aligned)
DIFFTEMP.C  : Post minus Pre Temperature

~A  DEPT  PRETEMP  POSTTEMP  DIFFTEMP
# ...
  221.00     21.43855     21.43331     -0.00524
  221.25     21.43947     21.43184     -0.00763
  221.50     21.44038     21.43037     -0.01002
  221.75     21.44052     21.42869     -0.01183
  222.00     21.43904     21.42657     -0.01248
  222.25     21.43757     21.42445     -0.01312
  222.50     21.43609     21.42232     -0.01377
  222.75     21.43416     21.41955     -0.01461
  223.00     21.43204     21.41651     -0.01553
  223.25     21.42992     21.41346     -0.01645
  223.50     21.42817     21.41085     -0.01732
  223.75     21.42992     21.41223     -0.01769
  224.00     21.43167     21.41361     -0.01806
  224.25     21.43342     21.41500     -0.01843
  224.50     21.43659     21.41718     -0.01941
  224.75     21.44129     21.42022     -0.02107
  225.00     21.44599     21.42326     -0.02273
  225.25     21.45069     21.42630     -0.02439
  225.50     21.45125     21.42719     -0.02406
  225.75     21.45116     21.42774     -0.02342
  226.00     21.45107     21.42829     -0.02278
  226.25     21.44982     21.42833     -0.02149
  226.50     21.44475     21.42667     -0.01808
  226.75     21.43968     21.42501     -0.01467
  227.00     21.43461     21.42335     -0.01126
  227.25     21.43176     21.42243     -0.00933
  227.50     21.43028     21.42197     -0.00831
  227.75     21.42881     21.42151     -0.00730
  228.00     21.42734     21.42105     -0.00629
  228.25     21.43176     21.42446     -0.00730
  228.50     21.43619     21.42787     -0.00831
  228.75     21.44061     21.43128     -0.00933
  229.00     21.44436     21.43473     -0.00963
  229.25     21.44703     21.43823     -0.00880
  229.50     21.44971     21.44173     -0.00797
  229.75     21.45238     21.44524     -0.00714
  230.00     21.45251     21.44471     -0.00780
  230.25     21.45186     21.44296     -0.00890
  230.50     21.45122     21.44122     -0.01000
  230.75     21.45045     21.43963     -0.01082
  231.00     21.44888     21.43898     -0.00990
  231.25     21.44732     21.43834     -0.00898
  231.50     21.44575     21.43769     -0.00806
  231.75     21.44587     21.43777     -0.00810
  232.00     21.44752     21.43850     -0.00902
  232.25     21.44918     21.43924     -0.00994
  232.50     21.45084     21.43998     -0.01086
  232.75     21.45083     21.43855     -0.01229
  233.00     21.45065     21.43689     -0.01376
  233.25     21.45046     21.43523     -0.01524
  233.50     21.45097     21.43485     -0.01612
  233.75     21.45319     21.43761     -0.01557
  234.00     21.45540     21.44038     -0.01502
  234.25     21.45761     21.44314     -0.01447
  234.50     21.46062     21.44887     -0.01175
  234.75     21.46402     21.45603     -0.00799
  235.00     21.46741     21.46319     -0.00422
  235.25     21.47075     21.47026     -0.00048
  235.50     21.47259     21.47533      0.00275
  235.75     21.47443     21.48040      0.00597
  236.00     21.47628     21.48547      0.00920
  236.25     21.47832     21.48795      0.00963
  236.50     21.48062     21.48694      0.00632
  236.75     21.48292     21.48592      0.00300
  237.00     21.48523     21.48491     -0.00032
  237.25     21.48731     21.48367     -0.00364
  237.50     21.48934     21.48238     -0.00696
  237.75     21.49137     21.48109     -0.01028
  238.00     21.49298     21.47973     -0.01326
  238.25     21.49289     21.47807     -0.01482
  238.50     21.49280     21.47641     -0.01639
  238.75     21.49271     21.47475     -0.01796
  239.00     21.49367     21.47468     -0.01899
  239.25     21.49542     21.47579     -0.01963
  239.50     21.49716     21.47689     -0.02027
  239.75     21.49891     21.47799     -0.02092
  240.00     21.50048     21.47892     -0.02156
  240.25     21.50205     21.47984     -0.02221
  240.50     21.50362     21.48077     -0.02285
  240.75     21.50509     21.48163     -0.02347
  241.00     21.50638     21.48236     -0.02402
  241.25     21.50767     21.48310     -0.02457
  241.50     21.50897     21.48384     -0.02513
  241.75     21.51124     21.48517     -0.02608
  242.00     21.51392     21.48674     -0.02718
  242.25     21.51659     21.48830     -0.02829
  242.50     21.51888     21.48995     -0.02893
  242.75     21.51768     21.49235     -0.02534
  243.00     21.51649     21.49474     -0.02174
  243.25     21.51529     21.49714     -0.01815
  243.50     21.51303     21.49944     -0.01358
  243.75     21.50963     21.50165     -0.00798
  244.00     21.50623     21.50385     -0.00238
  244.25     21.50284     21.50606      0.00322
  244.50     21.50383     21.50654      0.00271
  244.75     21.50558     21.50672      0.00115
  245.00     21.50733     21.50691     -0.00042
  245.25     21.51010     21.50685     -0.00325
  245.50     21.51618     21.50602     -0.01016
  245.75     21.52227     21.50519     -0.01707
  246.00     21.52835     21.50436     -0.02399
  246.25     21.53249     21.50399     -0.02850
  246.50     21.53544     21.50390     -0.03154
  246.75     21.53839     21.50381     -0.03459
  247.00     21.54132     21.50372     -0.03760
  247.25     21.53634     21.50529     -0.03105
  247.50     21.53136     21.50685     -0.02451
  247.75     21.52638     21.50842     -0.01796
  248.00     21.52266     21.51034     -0.01232
  248.25     21.52091     21.51282     -0.00809
  248.50     21.51917     21.51530     -0.00387
  248.75     21.51742     21.51778      0.00035
  249.00     21.51944     21.51915     -0.00029
  249.25     21.52267     21.52016     -0.00250
  249.50     21.52589     21.52118     -0.00472
  249.75     21.52874     21.52187     -0.00688
  250.00     21.52930     21.52058     -0.00872
  250.25     21.52985     21.51929     -0.01056
  250.50     21.53040     21.51800     -0.01241
  250.75     21.53028     21.51791     -0.01237
  251.00     21.52954     21.51893     -0.01062
  251.25     21.52881     21.51994     -0.00886
  251.50     21.52807     21.52096     -0.00711
  251.75     21.52524     21.52180     -0.00344
  252.00     21.52220     21.52263      0.00043
  252.25     21.51915     21.52346      0.00431
  252.50     21.51654     21.52370      0.00716
  252.75     21.51498     21.52251      0.00752
  253.00     21.51342     21.52131      0.00789
  253.25     21.51186     21.52012      0.00826
  253.50     21.51121     21.51904      0.00783
  253.75     21.51103     21.51803      0.00700
  254.00     21.51084     21.51702      0.00617
  254.25     21.51081     21.51619      0.00538
  254.50     21.51404     21.51932      0.00529
  254.75     21.51726     21.52246      0.00519
  255.00     21.52049     21.52559      0.00510
  255.25     21.52415     21.52924      0.00509
  255.50     21.52839     21.53357      0.00518
  255.75     21.53263     21.53790      0.00527
  256.00     21.53687     21.54224      0.00536
  256.25     21.53699     21.54207      0.00508
  256.50     21.53616     21.54088      0.00471
  256.75     21.53533     21.53968      0.00434
  257.00     21.53447     21.53835      0.00389
  257.25     21.53346     21.53652      0.00306
  257.50     21.53245     21.53468      0.00223
  257.75     21.53144     21.53285      0.00141
  258.00     21.53298     21.53200     -0.00099
  258.25     21.53648     21.53190     -0.00458
  258.50     21.53999     21.53181     -0.00818
  258.75     21.54349     21.53172     -0.01177
  259.00     21.54621     21.53347     -0.01274
  259.25     21.54888     21.53531     -0.01357
  259.50     21.55155     21.53715     -0.01440
  259.75     21.55339     21.53906     -0.01434
  260.00     21.55358     21.54109     -0.01249
  260.25     21.55376     21.54311     -0.01065
  260.50     21.55395     21.54514     -0.00881
  260.75     21.55334     21.54743     -0.00590
  261.00     21.55242     21.54983     -0.00259
  261.25     21.55150     21.55223      0.00073
  261.50     21.55053     21.55426      0.00373
  261.75     21.54915     21.55307      0.00392
  262.00     21.54777     21.55187      0.00410
  262.25     21.54640     21.55068      0.00428
  262.50     21.54736     21.55001      0.00265
