~Version Information
VERS. 2.0:
WRAP. NO:

~Well Information
STRT.FT -71.25:
STOP.FT 665.00:
STEP.FT 0.25:
NULL. -999.25:

~Curve Information
DEPT.FT     : Depth below casing
PRETEMP.C   : Pre-pump Temperature
POSTTEMP.C  : Post-pump Temperature (aligned)
DIFFTEMP.C  : Post minus Pre Temperature

~A  DEPT  PRETEMP  POSTTEMP  DIFFTEMP
# ...
  596.75     23.61826     23.59529     -0.02297
  597.00     23.62425     23.59768     -0.02657
  597.25     23.62913     23.60044     -0.02870
  597.50     23.63254     23.60366     -0.02888
  597.75     23.63595     23.60689     -0.02907
  598.00     23.63936     23.61011     -0.02925
  598.25     23.63686     23.61243     -0.02443
  598.50     23.63301     23.61455     -0.01846
  598.75     23.62915     23.61666     -0.01249
  599.00     23.62544     23.61897     -0.00647
  599.25     23.62240     23.62220     -0.00020
  599.50     23.61936     23.62543      0.00607
  599.75     23.61632     23.62865      0.01234
  600.00     23.61605     23.63094      0.01489
  600.25     23.61789     23.63250      0.01462
  600.50     23.61973     23.63407      0.01434
  600.75     23.62158     23.63564      0.01406
  601.00     23.62403     23.63519      0.01116
  601.25     23.62652     23.63464      0.00811
  601.50     23.62901     23.63408      0.00507
  601.75     23.63196     23.63365      0.00169
  602.00     23.63583     23.63347     -0.00236
  602.25     23.63971     23.63328     -0.00642
  602.50     23.64358     23.63310     -0.01048
  602.75     23.64572     23.63351     -0.01221
  603.00     23.64719     23.63415     -0.01304
  603.25     23.64866     23.63480     -0.01386
  603.50     23.65007     23.63565     -0.01442
  603.75     23.65090     23.63869     -0.01221
  604.00     23.65173     23.64173     -0.01000
  604.25     23.65256     23.64478     -0.00779
  604.50     23.65491     23.64830     -0.00662
  604.75     23.65897     23.65235     -0.00662
  605.00     23.66303     23.65641     -0.00662
  605.25     23.66708     23.66046     -0.00662
  605.50     23.67090     23.66507     -0.00583
  605.75     23.67468     23.66977     -0.00491
  606.00     23.67846     23.67447     -0.00399
  606.25     23.68164     23.67853     -0.00311
  606.50     23.68293     23.68056     -0.00237
  606.75     23.68422     23.68259     -0.00163
  607.00     23.68551     23.68462     -0.00090
  607.25     23.68646     23.68630     -0.00016
  607.50     23.68719     23.68777      0.00057
  607.75     23.68793     23.68924      0.00131
  608.00     23.68866     23.69070      0.00204
  608.25     23.69141     23.69392      0.00251
  608.50     23.69418     23.69714      0.00297
  608.75     23.69694     23.70037      0.00343
  609.00     23.69846     23.70280      0.00434
  609.25     23.69791     23.70390      0.00600
  609.50     23.69735     23.70501      0.00766
  609.75     23.69680     23.70612      0.00932
  610.00     23.69653     23.70820      0.01168
  610.25     23.69634     23.71060      0.01426
  610.50     23.69616     23.71300      0.01684
  610.75     23.69656     23.71542      0.01886
  611.00     23.70043     23.71800      0.01757
  611.25     23.70430     23.72058      0.01628
  611.50     23.70817     23.72316      0.01499
  611.75     23.71334     23.72467      0.01133
  612.00     23.71968     23.72522      0.00554
  612.25     23.72601     23.72577     -0.00024
  612.50     23.73235     23.72633     -0.00602
  612.75     23.73664     23.72713     -0.00951
  613.00     23.74070     23.72796     -0.01274
  613.25     23.74475     23.72879     -0.01597
  613.50     23.74793     23.72993     -0.01800
  613.75     23.74885     23.73186     -0.01699
  614.00     23.74977     23.73380     -0.01597
  614.25     23.75069     23.73573     -0.01496
  614.50     23.75088     23.73889     -0.01198
  614.75     23.75069     23.74267     -0.00802
  615.00     23.75051     23.74645     -0.00406
  615.25     23.75049     23.75018     -0.00031
  615.50     23.75372     23.75295     -0.00077
  615.75     23.75694     23.75571     -0.00123
  616.00     23.76017     23.75848     -0.00169
  616.25     23.76303     23.76084     -0.00219
  616.50     23.76542     23.76268     -0.00274
  616.75     23.76781     23.76452     -0.00329
  617.00     23.77019     23.76635     -0.00384
  617.25     23.77296     23.76967     -0.00329
  617.50     23.77582     23.77336     -0.00246
  617.75     23.77867     23.77705     -0.00163
  618.00     23.78208     23.78109     -0.00099
  618.25     23.78789     23.78672     -0.00117
  618.50     23.79369     23.79234     -0.00135
  618.75     23.79950     23.79796     -0.00154
  619.00     23.80284     23.80290      0.00006
  619.25     23.80431     23.80733      0.00301
  619.50     23.80579     23.81175      0.00596
  619.75     23.80726     23.81618      0.00891
  620.00     23.80505     23.81788      0.01283
  620.25     23.80265     23.81944      0.01679
  620.50     23.80026     23.82101      0.02075
  620.75     23.79966     23.82192      0.02227
  621.00     23.80260     23.82156      0.01896
  621.25     23.80553     23.82119      0.01566
  621.50     23.80847     23.82082      0.01235
  621.75     23.81383     23.81928      0.00545
  622.00     23.82019     23.81725     -0.00293
  622.25     23.82655     23.81523     -0.01132
  622.50     23.83257     23.81357     -0.01899
  622.75     23.83515     23.81569     -0.01945
  623.00     23.83773     23.81781     -0.01991
  623.25     23.84031     23.81993     -0.02038
  623.50     23.84189     23.82516     -0.01673
  623.75     23.84235     23.83382     -0.00852
  624.00     23.84281     23.84249     -0.00032
  624.25     23.84327     23.85115      0.00788
  624.50     23.84515     23.85768      0.01253
  624.75     23.84727     23.86386      0.01658
  625.00     23.84939     23.87003      0.02064
  625.25     23.85131     23.87452      0.02320
  625.50     23.85260     23.87369      0.02109
  625.75     23.85388     23.87286      0.01898
  626.00     23.85517     23.87204      0.01687
  626.25     23.85679     23.87059      0.01379
  626.50     23.85864     23.86874      0.01011
  626.75     23.86048     23.86690      0.00642
  627.00     23.86232     23.86506      0.00273
  627.25     23.86664     23.86670      0.00006
  627.50     23.87098     23.86836     -0.00262
  627.75     23.87531     23.87002     -0.00529
  628.00     23.87950     23.87245     -0.00706
  628.25     23.88347     23.87613     -0.00733
  628.50     23.88743     23.87982     -0.00761
  628.75     23.89139     23.88351     -0.00789
  629.00     23.89332     23.88726     -0.00605
  629.25     23.89461     23.89104     -0.00356
  629.50     23.89590     23.89482     -0.00108
  629.75     23.89717     23.89864      0.00147
  630.00     23.89837     23.90268      0.00431
  630.25     23.89956     23.90672      0.00716
  630.50     23.90076     23.91076      0.01000
  630.75     23.90366     23.91486      0.01119
  631.00     23.90818     23.91900      0.01082
  631.25     23.91270     23.92315      0.01045
  631.50     23.91721     23.92730      0.01009
  631.75     23.92297     23.92796      0.00499
  632.00     23.92887     23.92824     -0.00063
  632.25     23.93477     23.92852     -0.00626
  632.50     23.93918     23.92824     -0.01094
  632.75     23.93983     23.92659     -0.01324
  633.00     23.94047     23.92493     -0.01555
  633.25     23.94112     23.92327     -0.01785
  633.50     23.94152     23.92358     -0.01794
  633.75     23.94179     23.92487     -0.01693
  634.00     23.94207     23.92616     -0.01591
  634.25     23.94243     23.92759     -0.01484
  634.50     23.94436     23.93163     -0.01273
  634.75     23.94629     23.93567     -0.01062
  635.00     23.94822     23.93971     -0.00851
  635.25     23.95116     23.94329     -0.00787
  635.50     23.95549     23.94624     -0.00925
  635.75     23.95982     23.94919     -0.01063
  636.00     23.96415     23.95214     -0.01201
  636.25     23.96671     23.95309     -0.01362
  636.50     23.96883     23.95355     -0.01528
  636.75     23.97095     23.95401     -0.01694
  637.00     23.97303     23.95459     -0.01844
  637.25     23.97497     23.95570     -0.01927
  637.50     23.97690     23.95680     -0.02010
  637.75     23.97884     23.95791     -0.02093
  638.00     23.98178     23.96049     -0.02128
  638.25     23.98546     23.96418     -0.02128
