~Version Information
VERS. 2.0:
WRAP. NO:

~Well Information
STRT.FT -71.25:
STOP.FT 665.00:
STEP.FT 0.25:
NULL. -999.25:

~Curve Information
DEPT.FT     : Depth below casing
PRETEMP.C   : Pre-pump Temperature
POSTTEMP.C  : Post-pump Temperature (aligned)
DIFFTEMP.C  : Post minus Pre Temperature

~A  DEPT  PRETEMP  POSTTEMP  DIFFTEMP
# ...
  555.00     23.29330     23.29871      0.00541
  555.25     23.29284     23.30046      0.00762
  555.50     23.29238     23.30221      0.00984
  555.75     23.29417     23.30280      0.00863
  556.00     23.29619     23.30326      0.00706
  556.25     23.29822     23.30372      0.00550
  556.50     23.30070     23.30392      0.00321
  556.75     23.30430     23.30345     -0.00084
  557.00     23.30789     23.30299     -0.00490
  557.25     23.31149     23.30253     -0.00895
  557.50     23.31409     23.30448     -0.00961
  557.75     23.31620     23.30760     -0.00860
  558.00     23.31831     23.31072     -0.00759
  558.25     23.32037     23.31383     -0.00654
  558.50     23.32129     23.31669     -0.00460
  558.75     23.32222     23.31955     -0.00267
  559.00     23.32314     23.32241     -0.00073
  559.25     23.32359     23.32448      0.00089
  559.50     23.32340     23.32549      0.00209
  559.75     23.32322     23.32651      0.00329
  560.00     23.32304     23.32752      0.00449
  560.25     23.32442     23.32786      0.00345
  560.50     23.32617     23.32805      0.00188
  560.75     23.32792     23.32823      0.00031
  561.00     23.32978     23.32797     -0.00180
  561.25     23.33208     23.32585     -0.00623
  561.50     23.33439     23.32373     -0.01065
  561.75     23.33669     23.32161     -0.01508
  562.00     23.33846     23.32103     -0.01743
  562.25     23.33984     23.32158     -0.01825
  562.50     23.34122     23.32213     -0.01908
  562.75     23.34259     23.32269     -0.01991
  563.00     23.34267     23.32708     -0.01559
  563.25     23.34267     23.33168     -0.01098
  563.50     23.34267     23.33629     -0.00637
  563.75     23.34334     23.34102     -0.00231
  564.00     23.34536     23.34600      0.00064
  564.25     23.34739     23.35098      0.00359
  564.50     23.34942     23.35596      0.00654
  564.75     23.35342     23.35824      0.00482
  565.00     23.35821     23.35944      0.00122
  565.25     23.36301     23.36063     -0.00237
  565.50     23.36741     23.36181     -0.00560
  565.75     23.36824     23.36283     -0.00542
  566.00     23.36907     23.36384     -0.00523
  566.25     23.36990     23.36486     -0.00505
  566.50     23.37051     23.36688     -0.00363
  566.75     23.37088     23.37001     -0.00087
  567.00     23.37124     23.37313      0.00188
  567.25     23.37161     23.37625      0.00464
  567.50     23.37104     23.37977      0.00873
  567.75     23.37030     23.38337      0.01307
  568.00     23.36956     23.38696      0.01740
  568.25     23.36952     23.39026      0.02074
  568.50     23.37173     23.39256      0.02083
  568.75     23.37394     23.39486      0.02092
  569.00     23.37616     23.39717      0.02101
  569.25     23.37951     23.39828      0.01877
  569.50     23.38356     23.39865      0.01508
  569.75     23.38762     23.39901      0.01139
  570.00     23.39168     23.39939      0.00771
  570.25     23.39582     23.40225      0.00642
  570.50     23.39997     23.40510      0.00513
  570.75     23.40412     23.40796      0.00384
  571.00     23.40755     23.41159      0.00404
  571.25     23.40985     23.41646      0.00661
  571.50     23.41214     23.42133      0.00918
  571.75     23.41444     23.42619      0.01175
  572.00     23.41437     23.42857      0.01419
  572.25     23.41354     23.43013      0.01659
  572.50     23.41271     23.43170      0.01899
  572.75     23.41235     23.43314      0.02079
  573.00     23.41484     23.43378      0.01895
  573.25     23.41732     23.43443      0.01710
  573.50     23.41981     23.43507      0.01526
  573.75     23.42322     23.43615      0.01294
  574.00     23.42746     23.43763      0.01017
  574.25     23.43170     23.43910      0.00741
  574.50     23.43594     23.44058      0.00464
  574.75     23.43717     23.44280      0.00564
  575.00     23.43809     23.44511      0.00702
  575.25     23.43901     23.44741      0.00840
  575.50     23.44007     23.44972      0.00965
  575.75     23.44144     23.45201      0.01057
  576.00     23.44282     23.45431      0.01148
  576.25     23.44420     23.45660      0.01240
  576.50     23.44643     23.45872      0.01229
  576.75     23.44910     23.46075      0.01164
  577.00     23.45178     23.46278      0.01100
  577.25     23.45442     23.46463      0.01021
  577.50     23.45645     23.46279      0.00634
  577.75     23.45848     23.46095      0.00247
  578.00     23.46051     23.45910     -0.00140
  578.25     23.46332     23.45836     -0.00496
  578.50     23.46719     23.45910     -0.00809
  578.75     23.47106     23.45984     -0.01123
  579.00     23.47494     23.46058     -0.01436
  579.25     23.47769     23.46244     -0.01525
  579.50     23.48017     23.46456     -0.01562
  579.75     23.48266     23.46668     -0.01599
  580.00     23.48447     23.46883     -0.01564
  580.25     23.48346     23.47113     -0.01233
  580.50     23.48245     23.47342     -0.00903
  580.75     23.48144     23.47572     -0.00572
  581.00     23.48256     23.47724     -0.00533
  581.25     23.48533     23.47816     -0.00717
  581.50     23.48809     23.47908     -0.00901
  581.75     23.49086     23.48000     -0.01086
  582.00     23.49327     23.48311     -0.01016
  582.25     23.49567     23.48633     -0.00934
  582.50     23.49807     23.48956     -0.00851
  582.75     23.49933     23.49358     -0.00575
  583.00     23.49832     23.49921      0.00089
  583.25     23.49730     23.50483      0.00753
  583.50     23.49629     23.51045      0.01416
  583.75     23.49613     23.51416      0.01803
  584.00     23.49632     23.51711      0.02079
  584.25     23.49650     23.52006      0.02356
  584.50     23.49673     23.52250      0.02576
  584.75     23.49737     23.52029      0.02292
  585.00     23.49802     23.51809      0.02007
  585.25     23.49866     23.51588      0.01723
  585.50     23.49982     23.51385      0.01403
  585.75     23.50157     23.51201      0.01043
  586.00     23.50332     23.51016      0.00684
  586.25     23.50508     23.50832      0.00324
  586.50     23.51115     23.50883     -0.00232
  586.75     23.51797     23.50976     -0.00822
  587.00     23.52479     23.51068     -0.01412
  587.25     23.53105     23.51226     -0.01879
  587.50     23.53547     23.51594     -0.01953
  587.75     23.53990     23.51963     -0.02027
  588.00     23.54432     23.52332     -0.02101
  588.25     23.54589     23.52832     -0.01757
  588.50     23.54570     23.53413     -0.01157
  588.75     23.54552     23.53993     -0.00558
  589.00     23.54534     23.54573      0.00040
  589.25     23.54626     23.55005      0.00379
  589.50     23.54717     23.55437      0.00719
  589.75     23.54809     23.55868      0.01059
  590.00     23.54836     23.56135      0.01299
  590.25     23.54753     23.56126      0.01373
  590.50     23.54670     23.56116      0.01447
  590.75     23.54587     23.56107      0.01520
  591.00     23.54574     23.56084      0.01510
  591.25     23.54583     23.56056      0.01473
  591.50     23.54592     23.56029      0.01436
  591.75     23.54639     23.56005      0.01366
  592.00     23.54916     23.56005      0.01089
  592.25     23.55192     23.56005      0.00813
  592.50     23.55469     23.56005      0.00536
  592.75     23.55818     23.56058      0.00240
  593.00     23.56233     23.56160     -0.00073
  593.25     23.56648     23.56261     -0.00387
  593.50     23.57062     23.56362     -0.00700
  593.75     23.57517     23.56797     -0.00720
  594.00     23.57976     23.57265     -0.00711
  594.25     23.58436     23.57734     -0.00702
  594.50     23.58815     23.58120     -0.00695
  594.75     23.58991     23.58295     -0.00695
  595.00     23.59166     23.58471     -0.00695
  595.25     23.59341     23.58646     -0.00695
  595.50     23.59620     23.58766     -0.00854
  595.75     23.59952     23.58858     -0.01094
  596.00     23.60284     23.58950     -0.01333
  596.25     23.60628     23.59049     -0.01578
  596.50     23.61227     23.59289     -0.01938
