~Version Information
VERS. 2.0:
WRAP. NO:

~Well Information
STRT.FT -71.25:
STOP.FT 665.00:
STEP.FT 0.25:
NULL. -999.25:

~Curve Information
DEPT.FT     : Depth below casing
PRETEMP.C   : Pre-pump Temperature
POSTTEMP.C  : Post-pump Temperature (aligned)
DIFFTEMP.C  : Post minus Pre Temperature

~A  DEPT  PRETEMP  POSTTEMP  DIFFTEMP
# ...
  137.50     22.04728     22.01546     -0.03182
  137.75     22.04616     22.01396     -0.03220
  138.00     22.04524     22.01239     -0.03285
  138.25     22.04432     22.01083     -0.03349
  138.50     22.04246     22.00899     -0.03347
  138.75     22.03831     22.00650     -0.03181
  139.00     22.03416     22.00401     -0.03015
  139.25     22.03001     22.00152     -0.02849
  139.50     22.02594     21.99749     -0.02845
  139.75     22.02190     21.99272     -0.02918
  140.00     22.01786     21.98794     -0.02992
  140.25     22.01373     21.98318     -0.03055
  140.50     22.00764     21.97857     -0.02908
  140.75     22.00156     21.97396     -0.02760
  141.00     21.99548     21.96935     -0.02613
  141.25     21.99109     21.96660     -0.02450
  141.50     21.98897     21.96632     -0.02265
  141.75     21.98685     21.96604     -0.02081
  142.00     21.98473     21.96577     -0.01896
  142.25     21.98478     21.96482     -0.01997
  142.50     21.98534     21.96371     -0.02162
  142.75     21.98589     21.96260     -0.02328
  143.00     21.98557     21.96054     -0.02503
  143.25     21.98170     21.95455     -0.02715
  143.50     21.97783     21.94856     -0.02927
  143.75     21.97396     21.94257     -0.03139
  144.00     21.97127     21.94090     -0.03037
  144.25     21.96943     21.94237     -0.02706
  144.50     21.96760     21.94384     -0.02376
  144.75     21.96576     21.94531     -0.02045
  145.00     21.96427     21.94879     -0.01547
  145.25     21.96279     21.95239     -0.01040
  145.50     21.96132     21.95598     -0.00533
  145.75     21.96049     21.95740     -0.00309
  146.00     21.96095     21.95445     -0.00650
  146.25     21.96141     21.95150     -0.00991
  146.50     21.96187     21.94855     -0.01332
  146.75     21.96213     21.94448     -0.01765
  147.00     21.96232     21.93996     -0.02236
  147.25     21.96250     21.93544     -0.02706
  147.50     21.96275     21.93124     -0.03151
  147.75     21.96358     21.92986     -0.03372
  148.00     21.96441     21.92848     -0.03593
  148.25     21.96524     21.92709     -0.03814
  148.50     21.96620     21.92678     -0.03942
  148.75     21.96730     21.92761     -0.03969
  149.00     21.96840     21.92843     -0.03997
  149.25     21.96951     21.92926     -0.04024
  149.50     21.96612     21.92907     -0.03706
  149.75     21.96198     21.92870     -0.03328
  150.00     21.95783     21.92833     -0.02950
  150.25     21.95364     21.92770     -0.02594
  150.50     21.94930     21.92622     -0.02308
  150.75     21.94497     21.92475     -0.02022
  151.00     21.94064     21.92327     -0.01737
  151.25     21.93837     21.92335     -0.01502
  151.50     21.93736     21.92436     -0.01300
  151.75     21.93634     21.92537     -0.01097
  152.00     21.93534     21.92637     -0.00897
  152.25     21.93728     21.92425     -0.01303
  152.50     21.93922     21.92213     -0.01708
  152.75     21.94115     21.92001     -0.02114
  153.00     21.94169     21.91700     -0.02469
  153.25     21.94004     21.91259     -0.02744
  153.50     21.93838     21.90819     -0.03020
  153.75     21.93673     21.90378     -0.03295
  154.00     21.93403     21.90348     -0.03054
  154.25     21.93098     21.90450     -0.02649
  154.50     21.92794     21.90551     -0.02243
  154.75     21.92541     21.90684     -0.01857
  155.00     21.92597     21.91007     -0.01590
  155.25     21.92652     21.91329     -0.01322
  155.50     21.92707     21.91652     -0.01055
  155.75     21.92801     21.91897     -0.00904
  156.00     21.92930     21.92072     -0.00858
  156.25     21.93059     21.92247     -0.00812
  156.50     21.93188     21.92422     -0.00766
  156.75     21.93007     21.92212     -0.00795
  157.00     21.92795     21.91963     -0.00832
  157.25     21.92583     21.91714     -0.00869
  157.50     21.92320     21.91393     -0.00928
  157.75     21.91934     21.90897     -0.01038
  158.00     21.91549     21.90401     -0.01148
  158.25     21.91163     21.89905     -0.01258
  158.50     21.91052     21.89610     -0.01442
  158.75     21.91079     21.89416     -0.01663
  159.00     21.91107     21.89223     -0.01884
  159.25     21.91153     21.89059     -0.02095
  159.50     21.91577     21.89492     -0.02086
  159.75     21.92001     21.89925     -0.02076
  160.00     21.92425     21.90358     -0.02067
  160.25     21.92722     21.90780     -0.01943
  160.50     21.92851     21.91185     -0.01666
  160.75     21.92980     21.91591     -0.01390
  161.00     21.93109     21.91996     -0.01113
  161.25     21.92908     21.91959     -0.00949
  161.50     21.92632     21.91821     -0.00811
  161.75     21.92355     21.91682     -0.00673
  162.00     21.92122     21.91464     -0.00658
  162.25     21.92067     21.90922     -0.01145
  162.50     21.92012     21.90381     -0.01632
  162.75     21.91957     21.89839     -0.02118
  163.00     21.91996     21.89390     -0.02606
  163.25     21.92107     21.89012     -0.03094
  163.50     21.92217     21.88634     -0.03583
  163.75     21.92328     21.88256     -0.04072
  164.00     21.92149     21.88054     -0.04095
  164.25     21.91956     21.87860     -0.04095
  164.50     21.91762     21.87667     -0.04095
  164.75     21.91445     21.87498     -0.03947
  165.00     21.90882     21.87378     -0.03504
  165.25     21.90320     21.87258     -0.03062
  165.50     21.89758     21.87138     -0.02619
  165.75     21.89348     21.87237     -0.02111
  166.00     21.88998     21.87422     -0.01576
  166.25     21.88648     21.87606     -0.01041
  166.50     21.88351     21.87773     -0.00578
  166.75     21.88526     21.87792     -0.00734
  167.00     21.88700     21.87810     -0.00890
  167.25     21.88875     21.87828     -0.01046
  167.50     21.89028     21.87803     -0.01224
  167.75     21.89157     21.87730     -0.01427
  168.00     21.89286     21.87656     -0.01630
  168.25     21.89415     21.87582     -0.01833
  168.50     21.89220     21.87453     -0.01767
  168.75     21.88971     21.87315     -0.01656
  169.00     21.88722     21.87177     -0.01546
  169.25     21.88443     21.86952     -0.01491
  169.50     21.88065     21.86454     -0.01610
  169.75     21.87687     21.85956     -0.01730
  170.00     21.87309     21.85459     -0.01850
  170.25     21.87017     21.85059     -0.01958
  170.50     21.86777     21.84718     -0.02060
  170.75     21.86538     21.84377     -0.02161
  171.00     21.86298     21.84038     -0.02260
  171.25     21.86041     21.83955     -0.02086
  171.50     21.85784     21.83872     -0.01912
  171.75     21.85527     21.83790     -0.01737
  172.00     21.85280     21.83721     -0.01559
  172.25     21.85049     21.83675     -0.01375
  172.50     21.84819     21.83629     -0.01190
  172.75     21.84588     21.83583     -0.01006
  173.00     21.84428     21.83473     -0.00955
  173.25     21.84290     21.83344     -0.00946
  173.50     21.84152     21.83215     -0.00936
  173.75     21.83999     21.83031     -0.00967
  174.00     21.83759     21.82524     -0.01235
  174.25     21.83519     21.82017     -0.01502
  174.50     21.83280     21.81510     -0.01769
  174.75     21.82957     21.81116     -0.01842
  175.00     21.82561     21.80821     -0.01740
  175.25     21.82164     21.80526     -0.01639
  175.50     21.81768     21.80231     -0.01537
  175.75     21.81105     21.79945     -0.01160
  176.00     21.80416     21.79661     -0.00756
  176.25     21.79728     21.79376     -0.00352
  176.50     21.79122     21.79018     -0.00103
  176.75     21.78725     21.78474     -0.00251
  177.00     21.78329     21.77930     -0.00398
  177.25     21.77932     21.77387     -0.00546
  177.50     21.77953     21.76861     -0.01092
  177.75     21.78184     21.76345     -0.01839
  178.00     21.78414     21.75829     -0.02585
  178.25     21.78632     21.75329     -0.03303
  178.50     21.78614     21.75145     -0.03469
  178.75     21.78596     21.74960     -0.03635
  179.00     21.78577     21.74776     -0.03801
