~Version Information
VERS. 2.0:
WRAP. NO:

~Well Information
STRT.FT -71.25:
STOP.FT 665.00:
STEP.FT 0.25:
NULL. -999.25:

~Curve Information
DEPT.FT     : Depth below casing
PRETEMP.C   : Pre-pump Temperature
POSTTEMP.C  : Post-pump Temperature (aligned)
DIFFTEMP.C  : Post minus Pre Temperature

~A  DEPT  PRETEMP  POSTTEMP  DIFFTEMP
# ...
   54.00     23.06375     23.04564     -0.01811
   54.25     23.06164     23.04141     -0.02022
   54.50     23.06465     23.03915     -0.02550
   54.75     23.06852     23.03721     -0.03131
   55.00     23.07239     23.03528     -0.03711
   55.25     23.07575     23.03436     -0.04139
   55.50     23.07750     23.03666     -0.04084
   55.75     23.07926     23.03897     -0.04029
   56.00     23.08101     23.04127     -0.03974
   56.25     23.07943     23.04156     -0.03786
   56.50     23.07583     23.04064     -0.03519
   56.75     23.07224     23.03972     -0.03251
   57.00     23.06863     23.03878     -0.02985
   57.25     23.06319     23.03509     -0.02810
   57.50     23.05775     23.03140     -0.02635
   57.75     23.05231     23.02772     -0.02459
   58.00     23.04616     23.02378     -0.02238
   58.25     23.03891     23.01947     -0.01944
   58.50     23.03166     23.01515     -0.01650
   58.75     23.02440     23.01084     -0.01356
   59.00     23.01979     23.00553     -0.01426
   59.25     23.01601     22.99991     -0.01611
   59.50     23.01223     22.99428     -0.01795
   59.75     23.00916     22.98938     -0.01978
   60.00     23.01027     22.98873     -0.02153
   60.25     23.01137     22.98809     -0.02328
   60.50     23.01248     22.98744     -0.02503
   60.75     23.01120     22.98680     -0.02440
   61.00     23.00779     22.98615     -0.02163
   61.25     23.00438     22.98551     -0.01887
   61.50     23.00097     22.98486     -0.01610
   61.75     22.99487     22.98186     -0.01300
   62.00     22.98851     22.97864     -0.00987
   62.25     22.98215     22.97541     -0.00673
   62.50     22.97677     22.97189     -0.00488
   62.75     22.97374     22.96767     -0.00607
   63.00     22.97071     22.96344     -0.00727
   63.25     22.96768     22.95922     -0.00846
   63.50     22.96562     22.95597     -0.00966
   63.75     22.96406     22.95320     -0.01086
   64.00     22.96249     22.95044     -0.01205
   64.25     22.96091     22.94772     -0.01319
   64.50     22.95916     22.94597     -0.01319
   64.75     22.95741     22.94422     -0.01319
   65.00     22.95566     22.94247     -0.01319
   65.25     22.95395     22.94036     -0.01359
   65.50     22.95229     22.93777     -0.01451
   65.75     22.95063     22.93519     -0.01544
   66.00     22.94897     22.93261     -0.01636
   66.25     22.94438     22.92807     -0.01630
   66.50     22.93912     22.92310     -0.01602
   66.75     22.93387     22.91812     -0.01575
   67.00     22.92895     22.91326     -0.01569
   67.25     22.92537     22.90885     -0.01652
   67.50     22.92179     22.90444     -0.01735
   67.75     22.91821     22.90003     -0.01817
   68.00     22.91393     22.89593     -0.01800
   68.25     22.90914     22.89206     -0.01708
   68.50     22.90435     22.88819     -0.01616
   68.75     22.89955     22.88432     -0.01524
   69.00     22.89221     22.87966     -0.01256
   69.25     22.88475     22.87495     -0.00979
   69.50     22.87728     22.87025     -0.00703
   69.75     22.87050     22.86602     -0.00448
   70.00     22.86506     22.86270     -0.00236
   70.25     22.85962     22.85938     -0.00024
   70.50     22.85418     22.85606      0.00188
   70.75     22.85034     22.85361      0.00327
   71.00     22.84711     22.85149      0.00438
   71.25     22.84389     22.84937      0.00548
   71.50     22.84079     22.84698      0.00619
   71.75     22.83877     22.84230      0.00353
   72.00     22.83675     22.83762      0.00087
   72.25     22.83473     22.83293     -0.00180
   72.50     22.83196     22.82724     -0.00473
   72.75     22.82837     22.82041     -0.00795
   73.00     22.82477     22.81359     -0.01118
   73.25     22.82118     22.80677     -0.01440
   73.50     22.81687     22.80343     -0.01344
   73.75     22.81244     22.80067     -0.01178
   74.00     22.80802     22.79790     -0.01012
   74.25     22.80402     22.79547     -0.00855
   74.50     22.80135     22.79409     -0.00726
   74.75     22.79867     22.79271     -0.00597
   75.00     22.79600     22.79132     -0.00468
   75.25     22.79396     22.78729     -0.00668
   75.50     22.79230     22.78166     -0.01064
   75.75     22.79064     22.77604     -0.01460
   76.00     22.78896     22.77040     -0.01856
   76.25     22.78474     22.76268     -0.02205
   76.50     22.78051     22.75497     -0.02554
   76.75     22.77629     22.74726     -0.02903
   77.00     22.77171     22.74121     -0.03049
   77.25     22.76655     22.73790     -0.02865
   77.50     22.76138     22.73458     -0.02681
   77.75     22.75622     22.73126     -0.02496
   78.00     22.75317     22.73040     -0.02277
   78.25     22.75077     22.73031     -0.02046
   78.50     22.74838     22.73022     -0.01816
   78.75     22.74614     22.72995     -0.01619
   79.00     22.74485     22.72866     -0.01619
   79.25     22.74356     22.72737     -0.01619
   79.50     22.74227     22.72608     -0.01619
   79.75     22.73893     22.72278     -0.01615
   80.00     22.73377     22.71771     -0.01605
   80.25     22.72860     22.71264     -0.01596
   80.50     22.72344     22.70757     -0.01587
   80.75     22.72140     22.70261     -0.01880
   81.00     22.71966     22.69765     -0.02201
   81.25     22.71792     22.69269     -0.02523
   81.50     22.71599     22.68835     -0.02763
   81.75     22.71359     22.68559     -0.02800
   82.00     22.71119     22.68282     -0.02837
   82.25     22.70880     22.68006     -0.02874
   82.50     22.70178     22.67939     -0.02240
   82.75     22.69247     22.67975     -0.01272
   83.00     22.68316     22.68012     -0.00304
   83.25     22.67411     22.68043      0.00632
   83.50     22.66968     22.67950      0.00982
   83.75     22.66526     22.67858      0.01333
   84.00     22.66083     22.67766      0.01683
   84.25     22.65773     22.67481      0.01708
   84.50     22.65635     22.66947      0.01312
   84.75     22.65497     22.66412      0.00915
   85.00     22.65358     22.65877      0.00519
   85.25     22.65033     22.65337      0.00304
   85.50     22.64665     22.64795      0.00130
   85.75     22.64298     22.64253     -0.00045
   86.00     22.63910     22.63668     -0.00242
   86.25     22.63430     22.62894     -0.00537
   86.50     22.62951     22.62119     -0.00832
   86.75     22.62472     22.61345     -0.01127
   87.00     22.62071     22.60782     -0.01290
   87.25     22.61730     22.60376     -0.01354
   87.50     22.61389     22.59971     -0.01419
   87.75     22.61048     22.59565     -0.01483
   88.00     22.60425     22.59071     -0.01354
   88.25     22.59789     22.58574     -0.01216
   88.50     22.59153     22.58076     -0.01077
   88.75     22.58520     22.57594     -0.00927
   89.00     22.57893     22.57142     -0.00751
   89.25     22.57267     22.56690     -0.00576
   89.50     22.56640     22.56239     -0.00401
   89.75     22.56181     22.56054     -0.00127
   90.00     22.55786     22.55971      0.00185
   90.25     22.55391     22.55889      0.00498
   90.50     22.54991     22.55787      0.00796
   90.75     22.54540     22.55502      0.00962
   91.00     22.54088     22.55216      0.01128
   91.25     22.53636     22.54930      0.01294
   91.50     22.53105     22.54455      0.01350
   91.75     22.52488     22.53773      0.01285
   92.00     22.51870     22.53091      0.01221
   92.25     22.51253     22.52409      0.01156
   92.50     22.50825     22.51632      0.00806
   92.75     22.50429     22.50839      0.00410
   93.00     22.50033     22.50046      0.00013
   93.25     22.49560     22.49362     -0.00198
   93.50     22.48850     22.49011      0.00161
   93.75     22.48140     22.48661      0.00521
   94.00     22.47430     22.48311      0.00880
   94.25     22.46682     22.47996      0.01314
   94.50     22.45911     22.47702      0.01791
   94.75     22.45139     22.47408      0.02269
   95.00     22.44368     22.47115      0.02746
   95.25     22.44311     22.46525      0.02214
   95.50     22.44256     22.45935      0.01679
