~Version Information
VERS. 2.0:
WRAP. NO:

~Well Information
STRT.FT -71.25:
STOP.FT 665.00:
STEP.FT 0.25:
NULL. -999.25:

~Curve Information
DEPT.FT     : Depth below casing
PRETEMP.C   : Pre-pump Temperature
POSTTEMP.C  : Post-pump Temperature (aligned)
DIFFTEMP.C  : Post minus Pre Temperature

~A  DEPT  PRETEMP  POSTTEMP  DIFFTEMP
# ...
   12.25     25.02249     24.97864     -0.04385
   12.50     24.99724     24.95458     -0.04266
   12.75     24.97166     24.93095     -0.04070
   13.00     24.94539     24.90819     -0.03720
   13.25     24.91912     24.88542     -0.03370
   13.50     24.89285     24.86265     -0.03020
   13.75     24.86816     24.83982     -0.02834
   14.00     24.84410     24.81696     -0.02714
   14.25     24.82004     24.79410     -0.02594
   14.50     24.79577     24.77129     -0.02448
   14.75     24.76960     24.74898     -0.02061
   15.00     24.74342     24.72668     -0.01674
   15.25     24.71724     24.70437     -0.01287
   15.50     24.69119     24.68233     -0.00886
   15.75     24.66529     24.66058     -0.00472
   16.00     24.63939     24.63882     -0.00057
   16.25     24.61349     24.61707      0.00358
   16.50     24.58823     24.59324      0.00501
   16.75     24.56307     24.56910      0.00602
   17.00     24.53792     24.54495      0.00703
   17.25     24.51356     24.52032      0.00677
   17.50     24.49180     24.49415      0.00234
   17.75     24.47005     24.46797     -0.00208
   18.00     24.44830     24.44179     -0.00651
   18.25     24.42648     24.41595     -0.01053
   18.50     24.40464     24.39033     -0.01431
   18.75     24.38279     24.36470     -0.01809
   19.00     24.36093     24.33908     -0.02185
   19.25     24.33088     24.31354     -0.01733
   19.50     24.30083     24.28801     -0.01282
   19.75     24.27078     24.26248     -0.00830
   20.00     24.23845     24.23602     -0.00243
   20.25     24.20250     24.20809      0.00559
   20.50     24.16655     24.18016      0.01361
   20.75     24.13060     24.15223      0.02163
   21.00     24.09787     24.12149      0.02361
   21.25     24.06610     24.08990      0.02380
   21.50     24.03434     24.05832      0.02398
   21.75     24.00337     24.02661      0.02324
   22.00     23.97738     23.99417      0.01679
   22.25     23.95138     23.96172      0.01033
   22.50     23.92539     23.92927      0.00388
   22.75     23.89853     23.89644     -0.00209
   23.00     23.87088     23.86326     -0.00762
   23.25     23.84322     23.83007     -0.01315
   23.50     23.81557     23.79689     -0.01868
   23.75     23.78541     23.76421     -0.02120
   24.00     23.75499     23.73158     -0.02341
   24.25     23.72457     23.69894     -0.02563
   24.50     23.69525     23.66803     -0.02722
   24.75     23.66861     23.64130     -0.02731
   25.00     23.64197     23.61457     -0.02741
   25.25     23.61533     23.58784     -0.02750
   25.50     23.59124     23.56564     -0.02561
   25.75     23.56838     23.54562     -0.02276
   26.00     23.54552     23.52560     -0.01991
   26.25     23.52277     23.50554     -0.01723
   26.50     23.50239     23.48443     -0.01796
   26.75     23.48202     23.46332     -0.01870
   27.00     23.46165     23.44221     -0.01944
   27.25     23.44223     23.42327     -0.01895
   27.50     23.42407     23.40724     -0.01683
   27.75     23.40591     23.39120     -0.01471
   28.00     23.38775     23.37516     -0.01259
   28.25     23.37124     23.36196     -0.00928
   28.50     23.35511     23.34943     -0.00568
   28.75     23.33898     23.33689     -0.00209
   29.00     23.32395     23.32450      0.00055
   29.25     23.31344     23.31270     -0.00074
   29.50     23.30293     23.30090     -0.00203
   29.75     23.29242     23.28910     -0.00332
   30.00     23.28396     23.27834     -0.00562
   30.25     23.27698     23.26833     -0.00865
   30.50     23.27000     23.25833     -0.01168
   30.75     23.26302     23.24832     -0.01471
   31.00     23.25427     23.23617     -0.01810
   31.25     23.24542     23.22391     -0.02151
   31.50     23.23657     23.21165     -0.02492
   31.75     23.22791     23.20044     -0.02747
   32.00     23.21961     23.19131     -0.02830
   32.25     23.21132     23.18219     -0.02913
   32.50     23.20302     23.17306     -0.02996
   32.75     23.19736     23.16737     -0.03000
   33.00     23.19276     23.16304     -0.02972
   33.25     23.18815     23.15870     -0.02944
   33.50     23.18368     23.15445     -0.02923
   33.75     23.18045     23.15085     -0.02960
   34.00     23.17722     23.14726     -0.02997
   34.25     23.17400     23.14366     -0.03034
   34.50     23.16958     23.14070     -0.02888
   34.75     23.16389     23.13840     -0.02549
   35.00     23.15819     23.13610     -0.02209
   35.25     23.15250     23.13381     -0.01869
   35.50     23.14844     23.13151     -0.01694
   35.75     23.14466     23.12920     -0.01546
   36.00     23.14088     23.12690     -0.01399
   36.25     23.13743     23.12405     -0.01339
   36.50     23.13503     23.11944     -0.01560
   36.75     23.13264     23.11483     -0.01781
   37.00     23.13024     23.11022     -0.02002
   37.25     23.12773     23.10676     -0.02098
   37.50     23.12515     23.10399     -0.02116
   37.75     23.12257     23.10122     -0.02134
   38.00     23.12000     23.09847     -0.02153
   38.25     23.12009     23.09810     -0.02199
   38.50     23.12018     23.09773     -0.02245
   38.75     23.12028     23.09736     -0.02291
   39.00     23.12048     23.09821     -0.02227
   39.25     23.12084     23.10096     -0.01988
   39.50     23.12121     23.10372     -0.01749
   39.75     23.12158     23.10647     -0.01510
   40.00     23.11901     23.10833     -0.01068
   40.25     23.11551     23.10989     -0.00561
   40.50     23.11201     23.11146     -0.00054
   40.75     23.10925     23.11303      0.00378
   41.00     23.11100     23.11460      0.00360
   41.25     23.11275     23.11616      0.00341
   41.50     23.11450     23.11773      0.00323
   41.75     23.11858     23.12085      0.00227
   42.00     23.12476     23.12536      0.00061
   42.25     23.13093     23.12988     -0.00105
   42.50     23.13711     23.13440     -0.00271
   42.75     23.13691     23.13472     -0.00219
   43.00     23.13608     23.13463     -0.00145
   43.25     23.13525     23.13454     -0.00072
   43.50     23.13343     23.13270     -0.00073
   43.75     23.12920     23.12664     -0.00257
   44.00     23.12498     23.12058     -0.00441
   44.25     23.12076     23.11452     -0.00624
   44.50     23.11793     23.10844     -0.00949
   44.75     23.11581     23.10236     -0.01345
   45.00     23.11369     23.09627     -0.01742
   45.25     23.11161     23.09038     -0.02123
   45.50     23.11032     23.08835     -0.02197
   45.75     23.10903     23.08632     -0.02270
   46.00     23.10774     23.08429     -0.02344
   46.25     23.10553     23.08274     -0.02279
   46.50     23.10212     23.08182     -0.02030
   46.75     23.09871     23.08090     -0.01781
   47.00     23.09530     23.07998     -0.01532
   47.25     23.09489     23.08011     -0.01479
   47.50     23.09517     23.08047     -0.01469
   47.75     23.09544     23.08084     -0.01460
   48.00     23.09629     23.08119     -0.01509
   48.25     23.09942     23.08147     -0.01795
   48.50     23.10256     23.08175     -0.02081
   48.75     23.10569     23.08202     -0.02367
   49.00     23.10705     23.08230     -0.02475
   49.25     23.10715     23.08258     -0.02457
   49.50     23.10724     23.08285     -0.02439
   49.75     23.10733     23.08313     -0.02420
   50.00     23.10689     23.08305     -0.02384
   50.25     23.10643     23.08296     -0.02347
   50.50     23.10597     23.08287     -0.02311
   50.75     23.10560     23.08240     -0.02320
   51.00     23.10542     23.08121     -0.02421
   51.25     23.10524     23.08001     -0.02523
   51.50     23.10505     23.07881     -0.02624
   51.75     23.10242     23.07642     -0.02600
   52.00     23.09882     23.07356     -0.02526
   52.25     23.09523     23.07070     -0.02452
   52.50     23.09135     23.06780     -0.02355
   52.75     23.08499     23.06448     -0.02051
   53.00     23.07863     23.06116     -0.01746
   53.25     23.07227     23.05784     -0.01442
   53.50     23.06797     23.05408     -0.01389
   53.75     23.06586     23.04986     -0.01600
