~Version Information
VERS. 2.0:
WRAP. NO:

~Well Information
STRT.FT -71.25:
STOP.FT 665.00:
STEP.FT 0.25:
NULL. -999.25:

~Curve Information
DEPT.FT     : Depth below casing
PRETEMP.C   : Pre-pump Temperature
POSTTEMP.C  : Post-pump Temperature (aligned)
DIFFTEMP.C  : Post minus Pre Temperature

~A  DEPT  PRETEMP  POSTTEMP  DIFFTEMP
# ...
  429.75     22.62707     22.62974      0.00266
  430.00     22.62867     22.63394      0.00527
  430.25     22.63041     22.63825      0.00784
  430.50     22.63216     22.64257      0.01041
  430.75     22.63418     22.64589      0.01172
  431.00     22.63676     22.64719      0.01043
  431.25     22.63934     22.64848      0.00914
  431.50     22.64192     22.64977      0.00785
  431.75     22.64653     22.65014      0.00361
  432.00     22.65197     22.65014     -0.00183
  432.25     22.65741     22.65014     -0.00727
  432.50     22.66253     22.65022     -0.01232
  432.75     22.66465     22.65105     -0.01361
  433.00     22.66677     22.65188     -0.01490
  433.25     22.66889     22.65271     -0.01619
  433.50     22.66859     22.65371     -0.01488
  433.75     22.66564     22.65491     -0.01073
  434.00     22.66269     22.65611     -0.00658
  434.25     22.65974     22.65731     -0.00243
  434.50     22.65981     22.66111      0.00131
  434.75     22.66036     22.66534      0.00498
  435.00     22.66091     22.66956      0.00865
  435.25     22.66287     22.67364      0.01077
  435.50     22.66951     22.67723      0.00773
  435.75     22.67614     22.68083      0.00468
  436.00     22.68278     22.68442      0.00164
  436.25     22.68806     22.68603     -0.00202
  436.50     22.69248     22.68640     -0.00608
  436.75     22.69691     22.68677     -0.01013
  437.00     22.70133     22.68714     -0.01419
  437.25     22.70179     22.68880     -0.01300
  437.50     22.70225     22.69046     -0.01180
  437.75     22.70272     22.69212     -0.01060
  438.00     22.70296     22.69388     -0.00908
  438.25     22.70287     22.69582     -0.00706
  438.50     22.70278     22.69775     -0.00503
  438.75     22.70269     22.69969     -0.00300
  439.00     22.70231     22.70190     -0.00042
  439.25     22.70186     22.70419      0.00234
  439.50     22.70140     22.70649      0.00509
  439.75     22.70125     22.70857      0.00732
  440.00     22.70309     22.70931      0.00622
  440.25     22.70494     22.71005      0.00511
  440.50     22.70678     22.71079      0.00400
  440.75     22.71078     22.71152      0.00074
  441.00     22.71677     22.71226     -0.00451
  441.25     22.72277     22.71300     -0.00977
  441.50     22.72876     22.71374     -0.01502
  441.75     22.73492     22.71756     -0.01736
  442.00     22.74109     22.72170     -0.01939
  442.25     22.74727     22.72585     -0.02142
  442.50     22.75257     22.72979     -0.02278
  442.75     22.75570     22.73320     -0.02250
  443.00     22.75884     22.73661     -0.02223
  443.25     22.76197     22.74002     -0.02195
  443.50     22.76337     22.74256     -0.02081
  443.75     22.76392     22.74467     -0.01925
  444.00     22.76447     22.74678     -0.01769
  444.25     22.76498     22.74892     -0.01606
  444.50     22.76442     22.75159     -0.01284
  444.75     22.76387     22.75426     -0.00961
  445.00     22.76332     22.75693     -0.00638
  445.25     22.76320     22.75922     -0.00398
  445.50     22.76366     22.76097     -0.00269
  445.75     22.76412     22.76272     -0.00140
  446.00     22.76458     22.76447     -0.00011
  446.25     22.76713     22.76645     -0.00068
  446.50     22.77017     22.76847     -0.00169
  446.75     22.77321     22.77050     -0.00271
  447.00     22.77613     22.77256     -0.00356
  447.25     22.77852     22.77478     -0.00375
  447.50     22.78092     22.77699     -0.00393
  447.75     22.78332     22.77920     -0.00412
  448.00     22.78624     22.78109     -0.00515
  448.25     22.78954     22.78274     -0.00680
  448.50     22.79285     22.78440     -0.00845
  448.75     22.79615     22.78605     -0.01010
  449.00     22.80069     22.78936     -0.01133
  449.25     22.80530     22.79278     -0.01253
  449.50     22.80991     22.79619     -0.01372
  449.75     22.81376     22.79896     -0.01480
  450.00     22.81606     22.80043     -0.01563
  450.25     22.81837     22.80191     -0.01646
  450.50     22.82067     22.80338     -0.01729
  450.75     22.81930     22.80335     -0.01595
  451.00     22.81644     22.80270     -0.01374
  451.25     22.81358     22.80206     -0.01153
  451.50     22.81073     22.80162     -0.00911
  451.75     22.80797     22.80319     -0.00477
  452.00     22.80520     22.80476     -0.00044
  452.25     22.80244     22.80633      0.00389
  452.50     22.80210     22.80868      0.00658
  452.75     22.80440     22.81190      0.00750
  453.00     22.80669     22.81511      0.00842
  453.25     22.80899     22.81832      0.00934
  453.50     22.81231     22.81990      0.00759
  453.75     22.81581     22.82119      0.00538
  454.00     22.81932     22.82248      0.00317
  454.25     22.82206     22.82429      0.00223
  454.50     22.82234     22.82780      0.00545
  454.75     22.82262     22.83130      0.00868
  455.00     22.82289     22.83480      0.01191
  455.25     22.82494     22.83716      0.01223
  455.50     22.82807     22.83882      0.01075
  455.75     22.83120     22.84048      0.00928
  456.00     22.83434     22.84214      0.00780
  456.25     22.83544     22.84186      0.00642
  456.50     22.83655     22.84159      0.00504
  456.75     22.83765     22.84131      0.00366
  457.00     22.83706     22.84096      0.00390
  457.25     22.83375     22.84050      0.00675
  457.50     22.83045     22.84004      0.00960
  457.75     22.82714     22.83959      0.01244
  458.00     22.82766     22.83906      0.01140
  458.25     22.82941     22.83850      0.00910
  458.50     22.83116     22.83795      0.00679
  458.75     22.83325     22.83737      0.00412
  459.00     22.83750     22.83663     -0.00086
  459.25     22.84174     22.83590     -0.00584
  459.50     22.84598     22.83516     -0.01082
  459.75     22.85012     22.83596     -0.01416
  460.00     22.85418     22.83817     -0.01600
  460.25     22.85823     22.84039     -0.01784
  460.50     22.86229     22.84260     -0.01969
  460.75     22.86718     22.84966     -0.01752
  461.00     22.87216     22.85721     -0.01494
  461.25     22.87713     22.86477     -0.01236
  461.50     22.88152     22.87187     -0.00965
  461.75     22.88446     22.87784     -0.00662
  462.00     22.88740     22.88381     -0.00359
  462.25     22.89033     22.88977     -0.00056
  462.50     22.89030     22.89241      0.00211
  462.75     22.88873     22.89334      0.00460
  463.00     22.88717     22.89426      0.00709
  463.25     22.88563     22.89510      0.00947
  463.50     22.88470     22.89408      0.00938
  463.75     22.88378     22.89307      0.00928
  464.00     22.88286     22.89205      0.00919
  464.25     22.88355     22.89230      0.00875
  464.50     22.88641     22.89424      0.00782
  464.75     22.88927     22.89617      0.00690
  465.00     22.89213     22.89811      0.00598
  465.25     22.89521     22.89929      0.00409
  465.50     22.89834     22.90031      0.00197
  465.75     22.90148     22.90132     -0.00015
  466.00     22.90455     22.90244     -0.00211
  466.25     22.90740     22.90400     -0.00340
  466.50     22.91025     22.90557     -0.00468
  466.75     22.91309     22.90713     -0.00597
  467.00     22.91480     22.90905     -0.00575
  467.25     22.91563     22.91127     -0.00436
  467.50     22.91646     22.91348     -0.00298
  467.75     22.91729     22.91569     -0.00160
  468.00     22.91777     22.91764     -0.00013
  468.25     22.91823     22.91958      0.00135
  468.50     22.91869     22.92151      0.00282
  468.75     22.91949     22.92357      0.00408
  469.00     22.92096     22.92588      0.00491
  469.25     22.92244     22.92818      0.00574
  469.50     22.92391     22.93048      0.00657
  469.75     22.92671     22.93101      0.00430
  470.00     22.93003     22.93082      0.00080
  470.25     22.93334     22.93064     -0.00271
  470.50     22.93677     22.93083     -0.00594
  470.75     22.94118     22.93441     -0.00677
  471.00     22.94559     22.93799     -0.00760
  471.25     22.94999     22.94157     -0.00842
