~Version Information
VERS. 2.0:
WRAP. NO:

~Well Information
STRT.FT -71.25:
STOP.FT 665.00:
STEP.FT 0.25:
NULL. -999.25:

~Curve Information
DEPT.FT     : Depth below casing
PRETEMP.C   : Pre-pump Temperature
POSTTEMP.C  : Post-pump Temperature (aligned)
DIFFTEMP.C  : Post minus Pre Temperature

~A  DEPT  PRETEMP  POSTTEMP  DIFFTEMP
# ...
  596.75     23.48957     23.48870     -0.00086
  597.00     23.48984     23.48797     -0.00188
  597.25     23.49182     23.48905     -0.00277
  597.50     23.49606     23.49255     -0.00351
  597.75     23.50030     23.49606     -0.00425
  598.00     23.50454     23.49956     -0.00498
  598.25     23.50862     23.50380     -0.00482
  598.50     23.51266     23.50821     -0.00446
  598.75     23.51670     23.51261     -0.00409
  599.00     23.52027     23.51633     -0.00394
  599.25     23.52175     23.51698     -0.00477
  599.50     23.52322     23.51762     -0.00560
  599.75     23.52469     23.51827     -0.00643
  600.00     23.52544     23.51902     -0.00642
  600.25     23.52562     23.51985     -0.00578
  600.50     23.52581     23.52068     -0.00513
  600.75     23.52599     23.52150     -0.00449
  601.00     23.52688     23.52514     -0.00174
  601.25     23.52780     23.52892      0.00112
  601.50     23.52872     23.53270      0.00398
  601.75     23.52955     23.53805      0.00850
  602.00     23.53019     23.54653      0.01634
  602.25     23.53084     23.55501      0.02417
  602.50     23.53149     23.56349      0.03201
  602.75     23.53398     23.57003      0.03606
  603.00     23.53719     23.57582      0.03863
  603.25     23.54040     23.58160      0.04120
  603.50     23.54381     23.58636      0.04255
  603.75     23.54925     23.58046      0.03121
  604.00     23.55469     23.57456      0.01987
  604.25     23.56013     23.56866      0.00853
  604.50     23.56491     23.56363     -0.00128
  604.75     23.56897     23.55958     -0.00939
  605.00     23.57303     23.55552     -0.01750
  605.25     23.57708     23.55146     -0.02562
  605.50     23.58011     23.55340     -0.02671
  605.75     23.58297     23.55635     -0.02662
  606.00     23.58583     23.55930     -0.02652
  606.25     23.58822     23.56276     -0.02546
  606.50     23.58914     23.56783     -0.02131
  606.75     23.59006     23.57290     -0.01717
  607.00     23.59099     23.57797     -0.01302
  607.25     23.59305     23.58182     -0.01123
  607.50     23.59580     23.58495     -0.01086
  607.75     23.59856     23.58807     -0.01049
  608.00     23.60131     23.59119     -0.01012
  608.25     23.60600     23.59268     -0.01332
  608.50     23.61070     23.59415     -0.01655
  608.75     23.61540     23.59563     -0.01978
  609.00     23.61920     23.59717     -0.02203
  609.25     23.62151     23.59883     -0.02268
  609.50     23.62381     23.60049     -0.02332
  609.75     23.62611     23.60215     -0.02397
  610.00     23.62428     23.60479     -0.01950
  610.25     23.62115     23.60774     -0.01341
  610.50     23.61802     23.61069     -0.00733
  610.75     23.61515     23.61350     -0.00164
  611.00     23.61386     23.61553      0.00168
  611.25     23.61257     23.61756      0.00499
  611.50     23.61128     23.61959      0.00831
  611.75     23.61188     23.62161      0.00973
  612.00     23.61417     23.62363      0.00946
  612.25     23.61647     23.62565      0.00918
  612.50     23.61876     23.62767      0.00891
  612.75     23.62049     23.63053      0.01004
  613.00     23.62215     23.63348      0.01133
  613.25     23.62381     23.63643      0.01262
  613.50     23.62547     23.63935      0.01388
  613.75     23.62713     23.64221      0.01508
  614.00     23.62878     23.64506      0.01628
  614.25     23.63044     23.64792      0.01748
  614.50     23.63272     23.64961      0.01690
  614.75     23.63530     23.65072      0.01542
  615.00     23.63788     23.65183      0.01395
  615.25     23.64051     23.65299      0.01247
  615.50     23.64420     23.65520      0.01100
  615.75     23.64789     23.65741      0.00952
  616.00     23.65157     23.65962      0.00805
  616.25     23.65514     23.66199      0.00685
  616.50     23.65853     23.66456      0.00603
  616.75     23.66193     23.66713      0.00520
  617.00     23.66533     23.66970      0.00438
  617.25     23.67029     23.67228      0.00199
  617.50     23.67563     23.67486     -0.00077
  617.75     23.68098     23.67744     -0.00354
  618.00     23.68586     23.68018     -0.00569
  618.25     23.68872     23.68359     -0.00513
  618.50     23.69158     23.68700     -0.00458
  618.75     23.69444     23.69041     -0.00403
  619.00     23.69645     23.69282     -0.00363
  619.25     23.69784     23.69448     -0.00335
  619.50     23.69922     23.69614     -0.00308
  619.75     23.70060     23.69780     -0.00280
  620.00     23.70242     23.69902     -0.00340
  620.25     23.70427     23.70022     -0.00405
  620.50     23.70611     23.70142     -0.00469
  620.75     23.70826     23.70305     -0.00521
  621.00     23.71102     23.70553     -0.00549
  621.25     23.71377     23.70801     -0.00576
  621.50     23.71653     23.71048     -0.00604
  621.75     23.71701     23.71258     -0.00443
  622.00     23.71655     23.71452     -0.00203
  622.25     23.71609     23.71645      0.00037
  622.50     23.71586     23.71822      0.00236
  622.75     23.71798     23.71831      0.00033
  623.00     23.72010     23.71840     -0.00169
  623.25     23.72222     23.71850     -0.00372
  623.50     23.72508     23.71929     -0.00579
  623.75     23.72877     23.72086     -0.00791
  624.00     23.73246     23.72242     -0.01003
  624.25     23.73614     23.72399     -0.01215
  624.50     23.74070     23.72730     -0.01340
  624.75     23.74540     23.73089     -0.01451
  625.00     23.75010     23.73449     -0.01562
  625.25     23.75460     23.73817     -0.01643
  625.50     23.75846     23.74211     -0.01634
  625.75     23.76231     23.74606     -0.01625
  626.00     23.76617     23.75001     -0.01616
  626.25     23.76857     23.75408     -0.01449
  626.50     23.77004     23.75823     -0.01181
  626.75     23.77152     23.76238     -0.00914
  627.00     23.77299     23.76653     -0.00647
  627.25     23.77493     23.76893     -0.00600
  627.50     23.77686     23.77133     -0.00554
  627.75     23.77880     23.77372     -0.00507
  628.00     23.78080     23.77563     -0.00517
  628.25     23.78292     23.77674     -0.00619
  628.50     23.78504     23.77784     -0.00720
  628.75     23.78716     23.77895     -0.00821
  629.00     23.78907     23.78069     -0.00838
  629.25     23.79092     23.78262     -0.00829
  629.50     23.79276     23.78456     -0.00820
  629.75     23.79466     23.78680     -0.00785
  630.00     23.79686     23.79084     -0.00602
  630.25     23.79906     23.79488     -0.00418
  630.50     23.80127     23.79892     -0.00234
  630.75     23.80324     23.80240     -0.00084
  631.00     23.80499     23.80535      0.00036
  631.25     23.80674     23.80830      0.00156
  631.50     23.80849     23.81125      0.00276
  631.75     23.80966     23.81437      0.00470
  632.00     23.81077     23.81750      0.00673
  632.25     23.81187     23.82063      0.00876
  632.50     23.81301     23.82392      0.01092
  632.75     23.81420     23.82761      0.01341
  633.00     23.81540     23.83130      0.01590
  633.25     23.81660     23.83499      0.01838
  633.50     23.81891     23.83744      0.01854
  633.75     23.82176     23.83929      0.01752
  634.00     23.82462     23.84113      0.01651
  634.25     23.82746     23.84294      0.01548
  634.50     23.82984     23.84404      0.01419
  634.75     23.83223     23.84514      0.01291
  635.00     23.83462     23.84624      0.01162
  635.25     23.83623     23.84750      0.01127
  635.50     23.83679     23.84897      0.01219
  635.75     23.83734     23.85045      0.01311
  636.00     23.83789     23.85192      0.01403
  636.25     23.84104     23.85458      0.01354
  636.50     23.84482     23.85753      0.01272
  636.75     23.84860     23.86048      0.01189
  637.00     23.85279     23.86295      0.01015
  637.25     23.85879     23.86332      0.00453
  637.50     23.86478     23.86369     -0.00109
  637.75     23.87077     23.86405     -0.00671
  638.00     23.87539     23.86611     -0.00928
  638.25     23.87898     23.86943     -0.00956
