~Version Information
VERS. 2.0:
WRAP. NO:

~Well Information
STRT.FT -71.25:
STOP.FT 665.00:
STEP.FT 0.25:
NULL. -999.25:

~Curve Information
DEPT.FT     : Depth below casing
PRETEMP.C   : Pre-pump Temperature
POSTTEMP.C  : Post-pump Temperature (aligned)
DIFFTEMP.C  : Post minus Pre Temperature

~A  DEPT  PRETEMP  POSTTEMP  DIFFTEMP
# ...
  388.00     22.14157     22.13255     -0.00902
  388.25     22.14418     22.13414     -0.01004
  388.50     22.14768     22.13782     -0.00986
  388.75     22.15118     22.14151     -0.00967
  389.00     22.15469     22.14520     -0.00949
  389.25     22.15548     22.14760     -0.00788
  389.50     22.15567     22.14971     -0.00595
  389.75     22.15585     22.15182     -0.00403
  390.00     22.15612     22.15406     -0.00206
  390.25     22.15676     22.15682      0.00006
  390.50     22.15741     22.15959      0.00218
  390.75     22.15806     22.16235      0.00430
  391.00     22.15881     22.16590      0.00710
  391.25     22.15963     22.17005      0.01042
  391.50     22.16046     22.17420      0.01374
  391.75     22.16129     22.17835      0.01705
  392.00     22.16423     22.18136      0.01712
  392.25     22.16727     22.18430      0.01703
  392.50     22.17031     22.18725      0.01694
  392.75     22.17379     22.19017      0.01638
  393.00     22.17812     22.19303      0.01491
  393.25     22.18246     22.19589      0.01343
  393.50     22.18679     22.19875      0.01196
  393.75     22.19031     22.20239      0.01207
  394.00     22.19353     22.20634      0.01281
  394.25     22.19674     22.21028      0.01354
  394.50     22.19983     22.21402      0.01419
  394.75     22.20168     22.21559      0.01391
  395.00     22.20352     22.21715      0.01363
  395.25     22.20536     22.21872      0.01336
  395.50     22.20612     22.21946      0.01334
  395.75     22.20565     22.21927      0.01362
  396.00     22.20519     22.21909      0.01390
  396.25     22.20473     22.21891      0.01417
  396.50     22.20688     22.21856      0.01168
  396.75     22.20946     22.21819      0.00873
  397.00     22.21204     22.21783      0.00578
  397.25     22.21524     22.21828      0.00303
  397.50     22.22041     22.22132      0.00091
  397.75     22.22557     22.22436     -0.00121
  398.00     22.23073     22.22740     -0.00333
  398.25     22.23370     22.23084     -0.00286
  398.50     22.23535     22.23451     -0.00084
  398.75     22.23700     22.23819      0.00118
  399.00     22.23866     22.24186      0.00320
  399.25     22.23665     22.24445      0.00779
  399.50     22.23462     22.24703      0.01240
  399.75     22.23259     22.24961      0.01701
  400.00     22.23207     22.25167      0.01960
  400.25     22.23400     22.25286      0.01886
  400.50     22.23594     22.25406      0.01813
  400.75     22.23787     22.25526      0.01739
  401.00     22.24016     22.25365      0.01349
  401.25     22.24256     22.25116      0.00860
  401.50     22.24495     22.24867      0.00372
  401.75     22.24699     22.24629     -0.00070
  402.00     22.24689     22.24454     -0.00236
  402.25     22.24680     22.24279     -0.00401
  402.50     22.24671     22.24104     -0.00567
  402.75     22.24696     22.24177     -0.00519
  403.00     22.24751     22.24471     -0.00280
  403.25     22.24806     22.24764     -0.00042
  403.50     22.24861     22.25058      0.00197
  403.75     22.24693     22.25452      0.00760
  404.00     22.24499     22.25858      0.01359
  404.25     22.24306     22.26264      0.01958
  404.50     22.24195     22.26586      0.02390
  404.75     22.24297     22.26696      0.02400
  405.00     22.24398     22.26807      0.02409
  405.25     22.24500     22.26918      0.02418
  405.50     22.24853     22.27022      0.02169
  405.75     22.25332     22.27124      0.01791
  406.00     22.25811     22.27225      0.01413
  406.25     22.26274     22.27320      0.01047
  406.50     22.26412     22.27302      0.00890
  406.75     22.26550     22.27283      0.00733
  407.00     22.26688     22.27265      0.00577
  407.25     22.26759     22.27259      0.00500
  407.50     22.26740     22.27268      0.00527
  407.75     22.26722     22.27277      0.00555
  408.00     22.26704     22.27286      0.00582
  408.25     22.26737     22.27606      0.00869
  408.50     22.26783     22.28003      0.01220
  408.75     22.26829     22.28399      0.01570
  409.00     22.26963     22.28787      0.01823
  409.25     22.27480     22.29137      0.01658
  409.50     22.27996     22.29487      0.01492
  409.75     22.28512     22.29838      0.01326
  410.00     22.29028     22.29993      0.00965
  410.25     22.29544     22.30002      0.00458
  410.50     22.30061     22.30012     -0.00049
  410.75     22.30577     22.30021     -0.00556
  411.00     22.30714     22.29942     -0.00772
  411.25     22.30834     22.29859     -0.00975
  411.50     22.30954     22.29776     -0.01178
  411.75     22.30990     22.29824     -0.01166
  412.00     22.30861     22.30127     -0.00734
  412.25     22.30733     22.30430     -0.00303
  412.50     22.30604     22.30733      0.00129
  412.75     22.30573     22.30945      0.00372
  413.00     22.30582     22.31120      0.00538
  413.25     22.30592     22.31296      0.00704
  413.50     22.30655     22.31466      0.00810
  413.75     22.31254     22.31585      0.00331
  414.00     22.31853     22.31705     -0.00148
  414.25     22.32453     22.31825     -0.00628
  414.50     22.33082     22.32116     -0.00967
  414.75     22.33746     22.32595     -0.01151
  415.00     22.34410     22.33075     -0.01335
  415.25     22.35074     22.33554     -0.01520
  415.50     22.35404     22.33962     -0.01442
  415.75     22.35681     22.34358     -0.01323
  416.00     22.35957     22.34755     -0.01203
  416.25     22.36126     22.35093     -0.01034
  416.50     22.35961     22.35249     -0.00713
  416.75     22.35796     22.35405     -0.00391
  417.00     22.35631     22.35561     -0.00070
  417.25     22.35601     22.35808      0.00207
  417.50     22.35656     22.36112      0.00456
  417.75     22.35711     22.36416      0.00705
  418.00     22.35766     22.36720      0.00954
  418.25     22.35840     22.36914      0.01074
  418.50     22.35914     22.37108      0.01194
  418.75     22.35988     22.37301      0.01314
  419.00     22.36107     22.37477      0.01370
  419.25     22.36301     22.37625      0.01324
  419.50     22.36494     22.37772      0.01278
  419.75     22.36688     22.37920      0.01232
  420.00     22.37149     22.38335      0.01186
  420.25     22.37693     22.38833      0.01140
  420.50     22.38237     22.39330      0.01094
  420.75     22.38757     22.39761      0.01004
  421.00     22.39143     22.39807      0.00665
  421.25     22.39528     22.39853      0.00325
  421.50     22.39914     22.39899     -0.00015
  421.75     22.40057     22.39788     -0.00269
  422.00     22.39974     22.39530     -0.00445
  422.25     22.39891     22.39271     -0.00620
  422.50     22.39808     22.39013     -0.00795
  422.75     22.39509     22.39304     -0.00206
  423.00     22.39187     22.39654      0.00467
  423.25     22.38864     22.40004      0.01140
  423.50     22.38649     22.40415      0.01766
  423.75     22.38704     22.40977      0.02273
  424.00     22.38760     22.41539      0.02780
  424.25     22.38815     22.42102      0.03287
  424.50     22.39382     22.42362      0.02980
  424.75     22.40203     22.42472      0.02270
  425.00     22.41023     22.42583      0.01560
  425.25     22.41815     22.42685      0.00870
  425.50     22.42109     22.42640      0.00530
  425.75     22.42403     22.42594      0.00191
  426.00     22.42697     22.42548     -0.00149
  426.25     22.42824     22.42595     -0.00229
  426.50     22.42722     22.42770      0.00048
  426.75     22.42621     22.42945      0.00324
  427.00     22.42520     22.43121      0.00601
  427.25     22.42812     22.43563      0.00751
  427.50     22.43199     22.44070      0.00871
  427.75     22.43586     22.44577      0.00991
  428.00     22.43960     22.45026      0.01067
  428.25     22.44273     22.45229      0.00956
  428.50     22.44586     22.45432      0.00846
  428.75     22.44900     22.45635      0.00735
  429.00     22.45028     22.45769      0.00741
  429.25     22.45019     22.45852      0.00833
  429.50     22.45010     22.45935      0.00925
