~Version Information
VERS. 2.0:
WRAP. NO:

~Well Information
STRT.FT -71.25:
STOP.FT 665.00:
STEP.FT 0.25:
NULL. -999.25:

~Curve Information
DEPT.FT     : Depth below casing
PRETEMP.C   : Pre-pump Temperature
POSTTEMP.C  : Post-pump Temperature (aligned)
DIFFTEMP.C  : Post minus Pre Temperature

~A  DEPT  PRETEMP  POSTTEMP  DIFFTEMP
# ...
  -29.50     25.16689     22.61652     -2.55037
  -29.25     25.29714     22.78520     -2.51193
  -29.00     25.42738     22.95389     -2.47350
  -28.75     25.63742     23.04498     -2.59243
  -28.50     25.86512     23.11889     -2.74623
  -28.25     26.09282     23.19281     -2.90002
  -28.00     26.31292     23.23879     -3.07414
  -27.75     26.50023     23.16431     -3.33592
  -27.50     26.68753     23.08983     -3.59770
  -27.25     26.87484     23.01535     -3.85949
  -27.00     27.01152     22.88962     -4.12190
  -26.75     27.11034     22.72554     -4.38479
  -26.50     27.20915     22.56147     -4.64768
  -26.25     27.30796     22.39739     -4.91057
  -26.00     27.21163     22.28926     -4.92237
  -25.75     27.10627     22.18372     -4.92255
  -25.50     27.00092     22.07818     -4.92274
  -25.25     26.79971     22.02613     -4.77359
  -25.00     26.41211     22.07811     -4.33399
  -24.75     26.02450     22.13010     -3.89440
  -24.50     25.63690     22.18209     -3.45481
  -24.25     25.50596     22.32465     -3.18130
  -24.00     25.47318     22.50186     -2.97132
  -23.75     25.44040     22.67906     -2.76134
  -23.50     25.44992     22.85456     -2.59536
  -23.25     25.87246     23.01338     -2.85908
  -23.00     26.29500     23.17220     -3.12280
  -22.75     26.71754     23.33102     -3.38652
  -22.50     27.08788     23.41555     -3.67234
  -22.25     27.40092     23.41850     -3.98242
  -22.00     27.71395     23.42144     -4.29251
  -21.75     28.02698     23.42439     -4.60259
  -21.50     27.97025     23.28204     -4.68821
  -21.25     27.85356     23.11612     -4.73744
  -21.00     27.73686     22.95020     -4.78666
  -20.75     27.56206     22.78005     -4.78201
  -20.50     27.20745     22.59680     -4.61065
  -20.25     26.85285     22.41355     -4.43929
  -20.00     26.49824     22.23030     -4.26794
  -19.75     26.23267     22.12287     -4.10980
  -19.50     26.01984     22.06035     -3.95950
  -19.25     25.80702     21.99782     -3.80920
  -19.00     25.59419     21.93529     -3.65889
  -18.75     25.50493     22.01652     -3.48842
  -18.50     25.41598     22.09809     -3.31789
  -18.25     25.32703     22.17967     -3.14736
  -18.00     25.40378     22.32048     -3.08330
  -17.75     25.74935     22.55737     -3.19198
  -17.50     26.09493     22.79427     -3.30066
  -17.25     26.44050     23.03116     -3.40933
  -17.00     26.90660     23.24225     -3.66435
  -16.75     27.40971     23.44541     -3.96430
  -16.50     27.91281     23.64856     -4.26424
  -16.25     28.36258     23.81427     -4.54831
  -16.00     28.50748     23.76587     -4.74160
  -15.75     28.65238     23.71748     -4.93490
  -15.50     28.79728     23.66909     -5.12820
  -15.25     28.73432     23.52024     -5.21408
  -15.00     28.48898     23.28326     -5.20572
  -14.75     28.24365     23.04629     -5.19737
  -14.50     27.99832     22.80931     -5.18901
  -14.25     27.57132     22.61191     -4.95941
  -14.00     27.12463     22.41880     -4.70583
  -13.75     26.67794     22.22569     -4.45225
  -13.50     26.27364     22.07555     -4.19809
  -13.25     25.97517     22.03268     -3.94248
  -13.00     25.67670     21.98982     -3.68687
  -12.75     25.37823     21.94696     -3.43127
  -12.50     25.24991     22.01121     -3.23869
  -12.25     25.20548     22.12828     -3.07720
  -12.00     25.16105     22.24534     -2.91570
  -11.75     25.14013     22.36933     -2.77080
  -11.50     25.53455     22.61553     -2.91902
  -11.25     25.92898     22.86174     -3.06724
  -11.00     26.32341     23.10794     -3.21546
  -10.75     26.68066     23.32112     -3.35954
  -10.50     26.99008     23.49181     -3.49827
  -10.25     27.29950     23.66249     -3.63700
  -10.00     27.60891     23.83318     -3.77574
   -9.75     27.63133     23.81727     -3.81406
   -9.50     27.58506     23.75671     -3.82834
   -9.25     27.53878     23.69615     -3.84263
   -9.00     27.46172     23.59561     -3.86611
   -8.75     27.25395     23.32534     -3.92861
   -8.50     27.04618     23.05508     -3.99110
   -8.25     26.83842     22.78482     -4.05360
   -8.00     26.55307     22.51132     -4.04175
   -7.75     26.21027     22.23544     -3.97483
   -7.50     25.86746     21.95955     -3.90791
   -7.25     25.52465     21.68366     -3.84099
   -7.00     25.15755     21.54115     -3.61640
   -6.75     24.78940     21.40445     -3.38495
   -6.50     24.42124     21.26775     -3.15349
   -6.25     24.07663     21.17212     -2.90451
   -6.00     23.77731     21.15550     -2.62181
   -5.75     23.47799     21.13888     -2.33911
   -5.50     23.17867     21.12227     -2.05640
   -5.25     23.01474     21.15060     -1.86415
   -5.00     22.90570     21.19714     -1.70855
   -4.75     22.79665     21.24369     -1.55296
   -4.50     22.71293     21.29576     -1.41717
   -4.25     22.86954     21.40020     -1.46934
   -4.00     23.02615     21.50464     -1.52151
   -3.75     23.18276     21.60907     -1.57368
   -3.50     23.33840     21.72044     -1.61795
   -3.25     23.49298     21.83935     -1.65362
   -3.00     23.64756     21.95826     -1.68930
   -2.75     23.80214     22.07717     -1.72497
   -2.50     23.72160     22.11940     -1.60220
   -2.25     23.60371     22.14945     -1.45426
   -2.00     23.48581     22.17950     -1.30631
   -1.75     23.34400     22.20406     -1.13994
   -1.50     23.12915     22.21187     -0.91728
   -1.25     22.91430     22.21967     -0.69463
   -1.00     22.69945     22.22748     -0.47198
   -0.75     22.61564     22.30057     -0.31507
   -0.50     22.61342     22.41431     -0.19911
   -0.25     22.61121     22.52806     -0.08315
    0.00     22.60900     22.64181      0.03281
    0.25     22.81068     22.84202      0.03133
    0.50     23.01237     23.04222      0.02986
    0.75     23.21405     23.24243      0.02838
    1.00     23.41411     23.43461      0.02050
    1.25     23.61155     23.61390      0.00234
    1.50     23.80900     23.79318     -0.01581
    1.75     24.00644     23.97247     -0.03397
    2.00     24.13823     24.09798     -0.04025
    2.25     24.25013     24.20721     -0.04292
    2.50     24.36203     24.31644     -0.04559
    2.75     24.46639     24.41864     -0.04775
    3.00     24.52846     24.48145     -0.04701
    3.25     24.59053     24.54425     -0.04628
    3.50     24.65260     24.60705     -0.04555
    3.75     24.70744     24.66239     -0.04505
    4.00     24.75565     24.71088     -0.04477
    4.25     24.80386     24.75937     -0.04450
    4.50     24.85207     24.80785     -0.04422
    4.75     24.89269     24.84908     -0.04361
    5.00     24.93251     24.88955     -0.04296
    5.25     24.97233     24.93001     -0.04232
    5.50     25.00827     24.96758     -0.04069
    5.75     25.03463     24.99800     -0.03663
    6.00     25.06100     25.02842     -0.03258
    6.25     25.08736     25.05884     -0.02852
    6.50     25.10746     25.08182     -0.02564
    6.75     25.12452     25.10118     -0.02334
    7.00     25.14157     25.12053     -0.02104
    7.25     25.15806     25.13932     -0.01875
    7.50     25.16513     25.14840     -0.01673
    7.75     25.17220     25.15749     -0.01471
    8.00     25.17927     25.16658     -0.01269
    8.25     25.18196     25.17161     -0.01035
    8.50     25.17873     25.17115     -0.00759
    8.75     25.17551     25.17069     -0.00482
    9.00     25.17228     25.17023     -0.00205
    9.25     25.16794     25.16462     -0.00332
    9.50     25.16333     25.15780     -0.00553
    9.75     25.15872     25.15098     -0.00774
   10.00     25.15375     25.14303     -0.01072
   10.25     25.14730     25.13041     -0.01690
   10.50     25.14085     25.11778     -0.02307
   10.75     25.13440     25.10515     -0.02925
   11.00     25.12215     25.08800     -0.03415
   11.25     25.10565     25.06754     -0.03811
   11.50     25.08915     25.04707     -0.04207
   11.75     25.07265     25.02661     -0.04604
   12.00     25.04774     25.00270     -0.04505
