~Version Information
VERS. 2.0:
WRAP. NO:

~Well Information
STRT.FT -71.25:
STOP.FT 665.00:
STEP.FT 0.25:
NULL. -999.25:

~Curve Information
DEPT.FT     : Depth below casing
PRETEMP.C   : Pre-pump Temperature
POSTTEMP.C  : Post-pump Temperature (aligned)
DIFFTEMP.C  : Post minus Pre Temperature

~A  DEPT  PRETEMP  POSTTEMP  DIFFTEMP
# ...
  221.00     21.32652     21.31663     -0.00989
  221.25     21.32533     21.31673     -0.00860
  221.50     21.32413     21.31682     -0.00732
  221.75     21.32394     21.31691     -0.00703
  222.00     21.32578     21.31700     -0.00878
  222.25     21.32763     21.31709     -0.01053
  222.50     21.32947     21.31719     -0.01228
  222.75     21.33066     21.31800     -0.01266
  223.00     21.33158     21.31911     -0.01247
  223.25     21.33250     21.32021     -0.01229
  223.50     21.33326     21.32083     -0.01243
  223.75     21.33253     21.31687     -0.01566
  224.00     21.33179     21.31290     -0.01888
  224.25     21.33105     21.30894     -0.02211
  224.50     21.32876     21.30529     -0.02348
  224.75     21.32480     21.30197     -0.02283
  225.00     21.32084     21.29865     -0.02219
  225.25     21.31687     21.29533     -0.02154
  225.50     21.31491     21.29765     -0.01725
  225.75     21.31325     21.30087     -0.01239
  226.00     21.31160     21.30408     -0.00752
  226.25     21.31040     21.30747     -0.00293
  226.50     21.31067     21.31143      0.00076
  226.75     21.31095     21.31540      0.00445
  227.00     21.31123     21.31936      0.00813
  227.25     21.31179     21.32065      0.00886
  227.50     21.31253     21.32028      0.00776
  227.75     21.31326     21.31991      0.00665
  228.00     21.31400     21.31954      0.00554
  228.25     21.31548     21.31872      0.00324
  228.50     21.31695     21.31789      0.00093
  228.75     21.31843     21.31706     -0.00137
  229.00     21.32072     21.31704     -0.00367
  229.25     21.32431     21.31833     -0.00598
  229.50     21.32791     21.31962     -0.00828
  229.75     21.33150     21.32091     -0.01059
  230.00     21.33516     21.32340     -0.01176
  230.25     21.33883     21.32625     -0.01258
  230.50     21.34250     21.32909     -0.01341
  230.75     21.34554     21.33170     -0.01384
  231.00     21.34462     21.33280     -0.01181
  231.25     21.34370     21.33391     -0.00979
  231.50     21.34277     21.33502     -0.00776
  231.75     21.34123     21.33333     -0.00789
  232.00     21.33911     21.32909     -0.01001
  232.25     21.33699     21.32485     -0.01213
  232.50     21.33487     21.32061     -0.01425
  232.75     21.33492     21.31896     -0.01596
  233.00     21.33519     21.31758     -0.01762
  233.25     21.33547     21.31619     -0.01928
  233.50     21.33633     21.31591     -0.02043
  233.75     21.33864     21.31830     -0.02034
  234.00     21.34094     21.32070     -0.02024
  234.25     21.34325     21.32310     -0.02015
  234.50     21.34542     21.32579     -0.01963
  234.75     21.34753     21.32864     -0.01889
  235.00     21.34964     21.33149     -0.01816
  235.25     21.35182     21.33429     -0.01753
  235.50     21.35532     21.33613     -0.01918
  235.75     21.35882     21.33798     -0.02084
  236.00     21.36232     21.33982     -0.02250
  236.25     21.36543     21.34277     -0.02267
  236.50     21.36801     21.34719     -0.02082
  236.75     21.37060     21.35161     -0.01898
  237.00     21.37318     21.35604     -0.01714
  237.25     21.37247     21.36203     -0.01044
  237.50     21.37100     21.36839     -0.00261
  237.75     21.36952     21.37475      0.00523
  238.00     21.36849     21.38047      0.01197
  238.25     21.36932     21.38351      0.01419
  238.50     21.37015     21.38655      0.01640
  238.75     21.37098     21.38959      0.01861
  239.00     21.37192     21.39003      0.01811
  239.25     21.37293     21.38856      0.01563
  239.50     21.37394     21.38709      0.01316
  239.75     21.37495     21.38562      0.01068
  240.00     21.37500     21.38677      0.01177
  240.25     21.37500     21.38806      0.01306
  240.50     21.37500     21.38935      0.01435
  240.75     21.37564     21.39088      0.01524
  241.00     21.37758     21.39291      0.01533
  241.25     21.37951     21.39494      0.01543
  241.50     21.38145     21.39697      0.01552
  241.75     21.38325     21.39708      0.01383
  242.00     21.38500     21.39644      0.01144
  242.25     21.38675     21.39579      0.00904
  242.50     21.38850     21.39520      0.00671
  242.75     21.39016     21.39511      0.00495
  243.00     21.39182     21.39502      0.00320
  243.25     21.39347     21.39493      0.00145
  243.50     21.39385     21.39461      0.00077
  243.75     21.39284     21.39406      0.00123
  244.00     21.39183     21.39351      0.00169
  244.25     21.39082     21.39296      0.00214
  244.50     21.39239     21.39374      0.00135
  244.75     21.39442     21.39476      0.00033
  245.00     21.39645     21.39577     -0.00068
  245.25     21.39872     21.39683     -0.00189
  245.50     21.40176     21.39803     -0.00373
  245.75     21.40480     21.39922     -0.00558
  246.00     21.40784     21.40042     -0.00742
  246.25     21.40940     21.40219     -0.00721
  246.50     21.41004     21.40431     -0.00573
  246.75     21.41069     21.40643     -0.00426
  247.00     21.41133     21.40855     -0.00278
  247.25     21.41059     21.40938     -0.00122
  247.50     21.40986     21.41021      0.00035
  247.75     21.40912     21.41104      0.00192
  248.00     21.40842     21.41140      0.00299
  248.25     21.40778     21.41104      0.00326
  248.50     21.40713     21.41067      0.00354
  248.75     21.40649     21.41030      0.00381
  249.00     21.40668     21.41063      0.00395
  249.25     21.40714     21.41118      0.00404
  249.50     21.40760     21.41174      0.00413
  249.75     21.40843     21.41226      0.00384
  250.00     21.41147     21.41263      0.00116
  250.25     21.41451     21.41300     -0.00151
  250.50     21.41755     21.41337     -0.00418
  250.75     21.42059     21.41384     -0.00676
  251.00     21.42364     21.41439     -0.00925
  251.25     21.42668     21.41494     -0.01174
  251.50     21.42972     21.41549     -0.01423
  251.75     21.43075     21.41638     -0.01437
  252.00     21.43158     21.41730     -0.01428
  252.25     21.43241     21.41823     -0.01419
  252.50     21.43313     21.41896     -0.01417
  252.75     21.43359     21.41923     -0.01436
  253.00     21.43405     21.41951     -0.01454
  253.25     21.43451     21.41979     -0.01473
  253.50     21.43290     21.41963     -0.01326
  253.75     21.43023     21.41927     -0.01096
  254.00     21.42755     21.41890     -0.00866
  254.25     21.42488     21.41858     -0.00631
  254.50     21.42230     21.41932     -0.00299
  254.75     21.41972     21.42005      0.00033
  255.00     21.41714     21.42079      0.00365
  255.25     21.41563     21.42181      0.00618
  255.50     21.41553     21.42319      0.00765
  255.75     21.41544     21.42457      0.00913
  256.00     21.41535     21.42595      0.01060
  256.25     21.41728     21.42629      0.00901
  256.50     21.41968     21.42638      0.00670
  256.75     21.42207     21.42647      0.00440
  257.00     21.42380     21.42647      0.00267
  257.25     21.42279     21.42611      0.00331
  257.50     21.42178     21.42574      0.00396
  257.75     21.42077     21.42537      0.00460
  258.00     21.41939     21.42474      0.00535
  258.25     21.41774     21.42391      0.00618
  258.50     21.41608     21.42308      0.00701
  258.75     21.41442     21.42225      0.00784
  259.00     21.41468     21.42256      0.00788
  259.25     21.41505     21.42293      0.00788
  259.50     21.41542     21.42330      0.00788
  259.75     21.41634     21.42370      0.00736
  260.00     21.41837     21.42416      0.00579
  260.25     21.42040     21.42462      0.00422
  260.50     21.42243     21.42508      0.00266
  260.75     21.42419     21.42667      0.00248
  261.00     21.42585     21.42869      0.00285
  261.25     21.42751     21.43072      0.00321
  261.50     21.42912     21.43248      0.00336
  261.75     21.43031     21.43184      0.00152
  262.00     21.43151     21.43120     -0.00031
  262.25     21.43270     21.43055     -0.00215
  262.50     21.43550     21.43047     -0.00503
