~Version Information
VERS. 2.0:
WRAP. NO:

~Well Information
STRT.FT -71.25:
STOP.FT 665.00:
STEP.FT 0.25:
NULL. -999.25:

~Curve Information
DEPT.FT     : Depth below casing
PRETEMP.C   : Pre-pump Temperature
POSTTEMP.C  : Post-pump Temperature (aligned)
DIFFTEMP.C  : Post minus Pre Temperature

~A  DEPT  PRETEMP  POSTTEMP  DIFFTEMP
# ...
  179.25     21.84141     21.83628     -0.00514
  179.50     21.83929     21.83121     -0.00809
  179.75     21.83717     21.82614     -0.01104
  180.00     21.83505     21.82107     -0.01399
  180.25     21.83444     21.81766     -0.01678
  180.50     21.83417     21.81463     -0.01953
  180.75     21.83389     21.81160     -0.02229
  181.00     21.83362     21.80874     -0.02487
  181.25     21.83334     21.80662     -0.02671
  181.50     21.83306     21.80450     -0.02856
  181.75     21.83279     21.80238     -0.03040
  182.00     21.83072     21.80126     -0.02946
  182.25     21.82731     21.80089     -0.02642
  182.50     21.82390     21.80053     -0.02338
  182.75     21.82049     21.80016     -0.02033
  183.00     21.81576     21.79970     -0.01606
  183.25     21.81097     21.79924     -0.01173
  183.50     21.80617     21.79878     -0.00740
  183.75     21.80147     21.79642     -0.00506
  184.00     21.79696     21.79033     -0.00662
  184.25     21.79244     21.78425     -0.00819
  184.50     21.78792     21.77817     -0.00976
  184.75     21.78388     21.77468     -0.00920
  185.00     21.78003     21.77220     -0.00782
  185.25     21.77617     21.76973     -0.00645
  185.50     21.77252     21.76736     -0.00516
  185.75     21.77096     21.76617     -0.00479
  186.00     21.76939     21.76497     -0.00442
  186.25     21.76782     21.76377     -0.00405
  186.50     21.76608     21.76086     -0.00522
  186.75     21.76414     21.75607     -0.00808
  187.00     21.76221     21.75128     -0.01093
  187.25     21.76027     21.74648     -0.01379
  187.50     21.76063     21.74486     -0.01578
  187.75     21.76137     21.74375     -0.01762
  188.00     21.76211     21.74264     -0.01946
  188.25     21.76213     21.74158     -0.02055
  188.50     21.75992     21.74066     -0.01926
  188.75     21.75771     21.73974     -0.01797
  189.00     21.75549     21.73882     -0.01668
  189.25     21.75363     21.73801     -0.01562
  189.50     21.75198     21.73728     -0.01470
  189.75     21.75033     21.73654     -0.01378
  190.00     21.74867     21.73581     -0.01286
  190.25     21.74683     21.73608     -0.01075
  190.50     21.74499     21.73636     -0.00863
  190.75     21.74314     21.73663     -0.00651
  191.00     21.74196     21.73733     -0.00463
  191.25     21.74187     21.73871     -0.00316
  191.50     21.74178     21.74010     -0.00168
  191.75     21.74169     21.74148     -0.00021
  192.00     21.74406     21.74209     -0.00197
  192.25     21.74719     21.74246     -0.00474
  192.50     21.75033     21.74282     -0.00750
  192.75     21.75296     21.74322     -0.00974
  193.00     21.75268     21.74377     -0.00891
  193.25     21.75241     21.74433     -0.00808
  193.50     21.75213     21.74488     -0.00725
  193.75     21.74971     21.74431     -0.00540
  194.00     21.74539     21.74275     -0.00264
  194.25     21.74108     21.74119      0.00011
  194.50     21.73676     21.73963      0.00287
  194.75     21.73417     21.73798      0.00380
  195.00     21.73178     21.73632      0.00454
  195.25     21.72938     21.73466      0.00528
  195.50     21.72725     21.73358      0.00633
  195.75     21.72577     21.73395      0.00817
  196.00     21.72430     21.73431      0.01002
  196.25     21.72282     21.73468      0.01186
  196.50     21.72283     21.73598      0.01315
  196.75     21.72356     21.73773      0.01416
  197.00     21.72430     21.73948      0.01518
  197.25     21.72512     21.74110      0.01597
  197.50     21.72752     21.74027      0.01275
  197.75     21.72992     21.73944      0.00952
  198.00     21.73231     21.73861      0.00629
  198.25     21.73407     21.73814      0.00407
  198.50     21.73498     21.73814      0.00315
  198.75     21.73590     21.73814      0.00224
  199.00     21.73682     21.73814      0.00132
  199.25     21.73507     21.73866      0.00359
  199.50     21.73267     21.73930      0.00663
  199.75     21.73028     21.73995      0.00967
  200.00     21.72840     21.74025      0.01184
  200.25     21.72877     21.73905      0.01028
  200.50     21.72914     21.73785      0.00871
  200.75     21.72951     21.73665      0.00714
  201.00     21.73067     21.73566      0.00499
  201.25     21.73242     21.73483      0.00241
  201.50     21.73417     21.73400     -0.00017
  201.75     21.73592     21.73318     -0.00275
  202.00     21.73450     21.73305     -0.00145
  202.25     21.73293     21.73296      0.00003
  202.50     21.73137     21.73287      0.00150
  202.75     21.72893     21.73140      0.00247
  203.00     21.72480     21.72727      0.00247
  203.25     21.72066     21.72314      0.00247
  203.50     21.71653     21.71900      0.00247
  203.75     21.71409     21.71630      0.00221
  204.00     21.71234     21.71418      0.00184
  204.25     21.71059     21.71206      0.00147
  204.50     21.70895     21.71005      0.00110
  204.75     21.70840     21.70913      0.00074
  205.00     21.70784     21.70821      0.00037
  205.25     21.70729     21.70729     -0.00000
  205.50     21.70586     21.70540     -0.00046
  205.75     21.70346     21.70245     -0.00101
  206.00     21.70106     21.69950     -0.00156
  206.25     21.69867     21.69655     -0.00212
  206.50     21.69889     21.69034     -0.00855
  206.75     21.69953     21.68362     -0.01592
  207.00     21.70018     21.67689     -0.02329
  207.25     21.70010     21.67127     -0.02884
  207.50     21.69781     21.66906     -0.02875
  207.75     21.69551     21.66686     -0.02865
  208.00     21.69322     21.66466     -0.02856
  208.25     21.68820     21.66437     -0.02383
  208.50     21.68147     21.66529     -0.01617
  208.75     21.67474     21.66622     -0.00852
  209.00     21.66801     21.66714     -0.00087
  209.25     21.66294     21.66594      0.00300
  209.50     21.65787     21.66474      0.00688
  209.75     21.65280     21.66355      0.01075
  210.00     21.64741     21.66041      0.01300
  210.25     21.64151     21.65414      0.01263
  210.50     21.63561     21.64787      0.01226
  210.75     21.62971     21.64161      0.01189
  211.00     21.62389     21.63760      0.01371
  211.25     21.61808     21.63428      0.01620
  211.50     21.61227     21.63096      0.01869
  211.75     21.60710     21.62770      0.02060
  212.00     21.60554     21.62476      0.01922
  212.25     21.60398     21.62182      0.01785
  212.50     21.60242     21.61889      0.01647
  212.75     21.60148     21.61527      0.01380
  213.00     21.60111     21.61103      0.00992
  213.25     21.60074     21.60679      0.00605
  213.50     21.60037     21.60255      0.00218
  213.75     21.60117     21.60131      0.00014
  214.00     21.60209     21.60039     -0.00170
  214.25     21.60301     21.59946     -0.00355
  214.50     21.60309     21.59849     -0.00460
  214.75     21.60106     21.59738     -0.00367
  215.00     21.59903     21.59628     -0.00275
  215.25     21.59700     21.59517     -0.00183
  215.50     21.59164     21.59122     -0.00041
  215.75     21.58463     21.58587      0.00124
  216.00     21.57762     21.58053      0.00290
  216.25     21.57071     21.57519      0.00448
  216.50     21.56539     21.56995      0.00457
  216.75     21.56006     21.56472      0.00466
  217.00     21.55473     21.55949      0.00475
  217.25     21.54956     21.55534      0.00578
  217.50     21.54458     21.55267      0.00809
  217.75     21.53960     21.54999      0.01039
  218.00     21.53462     21.54732      0.01270
  218.25     21.53084     21.54539      0.01455
  218.50     21.52733     21.54364      0.01631
  218.75     21.52383     21.54189      0.01806
  219.00     21.52116     21.53963      0.01847
  219.25     21.52199     21.53520      0.01321
  219.50     21.52282     21.53078      0.00796
  219.75     21.52365     21.52635      0.00270
  220.00     21.52448     21.52325     -0.00122
  220.25     21.52531     21.52113     -0.00417
  220.50     21.52614     21.51901     -0.00712
  220.75     21.52697     21.51689     -0.01007
