~Version Information
VERS. 2.0:
WRAP. NO:

~Well Information
STRT.FT -71.25:
STOP.FT 665.00:
STEP.FT 0.25:
NULL. -999.25:

~Curve Information
DEPT.FT     : Depth below casing
PRETEMP.C   : Pre-pump Temperature
POSTTEMP.C  : Post-pump Temperature (aligned)
DIFFTEMP.C  : Post minus Pre Temperature

~A  DEPT  PRETEMP  POSTTEMP  DIFFTEMP
# ...
   12.25     24.93369     24.84820     -0.08549
   12.50     24.90633     24.81946     -0.08687
   12.75     24.87963     24.79072     -0.08891
   13.00     24.85428     24.76196     -0.09232
   13.25     24.82893     24.73320     -0.09574
   13.50     24.80358     24.70444     -0.09915
   13.75     24.77692     24.67634     -0.10058
   14.00     24.74973     24.64850     -0.10123
   14.25     24.72253     24.62066     -0.10187
   14.50     24.69506     24.59266     -0.10240
   14.75     24.66501     24.56316     -0.10185
   15.00     24.63496     24.53367     -0.10129
   15.25     24.60491     24.50417     -0.10074
   15.50     24.57491     24.47521     -0.09970
   15.75     24.54495     24.44682     -0.09813
   16.00     24.51499     24.41843     -0.09657
   16.25     24.48503     24.39004     -0.09500
   16.50     24.45645     24.36595     -0.09050
   16.75     24.42808     24.34254     -0.08554
   17.00     24.39971     24.31913     -0.08058
   17.25     24.37205     24.29625     -0.07579
   17.50     24.34670     24.27515     -0.07155
   17.75     24.32135     24.25404     -0.06731
   18.00     24.29600     24.23293     -0.06307
   18.25     24.26905     24.21011     -0.05895
   18.50     24.24112     24.18624     -0.05489
   18.75     24.21319     24.16236     -0.05083
   19.00     24.18525     24.13847     -0.04678
   19.25     24.15077     24.10685     -0.04392
   19.50     24.11630     24.07523     -0.04107
   19.75     24.08183     24.04362     -0.03821
   20.00     24.04603     24.00933     -0.03670
   20.25     24.00815     23.97080     -0.03735
   20.50     23.97026     23.93227     -0.03799
   20.75     23.93238     23.89374     -0.03864
   21.00     23.89913     23.85681     -0.04232
   21.25     23.86727     23.82036     -0.04691
   21.50     23.83541     23.78391     -0.05150
   21.75     23.80457     23.74852     -0.05605
   22.00     23.77995     23.71967     -0.06029
   22.25     23.75534     23.69082     -0.06453
   22.50     23.73073     23.66196     -0.06877
   22.75     23.70462     23.63331     -0.07132
   23.00     23.67716     23.60482     -0.07233
   23.25     23.64969     23.57634     -0.07335
   23.50     23.62222     23.54786     -0.07436
   23.75     23.59375     23.51628     -0.07746
   24.00     23.56517     23.48439     -0.08078
   24.25     23.53660     23.45249     -0.08410
   24.50     23.50928     23.42210     -0.08718
   24.75     23.48504     23.39537     -0.08967
   25.00     23.46080     23.36864     -0.09216
   25.25     23.43655     23.34191     -0.09464
   25.50     23.41306     23.31940     -0.09366
   25.75     23.38992     23.29892     -0.09100
   26.00     23.36678     23.27845     -0.08833
   26.25     23.34370     23.25797     -0.08573
   26.50     23.32176     23.23741     -0.08434
   26.75     23.29982     23.21686     -0.08296
   27.00     23.27788     23.19630     -0.08158
   27.25     23.25709     23.17669     -0.08039
   27.50     23.23782     23.15835     -0.07947
   27.75     23.21856     23.14001     -0.07855
   28.00     23.19929     23.12166     -0.07763
   28.25     23.18347     23.10893     -0.07454
   28.50     23.16844     23.09750     -0.07094
   28.75     23.15342     23.08607     -0.06735
   29.00     23.13937     23.07564     -0.06373
   29.25     23.12932     23.06927     -0.06005
   29.50     23.11927     23.06291     -0.05636
   29.75     23.10923     23.05655     -0.05267
   30.00     23.09910     23.04856     -0.05054
   30.25     23.08890     23.03938     -0.04953
   30.50     23.07871     23.03020     -0.04852
   30.75     23.06852     23.02101     -0.04751
   31.00     23.06030     23.01040     -0.04990
   31.25     23.05219     22.99971     -0.05248
   31.50     23.04408     22.98901     -0.05507
   31.75     23.03821     22.97866     -0.05955
   32.00     23.03682     22.96898     -0.06784
   32.25     23.03544     22.95930     -0.07614
   32.50     23.03406     22.94962     -0.08444
   32.75     23.03228     22.94397     -0.08831
   33.00     23.03034     22.93992     -0.09043
   33.25     23.02841     22.93586     -0.09255
   33.50     23.02630     22.93207     -0.09422
   33.75     23.02261     22.93069     -0.09192
   34.00     23.01892     22.92931     -0.08961
   34.25     23.01524     22.92793     -0.08731
   34.50     23.01164     22.92548     -0.08617
   34.75     23.00816     22.92190     -0.08626
   35.00     23.00467     22.91832     -0.08635
   35.25     23.00118     22.91474     -0.08644
   35.50     22.99728     22.91028     -0.08701
   35.75     22.99332     22.90567     -0.08765
   36.00     22.98936     22.90106     -0.08830
   36.25     22.98557     22.89711     -0.08846
   36.50     22.98234     22.89526     -0.08708
   36.75     22.97912     22.89342     -0.08569
   37.00     22.97589     22.89158     -0.08431
   37.25     22.97484     22.89036     -0.08447
   37.50     22.97511     22.88953     -0.08558
   37.75     22.97539     22.88870     -0.08669
   38.00     22.97567     22.88788     -0.08779
   38.25     22.97567     22.88825     -0.08742
   38.50     22.97567     22.88862     -0.08705
   38.75     22.97567     22.88899     -0.08668
   39.00     22.97552     22.88939     -0.08613
   39.25     22.97516     22.88985     -0.08531
   39.50     22.97479     22.89031     -0.08448
   39.75     22.97442     22.89077     -0.08365
   40.00     22.97643     22.89249     -0.08394
   40.25     22.97920     22.89461     -0.08459
   40.50     22.98196     22.89673     -0.08523
   40.75     22.98471     22.89875     -0.08596
   41.00     22.98739     22.90023     -0.08716
   41.25     22.99006     22.90170     -0.08835
   41.50     22.99273     22.90318     -0.08955
   41.75     22.99453     22.90524     -0.08930
   42.00     22.99555     22.90782     -0.08773
   42.25     22.99656     22.91040     -0.08616
   42.50     22.99757     22.91298     -0.08460
   42.75     22.99742     22.91682     -0.08060
   43.00     22.99714     22.92078     -0.07636
   43.25     22.99686     22.92474     -0.07212
   43.50     22.99605     22.92765     -0.06839
   43.75     22.99394     22.92802     -0.06592
   44.00     22.99182     22.92839     -0.06344
   44.25     22.98971     22.92875     -0.06096
   44.50     22.98491     22.92570     -0.05920
   44.75     22.97873     22.92091     -0.05782
   45.00     22.97255     22.91612     -0.05644
   45.25     22.96655     22.91117     -0.05538
   45.50     22.96406     22.90306     -0.06101
   45.75     22.96157     22.89494     -0.06663
   46.00     22.95908     22.88683     -0.07225
   46.25     22.95735     22.88047     -0.07688
   46.50     22.95661     22.87641     -0.08020
   46.75     22.95587     22.87235     -0.08352
   47.00     22.95514     22.86830     -0.08684
   47.25     22.95342     22.86860     -0.08483
   47.50     22.95149     22.86989     -0.08160
   47.75     22.94955     22.87118     -0.07838
   48.00     22.94809     22.87254     -0.07555
   48.25     22.94855     22.87420     -0.07435
   48.50     22.94901     22.87586     -0.07315
   48.75     22.94947     22.87752     -0.07196
   49.00     22.95009     22.87725     -0.07284
   49.25     22.95083     22.87560     -0.07523
   49.50     22.95156     22.87395     -0.07762
   49.75     22.95230     22.87229     -0.08000
   50.00     22.95154     22.87125     -0.08030
   50.25     22.95071     22.87023     -0.08048
   50.50     22.94988     22.86922     -0.08067
   50.75     22.94865     22.86926     -0.07940
   51.00     22.94663     22.87138     -0.07525
   51.25     22.94460     22.87350     -0.07110
   51.50     22.94257     22.87562     -0.06695
   51.75     22.94021     22.87694     -0.06327
   52.00     22.93772     22.87795     -0.05977
   52.25     22.93523     22.87897     -0.05626
   52.50     22.93256     22.87961     -0.05294
   52.75     22.92822     22.87703     -0.05119
   53.00     22.92389     22.87445     -0.04944
   53.25     22.91956     22.87187     -0.04769
   53.50     22.91599     22.86929     -0.04670
   53.75     22.91324     22.86672     -0.04651
