~Version Information
VERS. 2.0:
WRAP. NO:

~Well Information
STRT.FT -71.25:
STOP.FT 665.00:
STEP.FT 0.25:
NULL. -999.25:

~Curve Information
DEPT.FT     : Depth below casing
PRETEMP.C   : Pre-pump Temperature
POSTTEMP.C  : Post-pump Temperature (aligned)
DIFFTEMP.C  : Post minus Pre Temperature

~A  DEPT  PRETEMP  POSTTEMP  DIFFTEMP
# ...
  513.25     22.95939     22.97007      0.01068
  513.50     22.96280     22.97127      0.00847
  513.75     22.96621     22.97247      0.00625
  514.00     22.96962     22.97349      0.00387
  514.25     22.97303     22.97423      0.00119
  514.50     22.97645     22.97497     -0.00148
  514.75     22.97986     22.97570     -0.00415
  515.00     22.98256     22.97707     -0.00549
  515.25     22.98505     22.97864     -0.00641
  515.50     22.98754     22.98021     -0.00733
  515.75     22.98969     22.98130     -0.00839
  516.00     22.98988     22.97965     -0.01023
  516.25     22.99006     22.97800     -0.01206
  516.50     22.99024     22.97635     -0.01390
  516.75     22.99171     22.97555     -0.01617
  517.00     22.99438     22.97555     -0.01884
  517.25     22.99706     22.97555     -0.02151
  517.50     22.99973     22.97555     -0.02419
  517.75     23.00174     22.97836     -0.02338
  518.00     23.00368     22.98150     -0.02218
  518.25     23.00561     22.98463     -0.02098
  518.50     23.00682     22.98821     -0.01861
  518.75     23.00617     22.99291     -0.01326
  519.00     23.00553     22.99761     -0.00791
  519.25     23.00488     23.00231     -0.00257
  519.50     23.00411     23.00437      0.00026
  519.75     23.00328     23.00511      0.00182
  520.00     23.00245     23.00585      0.00339
  520.25     23.00182     23.00648      0.00466
  520.50     23.00495     23.00519      0.00025
  520.75     23.00807     23.00391     -0.00416
  521.00     23.01119     23.00262     -0.00857
  521.25     23.01432     23.00316     -0.01116
  521.50     23.01745     23.00620     -0.01125
  521.75     23.02059     23.00924     -0.01134
  522.00     23.02372     23.01228     -0.01144
  522.25     23.02589     23.01725     -0.00864
  522.50     23.02783     23.02269     -0.00514
  522.75     23.02976     23.02813     -0.00163
  523.00     23.03163     23.03225      0.00062
  523.25     23.03319     23.03068     -0.00251
  523.50     23.03476     23.02912     -0.00564
  523.75     23.03633     23.02755     -0.00878
  524.00     23.03700     23.02546     -0.01154
  524.25     23.03700     23.02297     -0.01403
  524.50     23.03700     23.02048     -0.01652
  524.75     23.03700     23.01799     -0.01901
  525.00     23.03823     23.01946     -0.01877
  525.25     23.03951     23.02111     -0.01840
  525.50     23.04080     23.02276     -0.01804
  525.75     23.04212     23.02559     -0.01653
  526.00     23.04350     23.03084     -0.01266
  526.25     23.04488     23.03609     -0.00879
  526.50     23.04626     23.04135     -0.00492
  526.75     23.04641     23.04464     -0.00176
  527.00     23.04604     23.04713      0.00109
  527.25     23.04567     23.04962      0.00395
  527.50     23.04472     23.05164      0.00692
  527.75     23.03808     23.04906      0.01098
  528.00     23.03145     23.04648      0.01503
  528.25     23.02481     23.04390      0.01909
  528.50     23.01975     23.04259      0.02284
  528.75     23.01643     23.04268      0.02625
  529.00     23.01312     23.04277      0.02966
  529.25     23.00980     23.04287      0.03307
  529.50     23.01407     23.04446      0.03039
  529.75     23.01958     23.04629      0.02671
  530.00     23.02509     23.04813      0.02304
  530.25     23.03126     23.05018      0.01892
  530.50     23.03965     23.05295      0.01330
  530.75     23.04804     23.05571      0.00768
  531.00     23.05642     23.05848      0.00205
  531.25     23.06193     23.05904     -0.00289
  531.50     23.06562     23.05821     -0.00741
  531.75     23.06930     23.05738     -0.01192
  532.00     23.07299     23.05655     -0.01644
  532.25     23.07098     23.05489     -0.01609
  532.50     23.06895     23.05323     -0.01572
  532.75     23.06692     23.05157     -0.01535
  533.00     23.06500     23.05086     -0.01414
  533.25     23.06325     23.05169     -0.01156
  533.50     23.06150     23.05252     -0.00898
  533.75     23.05975     23.05335     -0.00640
  534.00     23.05961     23.05656     -0.00305
  534.25     23.05998     23.06051      0.00053
  534.50     23.06035     23.06446      0.00411
  534.75     23.06054     23.06847      0.00793
  535.00     23.05962     23.07290      0.01328
  535.25     23.05870     23.07732      0.01862
  535.50     23.05778     23.08175      0.02397
  535.75     23.05767     23.08522      0.02755
  536.00     23.05831     23.08780      0.02948
  536.25     23.05896     23.09038      0.03142
  536.50     23.05960     23.09296      0.03336
  536.75     23.06283     23.09213      0.02931
  537.00     23.06633     23.09093      0.02460
  537.25     23.06983     23.08973      0.01990
  537.50     23.07318     23.08856      0.01539
  537.75     23.07613     23.08746      0.01133
  538.00     23.07908     23.08635      0.00728
  538.25     23.08202     23.08524      0.00322
  538.50     23.08398     23.08488      0.00090
  538.75     23.08545     23.08488     -0.00057
  539.00     23.08692     23.08488     -0.00204
  539.25     23.08838     23.08500     -0.00339
  539.50     23.08967     23.08804     -0.00164
  539.75     23.09096     23.09108      0.00012
  540.00     23.09226     23.09412      0.00187
  540.25     23.09316     23.09783      0.00467
  540.50     23.09352     23.10244      0.00891
  540.75     23.09389     23.10704      0.01315
  541.00     23.09426     23.11165      0.01739
  541.25     23.09560     23.11284      0.01725
  541.50     23.09716     23.11321      0.01605
  541.75     23.09873     23.11358      0.01485
  542.00     23.09995     23.11405      0.01411
  542.25     23.09967     23.11498      0.01531
  542.50     23.09939     23.11590      0.01650
  542.75     23.09912     23.11682      0.01770
  543.00     23.09990     23.11879      0.01890
  543.25     23.10146     23.12155      0.02009
  543.50     23.10302     23.12430      0.02128
  543.75     23.10458     23.12706      0.02248
  544.00     23.10745     23.12747      0.02002
  544.25     23.11040     23.12775      0.01735
  544.50     23.11335     23.12803      0.01468
  544.75     23.11576     23.12800      0.01225
  545.00     23.11705     23.12736      0.01031
  545.25     23.11834     23.12671      0.00837
  545.50     23.11963     23.12607      0.00644
  545.75     23.12013     23.12680      0.00667
  546.00     23.12032     23.12809      0.00777
  546.25     23.12050     23.12938      0.00888
  546.50     23.12079     23.13076      0.00997
  546.75     23.12208     23.13297      0.01089
  547.00     23.12337     23.13518      0.01181
  547.25     23.12466     23.13739      0.01273
  547.50     23.12736     23.13930      0.01193
  547.75     23.13160     23.14086      0.00926
  548.00     23.13584     23.14243      0.00659
  548.25     23.14008     23.14400      0.00391
  548.50     23.14518     23.14675      0.00157
  548.75     23.15041     23.14968     -0.00073
  549.00     23.15565     23.15262     -0.00303
  549.25     23.16033     23.15537     -0.00496
  549.50     23.16319     23.15749     -0.00570
  549.75     23.16604     23.15961     -0.00643
  550.00     23.16890     23.16173     -0.00717
  550.25     23.17142     23.16289     -0.00853
  550.50     23.17372     23.16344     -0.01028
  550.75     23.17603     23.16399     -0.01204
  551.00     23.17833     23.16455     -0.01379
  551.25     23.17972     23.16547     -0.01425
  551.50     23.18110     23.16639     -0.01471
  551.75     23.18248     23.16731     -0.01517
  552.00     23.18241     23.16816     -0.01425
  552.25     23.18002     23.16890     -0.01112
  552.50     23.17762     23.16964     -0.00798
  552.75     23.17522     23.17037     -0.00485
  553.00     23.17269     23.17076     -0.00194
  553.25     23.17012     23.17103      0.00091
  553.50     23.16755     23.17131      0.00375
  553.75     23.16614     23.17225      0.00611
  554.00     23.17204     23.17741      0.00537
  554.25     23.17794     23.18257      0.00464
  554.50     23.18384     23.18774      0.00390
  554.75     23.18926     23.19232      0.00307
