~Version Information
VERS. 2.0:
WRAP. NO:

~Well Information
STRT.FT -71.25:
STOP.FT 665.00:
STEP.FT 0.25:
NULL. -999.25:

~Curve Information
DEPT.FT     : Depth below casing
PRETEMP.C   : Pre-pump Temperature
POSTTEMP.C  : Post-pump Temperature (aligned)
DIFFTEMP.C  : Post minus Pre Temperature

~A  DEPT  PRETEMP  POSTTEMP  DIFFTEMP
# ...
  513.25     23.17234     23.17783      0.00549
  513.50     23.17704     23.17719      0.00014
  513.75     23.18174     23.17654     -0.00520
  514.00     23.18491     23.17558     -0.00933
  514.25     23.18556     23.17411     -0.01145
  514.50     23.18620     23.17263     -0.01357
  514.75     23.18685     23.17116     -0.01569
  515.00     23.18651     23.17228     -0.01423
  515.25     23.18586     23.17422     -0.01165
  515.50     23.18522     23.17615     -0.00906
  515.75     23.18483     23.17785     -0.00698
  516.00     23.18593     23.17812     -0.00781
  516.25     23.18703     23.17840     -0.00863
  516.50     23.18813     23.17867     -0.00946
  516.75     23.18852     23.17980     -0.00872
  517.00     23.18825     23.18174     -0.00651
  517.25     23.18797     23.18368     -0.00430
  517.50     23.18769     23.18561     -0.00208
  517.75     23.18642     23.18771      0.00129
  518.00     23.18504     23.18983      0.00479
  518.25     23.18366     23.19195      0.00830
  518.50     23.18342     23.19358      0.01015
  518.75     23.18610     23.19395      0.00785
  519.00     23.18877     23.19431      0.00554
  519.25     23.19144     23.19468      0.00324
  519.50     23.19424     23.19487      0.00063
  519.75     23.19710     23.19496     -0.00214
  520.00     23.19995     23.19505     -0.00490
  520.25     23.20277     23.19518     -0.00759
  520.50     23.20479     23.19601     -0.00878
  520.75     23.20681     23.19683     -0.00998
  521.00     23.20883     23.19766     -0.01117
  521.25     23.21058     23.19764     -0.01295
  521.50     23.21196     23.19644     -0.01553
  521.75     23.21335     23.19524     -0.01811
  522.00     23.21473     23.19404     -0.02069
  522.25     23.21463     23.19521     -0.01942
  522.50     23.21417     23.19697     -0.01720
  522.75     23.21371     23.19872     -0.01499
  523.00     23.21316     23.20092     -0.01224
  523.25     23.21224     23.20507     -0.00717
  523.50     23.21132     23.20921     -0.00210
  523.75     23.21039     23.21336      0.00297
  524.00     23.21095     23.21725      0.00630
  524.25     23.21261     23.22093      0.00833
  524.50     23.21427     23.22462      0.01035
  524.75     23.21593     23.22831      0.01238
  525.00     23.21495     23.22795      0.01300
  525.25     23.21385     23.22740      0.01355
  525.50     23.21274     23.22684      0.01410
  525.75     23.21185     23.22593      0.01408
  526.00     23.21139     23.22427      0.01289
  526.25     23.21093     23.22262      0.01169
  526.50     23.21047     23.22096      0.01049
  526.75     23.21295     23.22028      0.00733
  527.00     23.21663     23.22000      0.00337
  527.25     23.22032     23.21972     -0.00060
  527.50     23.22397     23.21968     -0.00430
  527.75     23.22729     23.22189     -0.00540
  528.00     23.23061     23.22410     -0.00651
  528.25     23.23393     23.22631     -0.00761
  528.50     23.23659     23.22914     -0.00745
  528.75     23.23852     23.23264     -0.00588
  529.00     23.24046     23.23615     -0.00431
  529.25     23.24240     23.23965     -0.00275
  529.50     23.24504     23.24124     -0.00379
  529.75     23.24779     23.24253     -0.00526
  530.00     23.25054     23.24382     -0.00673
  530.25     23.25362     23.24476     -0.00886
  530.50     23.25777     23.24458     -0.01319
  530.75     23.26191     23.24440     -0.01752
  531.00     23.26606     23.24421     -0.02185
  531.25     23.26812     23.24719     -0.02093
  531.50     23.26886     23.25217     -0.01669
  531.75     23.26959     23.25715     -0.01245
  532.00     23.27033     23.26213     -0.00821
  532.25     23.26868     23.26526     -0.00341
  532.50     23.26702     23.26840      0.00138
  532.75     23.26536     23.27153      0.00617
  533.00     23.26381     23.27203      0.00823
  533.25     23.26242     23.26825      0.00583
  533.50     23.26104     23.26447      0.00343
  533.75     23.25966     23.26070      0.00104
  534.00     23.25828     23.25700     -0.00128
  534.25     23.25690     23.25332     -0.00358
  534.50     23.25553     23.24965     -0.00587
  534.75     23.25447     23.24698     -0.00749
  535.00     23.25548     23.25076     -0.00472
  535.25     23.25650     23.25454     -0.00196
  535.50     23.25751     23.25832      0.00081
  535.75     23.25981     23.26172      0.00190
  536.00     23.26332     23.26476      0.00144
  536.25     23.26682     23.26780      0.00098
  536.50     23.27032     23.27084      0.00052
  536.75     23.27316     23.26931     -0.00385
  537.00     23.27593     23.26728     -0.00864
  537.25     23.27869     23.26525     -0.01344
  537.50     23.28098     23.26389     -0.01710
  537.75     23.28209     23.26416     -0.01793
  538.00     23.28319     23.26444     -0.01876
  538.25     23.28430     23.26471     -0.01959
  538.50     23.28393     23.26868     -0.01525
  538.75     23.28283     23.27446     -0.00836
  539.00     23.28173     23.28025     -0.00148
  539.25     23.28061     23.28605      0.00545
  539.50     23.27904     23.29241      0.01338
  539.75     23.27747     23.29877      0.02130
  540.00     23.27590     23.30513      0.02923
  540.25     23.27597     23.30951      0.03353
  540.50     23.27828     23.31117      0.03289
  540.75     23.28058     23.31283      0.03224
  541.00     23.28289     23.31448      0.03160
  541.25     23.28854     23.31310      0.02456
  541.50     23.29499     23.31098      0.01599
  541.75     23.30144     23.30886      0.00741
  542.00     23.30728     23.30709     -0.00019
  542.25     23.31051     23.30681     -0.00370
  542.50     23.31373     23.30653     -0.00720
  542.75     23.31696     23.30626     -0.01070
  543.00     23.31754     23.30667     -0.01088
  543.25     23.31617     23.30758     -0.00858
  543.50     23.31479     23.30850     -0.00629
  543.75     23.31341     23.30942     -0.00399
  544.00     23.31577     23.30982     -0.00595
  544.25     23.31835     23.31019     -0.00816
  544.50     23.32093     23.31056     -0.01037
  544.75     23.32396     23.31029     -0.01367
  545.00     23.32793     23.30873     -0.01920
  545.25     23.33189     23.30716     -0.02473
  545.50     23.33586     23.30559     -0.03026
  545.75     23.33648     23.30357     -0.03291
  546.00     23.33574     23.30135     -0.03438
  546.25     23.33500     23.29914     -0.03586
  546.50     23.33439     23.29750     -0.03690
  546.75     23.33504     23.30128     -0.03376
  547.00     23.33569     23.30506     -0.03063
  547.25     23.33633     23.30884     -0.02749
  547.50     23.33790     23.31416     -0.02374
  547.75     23.34048     23.32117     -0.01932
  548.00     23.34306     23.32817     -0.01489
  548.25     23.34565     23.33518     -0.01047
  548.50     23.34822     23.33939     -0.00883
  548.75     23.35079     23.34315     -0.00764
  549.00     23.35336     23.34692     -0.00644
  549.25     23.35553     23.34953     -0.00600
  549.50     23.35636     23.34833     -0.00803
  549.75     23.35719     23.34713     -0.01005
  550.00     23.35801     23.34593     -0.01208
  550.25     23.35867     23.34383     -0.01485
  550.50     23.35923     23.34115     -0.01807
  550.75     23.35978     23.33848     -0.02130
  551.00     23.36033     23.33581     -0.02453
  551.25     23.36466     23.33968     -0.02499
  551.50     23.36900     23.34355     -0.02545
  551.75     23.37333     23.34742     -0.02591
  552.00     23.37646     23.35285     -0.02361
  552.25     23.37766     23.36077     -0.01689
  552.50     23.37886     23.36870     -0.01016
  552.75     23.38005     23.37663     -0.00343
  553.00     23.37949     23.38044      0.00096
  553.25     23.37839     23.38302      0.00463
  553.50     23.37728     23.38559      0.00830
  553.75     23.37646     23.38765      0.01120
  554.00     23.37738     23.38655      0.00917
  554.25     23.37830     23.38544      0.00714
  554.50     23.37922     23.38434      0.00511
  554.75     23.38149     23.38347      0.00198
