~Version Information
VERS. 2.0:
WRAP. NO:

~Well Information
STRT.FT -71.25:
STOP.FT 665.00:
STEP.FT 0.25:
NULL. -999.25:

~Curve Information
DEPT.FT     : Depth below casing
PRETEMP.C   : Pre-pump Temperature
POSTTEMP.C  : Post-pump Temperature (aligned)
DIFFTEMP.C  : Post minus Pre Temperature

~A  DEPT  PRETEMP  POSTTEMP  DIFFTEMP
# ...
  596.75     23.68853     23.68161     -0.00692
  597.00     23.68586     23.68641      0.00055
  597.25     23.68481     23.68954      0.00473
  597.50     23.68592     23.69046      0.00454
  597.75     23.68702     23.69138      0.00436
  598.00     23.68813     23.69230      0.00417
  598.25     23.69035     23.69569      0.00533
  598.50     23.69283     23.69963      0.00680
  598.75     23.69531     23.70358      0.00827
  599.00     23.69820     23.70760      0.00941
  599.25     23.70290     23.71193      0.00904
  599.50     23.70760     23.71627      0.00867
  599.75     23.71230     23.72060      0.00830
  600.00     23.71757     23.72362      0.00605
  600.25     23.72329     23.72565      0.00236
  600.50     23.72900     23.72768     -0.00133
  600.75     23.73472     23.72971     -0.00501
  601.00     23.73675     23.73138     -0.00537
  601.25     23.73860     23.73304     -0.00555
  601.50     23.74044     23.73470     -0.00574
  601.75     23.74176     23.73630     -0.00546
  602.00     23.74204     23.73777     -0.00426
  602.25     23.74231     23.73925     -0.00306
  602.50     23.74259     23.74072     -0.00186
  602.75     23.74425     23.74239     -0.00186
  603.00     23.74645     23.74414     -0.00232
  603.25     23.74866     23.74588     -0.00278
  603.50     23.75074     23.74766     -0.00308
  603.75     23.75157     23.74978     -0.00179
  604.00     23.75240     23.75190     -0.00050
  604.25     23.75323     23.75402      0.00079
  604.50     23.75380     23.75570      0.00191
  604.75     23.75407     23.75690      0.00283
  605.00     23.75435     23.75810      0.00375
  605.25     23.75463     23.75930      0.00467
  605.50     23.75774     23.76042      0.00268
  605.75     23.76134     23.76153      0.00019
  606.00     23.76493     23.76263     -0.00230
  606.25     23.76778     23.76407     -0.00371
  606.50     23.76824     23.76656     -0.00168
  606.75     23.76870     23.76905      0.00035
  607.00     23.76916     23.77153      0.00238
  607.25     23.76979     23.77476      0.00497
  607.50     23.77053     23.77843      0.00791
  607.75     23.77126     23.78211      0.01085
  608.00     23.77199     23.78578      0.01378
  608.25     23.77758     23.78764      0.01005
  608.50     23.78320     23.78948      0.00628
  608.75     23.78883     23.79132      0.00250
  609.00     23.79372     23.79279     -0.00094
  609.25     23.79741     23.79361     -0.00379
  609.50     23.80110     23.79444     -0.00665
  609.75     23.80478     23.79527     -0.00951
  610.00     23.80609     23.79624     -0.00984
  610.25     23.80664     23.79726     -0.00938
  610.50     23.80719     23.79827     -0.00892
  610.75     23.80773     23.79963     -0.00810
  611.00     23.80819     23.80304     -0.00515
  611.25     23.80865     23.80645     -0.00220
  611.50     23.80912     23.80986      0.00075
  611.75     23.80962     23.81288      0.00325
  612.00     23.81017     23.81554      0.00537
  612.25     23.81073     23.81820      0.00748
  612.50     23.81128     23.82087      0.00959
  612.75     23.81224     23.82089      0.00865
  613.00     23.81326     23.82061      0.00736
  613.25     23.81427     23.82034      0.00607
  613.50     23.81549     23.82045      0.00496
  613.75     23.81724     23.82156      0.00431
  614.00     23.81900     23.82266      0.00367
  614.25     23.82075     23.82377      0.00302
  614.50     23.82366     23.82733      0.00366
  614.75     23.82717     23.83212      0.00495
  615.00     23.83067     23.83691      0.00625
  615.25     23.83418     23.84160      0.00742
  615.50     23.83787     23.84418      0.00631
  615.75     23.84155     23.84676      0.00521
  616.00     23.84524     23.84934      0.00410
  616.25     23.84928     23.85001      0.00073
  616.50     23.85378     23.84818     -0.00560
  616.75     23.85828     23.84634     -0.01194
  617.00     23.86278     23.84450     -0.01827
  617.25     23.86396     23.84503     -0.01894
  617.50     23.86433     23.84613     -0.01820
  617.75     23.86470     23.84724     -0.01746
  618.00     23.86500     23.84891     -0.01609
  618.25     23.86500     23.85306     -0.01194
  618.50     23.86500     23.85721     -0.00779
  618.75     23.86500     23.86135     -0.00365
  619.00     23.86726     23.86513     -0.00212
  619.25     23.87122     23.86864     -0.00258
  619.50     23.87518     23.87214     -0.00304
  619.75     23.87915     23.87564     -0.00351
  620.00     23.88417     23.88011     -0.00405
  620.25     23.88924     23.88463     -0.00461
  620.50     23.89431     23.88915     -0.00516
  620.75     23.89952     23.89328     -0.00624
  621.00     23.90503     23.89668     -0.00835
  621.25     23.91054     23.90008     -0.01046
  621.50     23.91605     23.90348     -0.01257
  621.75     23.91858     23.90376     -0.01482
  622.00     23.91987     23.90274     -0.01713
  622.25     23.92116     23.90173     -0.01943
  622.50     23.92215     23.90109     -0.02106
  622.75     23.92012     23.90422     -0.01590
  623.00     23.91809     23.90736     -0.01074
  623.25     23.91607     23.91049     -0.00557
  623.50     23.91421     23.91603      0.00182
  623.75     23.91255     23.92423      0.01168
  624.00     23.91089     23.93244      0.02154
  624.25     23.90924     23.94064      0.03141
  624.50     23.91169     23.94505      0.03336
  624.75     23.91482     23.94883      0.03400
  625.00     23.91796     23.95261      0.03465
  625.25     23.92178     23.95576      0.03398
  625.50     23.92774     23.95695      0.02921
  625.75     23.93371     23.95815      0.02444
  626.00     23.93968     23.95934      0.01966
  626.25     23.94572     23.96009      0.01437
  626.50     23.95180     23.96055      0.00875
  626.75     23.95789     23.96101      0.00312
  627.00     23.96397     23.96147     -0.00250
  627.25     23.96886     23.96367     -0.00519
  627.50     23.97375     23.96589     -0.00786
  627.75     23.97863     23.96810     -0.01053
  628.00     23.98247     23.96944     -0.01303
  628.25     23.98459     23.96935     -0.01524
  628.50     23.98671     23.96925     -0.01746
  628.75     23.98883     23.96916     -0.01967
  629.00     23.99095     23.96907     -0.02188
  629.25     23.99307     23.96898     -0.02409
  629.50     23.99519     23.96888     -0.02631
  629.75     23.99700     23.96965     -0.02735
  630.00     23.99700     23.97544     -0.02156
  630.25     23.99700     23.98122     -0.01578
  630.50     23.99700     23.98701     -0.00999
  630.75     23.99681     23.99347     -0.00334
  631.00     23.99644     24.00057      0.00413
  631.25     23.99607     24.00766      0.01159
  631.50     23.99570     24.01476      0.01906
  631.75     23.99733     24.01854      0.02122
  632.00     23.99917     24.02195      0.02278
  632.25     24.00101     24.02536      0.02435
  632.50     24.00340     24.02791      0.02451
  632.75     24.00718     24.02828      0.02110
  633.00     24.01096     24.02865      0.01768
  633.25     24.01474     24.02902      0.01427
  633.50     24.01705     24.02932      0.01228
  633.75     24.01861     24.02960      0.01099
  634.00     24.02018     24.02988      0.00970
  634.25     24.02176     24.03023      0.00847
  634.50     24.02360     24.03197      0.00838
  634.75     24.02543     24.03372      0.00828
  635.00     24.02727     24.03546      0.00819
  635.25     24.03047     24.03748      0.00701
  635.50     24.03554     24.03988      0.00434
  635.75     24.04061     24.04227      0.00167
  636.00     24.04568     24.04467     -0.00100
  636.25     24.04993     24.04410     -0.00583
  636.50     24.05399     24.04281     -0.01117
  636.75     24.05804     24.04152     -0.01652
  637.00     24.06185     24.04065     -0.02121
  637.25     24.06462     24.04157     -0.02305
  637.50     24.06738     24.04249     -0.02489
  637.75     24.07015     24.04341     -0.02674
  638.00     24.07118     24.04702     -0.02415
  638.25     24.07090     24.05265     -0.01825
