~Version Information
VERS. 2.0:
WRAP. NO:

~Well Information
STRT.FT -71.25:
STOP.FT 665.00:
STEP.FT 0.25:
NULL. -999.25:

~Curve Information
DEPT.FT     : Depth below casing
PRETEMP.C   : Pre-pump Temperature
POSTTEMP.C  : Post-pump Temperature (aligned)
DIFFTEMP.C  : Post minus Pre Temperature

~A  DEPT  PRETEMP  POSTTEMP  DIFFTEMP
# ...
  221.00     21.52436     21.51663     -0.00773
  221.25     21.52160     21.51645     -0.00516
  221.50     21.51885     21.51626     -0.00259
  221.75     21.51642     21.51541     -0.00101
  222.00     21.51467     21.51320     -0.00147
  222.25     21.51292     21.51099     -0.00193
  222.50     21.51117     21.50878     -0.00239
  222.75     21.51119     21.50624     -0.00496
  223.00     21.51193     21.50356     -0.00837
  223.25     21.51267     21.50089     -0.01178
  223.50     21.51361     21.49823     -0.01537
  223.75     21.51647     21.49574     -0.02072
  224.00     21.51932     21.49326     -0.02607
  224.25     21.52218     21.49077     -0.03141
  224.50     21.52265     21.48961     -0.03304
  224.75     21.52053     21.48988     -0.03065
  225.00     21.51841     21.49016     -0.02825
  225.25     21.51629     21.49044     -0.02585
  225.50     21.51433     21.49206     -0.02228
  225.75     21.51241     21.49390     -0.01851
  226.00     21.51048     21.49573     -0.01475
  226.25     21.50915     21.49755     -0.01160
  226.50     21.50980     21.49930     -0.01050
  226.75     21.51044     21.50105     -0.00939
  227.00     21.51109     21.50280     -0.00828
  227.25     21.51293     21.50410     -0.00883
  227.50     21.51551     21.50511     -0.01039
  227.75     21.51809     21.50613     -0.01196
  228.00     21.52067     21.50714     -0.01353
  228.25     21.52011     21.50557     -0.01454
  228.50     21.51956     21.50400     -0.01556
  228.75     21.51901     21.50244     -0.01657
  229.00     21.51810     21.50208     -0.01602
  229.25     21.51662     21.50364     -0.01298
  229.50     21.51515     21.50521     -0.00994
  229.75     21.51367     21.50678     -0.00690
  230.00     21.51354     21.50933     -0.00422
  230.25     21.51382     21.51217     -0.00165
  230.50     21.51410     21.51502      0.00092
  230.75     21.51468     21.51779      0.00311
  231.00     21.51717     21.52009      0.00293
  231.25     21.51965     21.52240      0.00275
  231.50     21.52214     21.52470      0.00256
  231.75     21.52468     21.52672      0.00204
  232.00     21.52726     21.52847      0.00121
  232.25     21.52984     21.53022      0.00038
  232.50     21.53242     21.53197     -0.00045
  232.75     21.53409     21.53072     -0.00337
  233.00     21.53565     21.52915     -0.00650
  233.25     21.53722     21.52759     -0.00963
  233.50     21.53801     21.52650     -0.01151
  233.75     21.53691     21.52659     -0.01032
  234.00     21.53580     21.52668     -0.00912
  234.25     21.53469     21.52678     -0.00792
  234.50     21.53217     21.52903     -0.00314
  234.75     21.52896     21.53234      0.00338
  235.00     21.52574     21.53564      0.00990
  235.25     21.52263     21.53895      0.01632
  235.50     21.52171     21.54227      0.02056
  235.75     21.52078     21.54558      0.02480
  236.00     21.51986     21.54890      0.02904
  236.25     21.52169     21.55096      0.02927
  236.50     21.52722     21.55133      0.02411
  236.75     21.53275     21.55170      0.01895
  237.00     21.53828     21.55207      0.01379
  237.25     21.54366     21.55132      0.00765
  237.50     21.54901     21.55030      0.00129
  237.75     21.55436     21.54929     -0.00507
  238.00     21.55872     21.54887     -0.00985
  238.25     21.55900     21.55089     -0.00810
  238.50     21.55927     21.55292     -0.00635
  238.75     21.55955     21.55495     -0.00460
  239.00     21.55983     21.55867     -0.00116
  239.25     21.56010     21.56363      0.00353
  239.50     21.56038     21.56859      0.00821
  239.75     21.56065     21.57354      0.01289
  240.00     21.56259     21.57547      0.01288
  240.25     21.56462     21.57722      0.01260
  240.50     21.56664     21.57897      0.01232
  240.75     21.56876     21.58011      0.01135
  241.00     21.57107     21.58002      0.00895
  241.25     21.57337     21.57992      0.00655
  241.50     21.57568     21.57983      0.00416
  241.75     21.57732     21.58165      0.00433
  242.00     21.57870     21.58423      0.00553
  242.25     21.58009     21.58681      0.00673
  242.50     21.58099     21.58921      0.00822
  242.75     21.57749     21.58995      0.01246
  243.00     21.57398     21.59069      0.01670
  243.25     21.57048     21.59142      0.02094
  243.50     21.56867     21.59176      0.02310
  243.75     21.56867     21.59167      0.02300
  244.00     21.56867     21.59158      0.02291
  244.25     21.56867     21.59149      0.02282
  244.50     21.57118     21.59092      0.01974
  244.75     21.57413     21.59028      0.01615
  245.00     21.57708     21.58963      0.01255
  245.25     21.57942     21.58933      0.00991
  245.50     21.57979     21.59016      0.01038
  245.75     21.58016     21.59099      0.01084
  246.00     21.58053     21.59182      0.01130
  246.25     21.58147     21.59157      0.01010
  246.50     21.58276     21.59065      0.00789
  246.75     21.58405     21.58972      0.00568
  247.00     21.58534     21.58881      0.00347
  247.25     21.58681     21.58918      0.00236
  247.50     21.58829     21.58954      0.00126
  247.75     21.58976     21.58991      0.00015
  248.00     21.59060     21.59113      0.00054
  248.25     21.59041     21.59371      0.00329
  248.50     21.59023     21.59628      0.00605
  248.75     21.59004     21.59885      0.00880
  249.00     21.59007     21.59822      0.00815
  249.25     21.59016     21.59656      0.00640
  249.50     21.59025     21.59490      0.00464
  249.75     21.59037     21.59308      0.00271
  250.00     21.59065     21.59032     -0.00033
  250.25     21.59093     21.58755     -0.00337
  250.50     21.59120     21.58479     -0.00641
  250.75     21.59177     21.58458     -0.00718
  251.00     21.59260     21.58670     -0.00589
  251.25     21.59343     21.58882     -0.00460
  251.50     21.59426     21.59094     -0.00331
  251.75     21.59601     21.59340     -0.00261
  252.00     21.59785     21.59589     -0.00196
  252.25     21.59969     21.59838     -0.00132
  252.50     21.60097     21.60084     -0.00014
  252.75     21.60088     21.60322      0.00234
  253.00     21.60079     21.60561      0.00482
  253.25     21.60070     21.60800      0.00730
  253.50     21.60042     21.60838      0.00796
  253.75     21.60005     21.60773      0.00768
  254.00     21.59969     21.60709      0.00740
  254.25     21.59932     21.60638      0.00706
  254.50     21.59895     21.60426      0.00531
  254.75     21.59858     21.60214      0.00356
  255.00     21.59821     21.60002      0.00181
  255.25     21.59717     21.59873      0.00156
  255.50     21.59523     21.59854      0.00331
  255.75     21.59330     21.59836      0.00506
  256.00     21.59136     21.59817      0.00681
  256.25     21.59212     21.59844      0.00632
  256.50     21.59351     21.59881      0.00530
  256.75     21.59489     21.59918      0.00429
  257.00     21.59656     21.59985      0.00329
  257.25     21.59941     21.60178      0.00237
  257.50     21.60225     21.60371      0.00146
  257.75     21.60510     21.60564      0.00054
  258.00     21.60732     21.60720     -0.00012
  258.25     21.60908     21.60849     -0.00058
  258.50     21.61083     21.60978     -0.00104
  258.75     21.61258     21.61107     -0.00150
  259.00     21.61197     21.61079     -0.00118
  259.25     21.61123     21.61042     -0.00081
  259.50     21.61049     21.61005     -0.00044
  259.75     21.61006     21.60956     -0.00050
  260.00     21.61025     21.60882     -0.00142
  260.25     21.61043     21.60809     -0.00234
  260.50     21.61061     21.60735     -0.00327
  260.75     21.61344     21.60813     -0.00531
  261.00     21.61731     21.60951     -0.00780
  261.25     21.62119     21.61090     -0.01029
  261.50     21.62479     21.61210     -0.01268
  261.75     21.62598     21.61174     -0.01425
  262.00     21.62717     21.61137     -0.01581
  262.25     21.62837     21.61100     -0.01737
  262.50     21.62770     21.61020     -0.01750
