~Version Information
VERS. 2.0:
WRAP. NO:

~Well Information
STRT.FT -71.25:
STOP.FT 665.00:
STEP.FT 0.25:
NULL. -999.25:

~Curve Information
DEPT.FT     : Depth below casing
PRETEMP.C   : Pre-pump Temperature
POSTTEMP.C  : Post-pump Temperature (aligned)
DIFFTEMP.C  : Post minus Pre Temperature

~A  DEPT  PRETEMP  POSTTEMP  DIFFTEMP
# ...
  262.75     21.44011     21.43103     -0.00909
  263.00     21.44472     21.43158     -0.01314
  263.25     21.44933     21.43213     -0.01720
  263.50     21.45386     21.43410     -0.01976
  263.75     21.45838     21.43631     -0.02206
  264.00     21.46289     21.43853     -0.02437
  264.25     21.46695     21.44098     -0.02597
  264.50     21.46953     21.44421     -0.02532
  264.75     21.47211     21.44743     -0.02468
  265.00     21.47469     21.45066     -0.02403
  265.25     21.47607     21.45469     -0.02138
  265.50     21.47671     21.45920     -0.01751
  265.75     21.47736     21.46372     -0.01364
  266.00     21.47800     21.46821     -0.00979
  266.25     21.47772     21.46812     -0.00960
  266.50     21.47745     21.46803     -0.00942
  266.75     21.47717     21.46794     -0.00924
  267.00     21.47572     21.46746     -0.00826
  267.25     21.47231     21.46636     -0.00595
  267.50     21.46890     21.46525     -0.00365
  267.75     21.46549     21.46415     -0.00134
  268.00     21.46446     21.46409     -0.00037
  268.25     21.46418     21.46437      0.00018
  268.50     21.46390     21.46464      0.00074
  268.75     21.46438     21.46513      0.00075
  269.00     21.46936     21.46688     -0.00247
  269.25     21.47433     21.46863     -0.00570
  269.50     21.47931     21.47038     -0.00893
  269.75     21.48351     21.47189     -0.01162
  270.00     21.48701     21.47318     -0.01383
  270.25     21.49052     21.47447     -0.01604
  270.50     21.49402     21.47576     -0.01826
  270.75     21.49375     21.47780     -0.01595
  271.00     21.49311     21.47991     -0.01319
  271.25     21.49246     21.48202     -0.01044
  271.50     21.49182     21.48404     -0.00778
  271.75     21.49117     21.48579     -0.00539
  272.00     21.49053     21.48754     -0.00299
  272.25     21.48988     21.48929     -0.00059
  272.50     21.48899     21.49165      0.00266
  272.75     21.48798     21.49433      0.00635
  273.00     21.48697     21.49700      0.01003
  273.25     21.48606     21.49959      0.01353
  273.50     21.48735     21.50051      0.01316
  273.75     21.48864     21.50143      0.01279
  274.00     21.48993     21.50235      0.01242
  274.25     21.49250     21.50304      0.01054
  274.50     21.49674     21.50341      0.00667
  274.75     21.50098     21.50378      0.00280
  275.00     21.50522     21.50414     -0.00107
  275.25     21.50780     21.50728     -0.00052
  275.50     21.51000     21.51104      0.00105
  275.75     21.51220     21.51481      0.00261
  276.00     21.51380     21.51813      0.00434
  276.25     21.51269     21.51952      0.00683
  276.50     21.51158     21.52090      0.00932
  276.75     21.51048     21.52228      0.01180
  277.00     21.51037     21.52246      0.01209
  277.25     21.51101     21.52172      0.01071
  277.50     21.51166     21.52098      0.00933
  277.75     21.51230     21.52025      0.00794
  278.00     21.51707     21.51995      0.00288
  278.25     21.52205     21.51967     -0.00238
  278.50     21.52703     21.51940     -0.00763
  278.75     21.53064     21.51906     -0.01159
  279.00     21.53156     21.51860     -0.01297
  279.25     21.53249     21.51814     -0.01435
  279.50     21.53341     21.51767     -0.01573
  279.75     21.53373     21.51761     -0.01612
  280.00     21.53382     21.51770     -0.01612
  280.25     21.53392     21.51780     -0.01612
  280.50     21.53416     21.51832     -0.01583
  280.75     21.53591     21.52330     -0.01261
  281.00     21.53766     21.52828     -0.00938
  281.25     21.53941     21.53326     -0.00615
  281.50     21.54051     21.53828     -0.00223
  281.75     21.54088     21.54335      0.00247
  282.00     21.54125     21.54842      0.00717
  282.25     21.54161     21.55349      0.01187
  282.50     21.54317     21.55366      0.01049
  282.75     21.54492     21.55301      0.00810
  283.00     21.54667     21.55237      0.00570
  283.25     21.54835     21.55181      0.00346
  283.50     21.54983     21.55154      0.00171
  283.75     21.55130     21.55126     -0.00005
  284.00     21.55278     21.55098     -0.00180
  284.25     21.55442     21.55243     -0.00200
  284.50     21.55617     21.55491     -0.00126
  284.75     21.55791     21.55738     -0.00053
  285.00     21.55966     21.55986      0.00021
  285.25     21.56003     21.56281      0.00278
  285.50     21.56040     21.56576      0.00536
  285.75     21.56077     21.56871      0.00794
  286.00     21.56156     21.57169      0.01014
  286.25     21.56303     21.57474      0.01170
  286.50     21.56451     21.57778      0.01327
  286.75     21.56598     21.58082      0.01484
  287.00     21.56816     21.58239      0.01423
  287.25     21.57055     21.58349      0.01294
  287.50     21.57295     21.58460      0.01165
  287.75     21.57489     21.58563      0.01073
  288.00     21.57416     21.58618      0.01202
  288.25     21.57342     21.58673      0.01331
  288.50     21.57268     21.58728      0.01460
  288.75     21.57224     21.58691      0.01468
  289.00     21.57205     21.58572      0.01367
  289.25     21.57187     21.58453      0.01266
  289.50     21.57169     21.58333      0.01165
  289.75     21.57349     21.58570      0.01221
  290.00     21.57552     21.58846      0.01295
  290.25     21.57754     21.59123      0.01368
  290.50     21.57999     21.59485      0.01486
  290.75     21.58349     21.60066      0.01717
  291.00     21.58699     21.60647      0.01947
  291.25     21.59050     21.61227      0.02178
  291.50     21.59363     21.61317      0.01954
  291.75     21.59658     21.61160      0.01502
  292.00     21.59953     21.61003      0.01050
  292.25     21.60258     21.60847      0.00589
  292.50     21.60756     21.60690     -0.00066
  292.75     21.61254     21.60533     -0.00720
  293.00     21.61751     21.60377     -0.01375
  293.25     21.62224     21.60451     -0.01773
  293.50     21.62665     21.60828     -0.01838
  293.75     21.63106     21.61204     -0.01902
  294.00     21.63547     21.61580     -0.01966
  294.25     21.63596     21.61751     -0.01846
  294.50     21.63550     21.61871     -0.01680
  294.75     21.63504     21.61990     -0.01514
  295.00     21.63398     21.62086     -0.01312
  295.25     21.63029     21.62077     -0.00952
  295.50     21.62660     21.62068     -0.00593
  295.75     21.62292     21.62059     -0.00233
  296.00     21.62196     21.62244      0.00047
  296.25     21.62307     21.62576      0.00269
  296.50     21.62418     21.62908      0.00490
  296.75     21.62528     21.63239      0.00711
  297.00     21.63167     21.63712      0.00545
  297.25     21.63831     21.64191      0.00361
  297.50     21.64494     21.64671      0.00177
  297.75     21.65130     21.65047     -0.00083
  298.00     21.65711     21.65222     -0.00488
  298.25     21.66291     21.65397     -0.00894
  298.50     21.66872     21.65573     -0.01299
  298.75     21.67153     21.65489     -0.01664
  299.00     21.67318     21.65305     -0.02013
  299.25     21.67483     21.65121     -0.02362
  299.50     21.67629     21.64951     -0.02678
  299.75     21.67583     21.64914     -0.02669
  300.00     21.67537     21.64877     -0.02660
  300.25     21.67491     21.64841     -0.02650
  300.50     21.67449     21.64935     -0.02514
  300.75     21.67412     21.65175     -0.02237
  301.00     21.67375     21.65414     -0.01961
  301.25     21.67339     21.65654     -0.01684
  301.50     21.67428     21.66076     -0.01352
  301.75     21.67539     21.66528     -0.01011
  302.00     21.67650     21.66979     -0.00670
  302.25     21.67697     21.67433     -0.00264
  302.50     21.67550     21.67894      0.00344
  302.75     21.67403     21.68355      0.00952
  303.00     21.67255     21.68816      0.01561
  303.25     21.67235     21.68907      0.01673
  303.50     21.67290     21.68779      0.01489
  303.75     21.67345     21.68650      0.01306
  304.00     21.67400     21.68522      0.01122
  304.25     21.67896     21.68393      0.00497
