~Version Information
VERS. 2.0:
WRAP. NO:

~Well Information
STRT.FT -71.25:
STOP.FT 665.00:
STEP.FT 0.25:
NULL. -999.25:

~Curve Information
DEPT.FT     : Depth below casing
PRETEMP.C   : Pre-pump Temperature
POSTTEMP.C  : Post-pump Temperature (aligned)
DIFFTEMP.C  : Post minus Pre Temperature

~A  DEPT  PRETEMP  POSTTEMP  DIFFTEMP
# ...
  262.75     21.62493     21.60891     -0.01603
  263.00     21.62217     21.60762     -0.01455
  263.25     21.61940     21.60633     -0.01308
  263.50     21.61932     21.60937     -0.00995
  263.75     21.61968     21.61315     -0.00654
  264.00     21.62005     21.61693     -0.00313
  264.25     21.62119     21.62108     -0.00011
  264.50     21.62478     21.62643      0.00164
  264.75     21.62838     21.63177      0.00339
  265.00     21.63197     21.63712      0.00514
  265.25     21.63459     21.64074      0.00615
  265.50     21.63662     21.64333      0.00670
  265.75     21.63865     21.64591      0.00726
  266.00     21.64068     21.64849      0.00781
  266.25     21.64251     21.65078      0.00827
  266.50     21.64435     21.65308      0.00873
  266.75     21.64619     21.65537      0.00919
  267.00     21.64768     21.65798      0.01030
  267.25     21.64860     21.66112      0.01252
  267.50     21.64952     21.66425      0.01473
  267.75     21.65044     21.66738      0.01694
  268.00     21.65221     21.66807      0.01586
  268.25     21.65423     21.66798      0.01374
  268.50     21.65626     21.66789      0.01162
  268.75     21.65826     21.66777      0.00950
  269.00     21.66011     21.66749      0.00738
  269.25     21.66195     21.66721      0.00526
  269.50     21.66379     21.66694      0.00314
  269.75     21.66539     21.66729      0.00190
  270.00     21.66678     21.66821      0.00144
  270.25     21.66816     21.66913      0.00097
  270.50     21.66954     21.67006      0.00051
  270.75     21.67209     21.67181     -0.00028
  271.00     21.67475     21.67365     -0.00111
  271.25     21.67742     21.67548     -0.00193
  271.50     21.67975     21.67686     -0.00289
  271.75     21.68122     21.67704     -0.00418
  272.00     21.68270     21.67723     -0.00547
  272.25     21.68417     21.67741     -0.00676
  272.50     21.68497     21.67778     -0.00719
  272.75     21.68543     21.67824     -0.00719
  273.00     21.68589     21.67870     -0.00719
  273.25     21.68645     21.67930     -0.00715
  273.50     21.68884     21.68262     -0.00623
  273.75     21.69124     21.68593     -0.00531
  274.00     21.69364     21.68925     -0.00438
  274.25     21.69568     21.69138     -0.00430
  274.50     21.69724     21.69193     -0.00531
  274.75     21.69881     21.69248     -0.00633
  275.00     21.70038     21.69304     -0.00734
  275.25     21.70246     21.69329     -0.00917
  275.50     21.70467     21.69347     -0.01119
  275.75     21.70687     21.69366     -0.01321
  276.00     21.70930     21.69433     -0.01496
  276.25     21.71271     21.69719     -0.01552
  276.50     21.71612     21.70005     -0.01607
  276.75     21.71953     21.70291     -0.01662
  277.00     21.72147     21.70634     -0.01513
  277.25     21.72230     21.71021     -0.01209
  277.50     21.72313     21.71408     -0.00905
  277.75     21.72396     21.71795     -0.00601
  278.00     21.72163     21.71981     -0.00182
  278.25     21.71914     21.72156      0.00242
  278.50     21.71665     21.72331      0.00666
  278.75     21.71438     21.72382      0.00944
  279.00     21.71254     21.72189      0.00935
  279.25     21.71069     21.71995      0.00926
  279.50     21.70885     21.71802      0.00917
  279.75     21.71098     21.71774      0.00676
  280.00     21.71465     21.71810      0.00346
  280.25     21.71832     21.71847      0.00015
  280.50     21.72203     21.71893     -0.00310
  280.75     21.72608     21.72031     -0.00577
  281.00     21.73014     21.72169     -0.00845
  281.25     21.73420     21.72308     -0.01112
  281.50     21.73690     21.72359     -0.01331
  281.75     21.73810     21.72313     -0.01497
  282.00     21.73930     21.72267     -0.01663
  282.25     21.74050     21.72221     -0.01829
  282.50     21.74146     21.72380     -0.01766
  282.75     21.74238     21.72573     -0.01664
  283.00     21.74330     21.72767     -0.01563
  283.25     21.74411     21.73012     -0.01400
  283.50     21.74457     21.73417     -0.01040
  283.75     21.74503     21.73823     -0.00681
  284.00     21.74549     21.74228     -0.00321
  284.25     21.74521     21.74381     -0.00140
  284.50     21.74447     21.74381     -0.00067
  284.75     21.74374     21.74381      0.00007
  285.00     21.74300     21.74381      0.00080
  285.25     21.74135     21.74344      0.00209
  285.50     21.73969     21.74307      0.00338
  285.75     21.73803     21.74270      0.00467
  286.00     21.73717     21.74369      0.00652
  286.25     21.73763     21.74692      0.00928
  286.50     21.73810     21.75014      0.01205
  286.75     21.73856     21.75337      0.01481
  287.00     21.74119     21.75744      0.01624
  287.25     21.74451     21.76177      0.01726
  287.50     21.74783     21.76610      0.01827
  287.75     21.75119     21.77038      0.01919
  288.00     21.75478     21.77435      0.01956
  288.25     21.75838     21.77831      0.01993
  288.50     21.76197     21.78227      0.02030
  288.75     21.76425     21.78453      0.02028
  289.00     21.76535     21.78526      0.01991
  289.25     21.76645     21.78600      0.01954
  289.50     21.76755     21.78673      0.01918
  289.75     21.76965     21.78763      0.01798
  290.00     21.77187     21.78856      0.01669
  290.25     21.77408     21.78948      0.01540
  290.50     21.77653     21.79063      0.01411
  290.75     21.77957     21.79239      0.01282
  291.00     21.78261     21.79414      0.01153
  291.25     21.78565     21.79589      0.01024
  291.50     21.78593     21.79641      0.01048
  291.75     21.78482     21.79632      0.01150
  292.00     21.78372     21.79623      0.01251
  292.25     21.78277     21.79614      0.01337
  292.50     21.78489     21.79614      0.01125
  292.75     21.78701     21.79614      0.00913
  293.00     21.78913     21.79614      0.00701
  293.25     21.79193     21.79729      0.00537
  293.50     21.79560     21.79996      0.00436
  293.75     21.79927     21.80262      0.00335
  294.00     21.80294     21.80528      0.00234
  294.25     21.80589     21.80884      0.00295
  294.50     21.80865     21.81262      0.00397
  294.75     21.81142     21.81640      0.00498
  295.00     21.81403     21.82021      0.00619
  295.25     21.81596     21.82418      0.00821
  295.50     21.81790     21.82814      0.01024
  295.75     21.81984     21.83210      0.01227
  296.00     21.82167     21.83402      0.01235
  296.25     21.82342     21.83439      0.01097
  296.50     21.82517     21.83475      0.00958
  296.75     21.82692     21.83512      0.00820
  297.00     21.82841     21.83444      0.00603
  297.25     21.82988     21.83370      0.00382
  297.50     21.83136     21.83296      0.00160
  297.75     21.83289     21.83238     -0.00052
  298.00     21.83455     21.83210     -0.00245
  298.25     21.83621     21.83183     -0.00439
  298.50     21.83787     21.83155     -0.00632
  298.75     21.83953     21.83101     -0.00852
  299.00     21.84118     21.83037     -0.01081
  299.25     21.84283     21.82972     -0.01311
  299.50     21.84465     21.82955     -0.01510
  299.75     21.84806     21.83397     -0.01409
  300.00     21.85147     21.83839     -0.01307
  300.25     21.85488     21.84282     -0.01206
  300.50     21.85838     21.84737     -0.01100
  300.75     21.86197     21.85208     -0.00990
  301.00     21.86557     21.85678     -0.00879
  301.25     21.86916     21.86148     -0.00768
  301.50     21.87062     21.86182     -0.00879
  301.75     21.87172     21.86145     -0.01027
  302.00     21.87283     21.86109     -0.01174
  302.25     21.87400     21.86155     -0.01246
  302.50     21.87539     21.86459     -0.01080
  302.75     21.87677     21.86763     -0.00914
  303.00     21.87815     21.87067     -0.00748
  303.25     21.87918     21.87371     -0.00548
  303.50     21.88001     21.87674     -0.00328
  303.75     21.88084     21.87977     -0.00107
  304.00     21.88166     21.88279      0.00113
  304.25     21.88066     21.88124      0.00059
