~Version Information
VERS. 2.0:
WRAP. NO:

~Well Information
STRT.FT -71.25:
STOP.FT 665.00:
STEP.FT 0.25:
NULL. -999.25:

~Curve Information
DEPT.FT     : Depth below casing
PRETEMP.C   : Pre-pump Temperature
POSTTEMP.C  : Post-pump Temperature (aligned)
DIFFTEMP.C  : Post minus Pre Temperature

~A  DEPT  PRETEMP  POSTTEMP  DIFFTEMP
# ...
  304.50     21.68394     21.68264     -0.00130
  304.75     21.68891     21.68135     -0.00757
  305.00     21.69400     21.68107     -0.01293
  305.25     21.69925     21.68245     -0.01680
  305.50     21.70451     21.68384     -0.02067
  305.75     21.70976     21.68522     -0.02454
  306.00     21.71241     21.68738     -0.02503
  306.25     21.71425     21.68977     -0.02448
  306.50     21.71610     21.69217     -0.02393
  306.75     21.71765     21.69478     -0.02287
  307.00     21.71756     21.69866     -0.01891
  307.25     21.71747     21.70253     -0.01494
  307.50     21.71738     21.70640     -0.01098
  307.75     21.71694     21.70982     -0.00712
  308.00     21.71621     21.71285     -0.00336
  308.25     21.71547     21.71588      0.00041
  308.50     21.71474     21.71891      0.00417
  308.75     21.71375     21.71938      0.00563
  309.00     21.71274     21.71956      0.00682
  309.25     21.71173     21.71975      0.00802
  309.50     21.71055     21.71996      0.00940
  309.75     21.70899     21.72023      0.01125
  310.00     21.70742     21.72051      0.01309
  310.25     21.70585     21.72079      0.01493
  310.50     21.70761     21.72230      0.01468
  310.75     21.71102     21.72442      0.01339
  311.00     21.71443     21.72654      0.01210
  311.25     21.71792     21.72849      0.01057
  311.50     21.72271     21.72738      0.00467
  311.75     21.72750     21.72628     -0.00123
  312.00     21.73230     21.72517     -0.00713
  312.25     21.73620     21.72415     -0.01206
  312.50     21.73896     21.72323     -0.01573
  312.75     21.74171     21.72231     -0.01940
  313.00     21.74446     21.72139     -0.02307
  313.25     21.74567     21.72173     -0.02394
  313.50     21.74650     21.72238     -0.02412
  313.75     21.74733     21.72302     -0.02431
  314.00     21.74741     21.72400     -0.02341
  314.25     21.74427     21.72640     -0.01788
  314.50     21.74114     21.72879     -0.01235
  314.75     21.73800     21.73119     -0.00681
  315.00     21.73714     21.73274     -0.00440
  315.25     21.73797     21.73366     -0.00431
  315.50     21.73880     21.73458     -0.00422
  315.75     21.73963     21.73551     -0.00413
  316.00     21.74240     21.73669     -0.00571
  316.25     21.74526     21.73789     -0.00737
  316.50     21.74812     21.73909     -0.00903
  316.75     21.75044     21.74213     -0.00831
  317.00     21.75172     21.74874     -0.00298
  317.25     21.75301     21.75535      0.00234
  317.50     21.75429     21.76196      0.00767
  317.75     21.75552     21.76735      0.01183
  318.00     21.75672     21.77223      0.01552
  318.25     21.75791     21.77712      0.01921
  318.50     21.75903     21.78116      0.02212
  318.75     21.75940     21.77701      0.01760
  319.00     21.75977     21.77286      0.01309
  319.25     21.76014     21.76871      0.00857
  319.50     21.76218     21.76602      0.00383
  319.75     21.76605     21.76491     -0.00114
  320.00     21.76993     21.76380     -0.00612
  320.25     21.77380     21.76270     -0.01110
  320.50     21.77997     21.76779     -0.01219
  320.75     21.78652     21.77387     -0.01265
  321.00     21.79306     21.77996     -0.01311
  321.25     21.79827     21.78538     -0.01289
  321.50     21.79937     21.78878     -0.01060
  321.75     21.80047     21.79217     -0.00830
  322.00     21.80158     21.79557     -0.00600
  322.25     21.80092     21.79767     -0.00325
  322.50     21.79917     21.79896     -0.00021
  322.75     21.79742     21.80025      0.00283
  323.00     21.79567     21.80154      0.00588
  323.25     21.79613     21.80256      0.00643
  323.50     21.79659     21.80357      0.00698
  323.75     21.79705     21.80459      0.00754
  324.00     21.79793     21.80549      0.00756
  324.25     21.79950     21.80623      0.00673
  324.50     21.80107     21.80697      0.00590
  324.75     21.80263     21.80771      0.00507
  325.00     21.80568     21.80880      0.00311
  325.25     21.80919     21.81000      0.00081
  325.50     21.81269     21.81119     -0.00150
  325.75     21.81596     21.81239     -0.00356
  326.00     21.81788     21.81358     -0.00430
  326.25     21.81981     21.81478     -0.00503
  326.50     21.82174     21.81597     -0.00577
  326.75     21.82367     21.81798     -0.00569
  327.00     21.82561     21.82075     -0.00486
  327.25     21.82754     21.82351     -0.00403
  327.50     21.82948     21.82628     -0.00320
  327.75     21.83258     21.82688     -0.00570
  328.00     21.83581     21.82725     -0.00856
  328.25     21.83903     21.82762     -0.01142
  328.50     21.84147     21.82730     -0.01417
  328.75     21.84193     21.82527     -0.01666
  329.00     21.84239     21.82324     -0.01915
  329.25     21.84285     21.82121     -0.02164
  329.50     21.84244     21.82104     -0.02140
  329.75     21.84161     21.82178     -0.01984
  330.00     21.84078     21.82252     -0.01827
  330.25     21.84012     21.82330     -0.01682
  330.50     21.84223     21.82486     -0.01737
  330.75     21.84434     21.82642     -0.01792
  331.00     21.84645     21.82798     -0.01847
  331.25     21.84790     21.83162     -0.01628
  331.50     21.84845     21.83807     -0.01039
  331.75     21.84901     21.84452     -0.00449
  332.00     21.84956     21.85097      0.00141
  332.25     21.85019     21.85698      0.00679
  332.50     21.85083     21.86288      0.01205
  332.75     21.85148     21.86878      0.01730
  333.00     21.85278     21.87372      0.02094
  333.25     21.85683     21.87464      0.01781
  333.50     21.86089     21.87557      0.01468
  333.75     21.86495     21.87649      0.01154
  334.00     21.86932     21.87598      0.00666
  334.25     21.87393     21.87441      0.00048
  334.50     21.87854     21.87284     -0.00569
  334.75     21.88315     21.87128     -0.01187
  335.00     21.88201     21.86892     -0.01309
  335.25     21.88063     21.86653     -0.01410
  335.50     21.87926     21.86415     -0.01511
  335.75     21.87712     21.86239     -0.01473
  336.00     21.87343     21.86193     -0.01150
  336.25     21.86975     21.86147     -0.00827
  336.50     21.86606     21.86101     -0.00505
  336.75     21.86645     21.86226     -0.00419
  337.00     21.86847     21.86419     -0.00428
  337.25     21.87050     21.86613     -0.00437
  337.50     21.87283     21.86816     -0.00467
  337.75     21.87799     21.87111     -0.00688
  338.00     21.88316     21.87406     -0.00909
  338.25     21.88832     21.87701     -0.01130
  338.50     21.89153     21.87952     -0.01201
  338.75     21.89264     21.88155     -0.01109
  339.00     21.89374     21.88358     -0.01017
  339.25     21.89485     21.88560     -0.00925
  339.50     21.89365     21.88731     -0.00634
  339.75     21.89209     21.88896     -0.00313
  340.00     21.89053     21.89061      0.00008
  340.25     21.88987     21.89302      0.00315
  340.50     21.89218     21.89791      0.00573
  340.75     21.89448     21.90279      0.00831
  341.00     21.89679     21.90768      0.01089
  341.25     21.90034     21.91137      0.01103
  341.50     21.90467     21.91432      0.00964
  341.75     21.90901     21.91727      0.00826
  342.00     21.91334     21.92021      0.00687
  342.25     21.91629     21.91938      0.00309
  342.50     21.91924     21.91855     -0.00068
  342.75     21.92219     21.91772     -0.00446
  343.00     21.92450     21.91789     -0.00661
  343.25     21.92579     21.91964     -0.00615
  343.50     21.92708     21.92139     -0.00569
  343.75     21.92837     21.92314     -0.00523
  344.00     21.92662     21.92602     -0.00060
  344.25     21.92396     21.92923      0.00527
  344.50     21.92129     21.93244      0.01115
  344.75     21.91894     21.93533      0.01639
  345.00     21.91848     21.93616      0.01768
  345.25     21.91801     21.93699      0.01897
  345.50     21.91755     21.93782      0.02026
  345.75     21.92046     21.93869      0.01823
  346.00     21.92645     21.93962      0.01316
