~Version Information
VERS. 2.0:
WRAP. NO:

~Well Information
STRT.FT -71.25:
STOP.FT 665.00:
STEP.FT 0.25:
NULL. -999.25:

~Curve Information
DEPT.FT     : Depth below casing
PRETEMP.C   : Pre-pump Temperature
POSTTEMP.C  : Post-pump Temperature (aligned)
DIFFTEMP.C  : Post minus Pre Temperature

~A  DEPT  PRETEMP  POSTTEMP  DIFFTEMP
# ...
  638.50     24.07062     24.05827     -0.01235
  638.75     24.07035     24.06389     -0.00645
  639.00     24.07147     24.06747     -0.00400
  639.25     24.07267     24.07096     -0.00170
  639.50     24.07386     24.07445      0.00059
  639.75     24.07545     24.07672      0.00127
  640.00     24.07784     24.07644     -0.00140
  640.25     24.08024     24.07616     -0.00408
  640.50     24.08264     24.07589     -0.00675
  640.75     24.08621     24.07633     -0.00988
  641.00     24.09027     24.07707     -0.01320
  641.25     24.09432     24.07780     -0.01652
  641.50     24.09818     24.07899     -0.01919
  641.75     24.10012     24.08452     -0.01560
  642.00     24.10205     24.09005     -0.01200
  642.25     24.10399     24.09558     -0.00841
  642.50     24.10504     24.10159     -0.00345
  642.75     24.10514     24.10814      0.00300
  643.00     24.10523     24.11468      0.00945
  643.25     24.10532     24.12123      0.01591
  643.50     24.10620     24.12364      0.01744
  643.75     24.10721     24.12538      0.01817
  644.00     24.10822     24.12713      0.01891
  644.25     24.10919     24.12822      0.01903
  644.50     24.11002     24.12711      0.01709
  644.75     24.11085     24.12601      0.01516
  645.00     24.11168     24.12490      0.01322
  645.25     24.11364     24.12577      0.01213
  645.50     24.11631     24.12789      0.01158
  645.75     24.11899     24.13001      0.01103
  646.00     24.12166     24.13213      0.01047
  646.25     24.12672     24.13738      0.01066
  646.50     24.13179     24.14263      0.01084
  646.75     24.13686     24.14789      0.01103
  647.00     24.14190     24.15184      0.00994
  647.25     24.14688     24.15369      0.00681
  647.50     24.15185     24.15553      0.00368
  647.75     24.15683     24.15737      0.00054
  648.00     24.16018     24.15928     -0.00090
  648.25     24.16302     24.16121     -0.00181
  648.50     24.16587     24.16314     -0.00273
  648.75     24.16851     24.16510     -0.00340
  649.00     24.16980     24.16732     -0.00248
  649.25     24.17109     24.16953     -0.00156
  649.50     24.17238     24.17174     -0.00064
  649.75     24.17419     24.17238     -0.00182
  650.00     24.17650     24.17155     -0.00495
  650.25     24.17880     24.17072     -0.00809
  650.50     24.18111     24.16989     -0.01122
  650.75     24.18316     24.16989     -0.01327
  651.00     24.18519     24.16998     -0.01521
  651.25     24.18722     24.17007     -0.01715
  651.50     24.19009     24.17082     -0.01927
  651.75     24.19507     24.17322     -0.02185
  652.00     24.20005     24.17562     -0.02443
  652.25     24.20502     24.17801     -0.02701
  652.50     24.20876     24.18139     -0.02737
  652.75     24.21188     24.18525     -0.02663
  653.00     24.21500     24.18910     -0.02590
  653.25     24.21802     24.19309     -0.02493
  653.50     24.21857     24.20028     -0.01830
  653.75     24.21913     24.20747     -0.01166
  654.00     24.21968     24.21466     -0.00502
  654.25     24.22043     24.22068      0.00025
  654.50     24.22144     24.22510      0.00366
  654.75     24.22246     24.22953      0.00707
  655.00     24.22347     24.23395      0.01048
  655.25     24.22612     24.23436      0.00824
  655.50     24.22916     24.23381      0.00464
  655.75     24.23220     24.23325      0.00105
  656.00     24.23505     24.23279     -0.00226
  656.25     24.23708     24.23270     -0.00438
  656.50     24.23911     24.23260     -0.00650
  656.75     24.24114     24.23251     -0.00863
  657.00     24.24448     24.23500     -0.00947
  657.25     24.24879     24.23941     -0.00938
  657.50     24.25311     24.24382     -0.00929
  657.75     24.25742     24.24823     -0.00920
  658.00     24.26019     24.25282     -0.00737
  658.25     24.26286     24.25743     -0.00543
  658.50     24.26554     24.26204     -0.00350
  658.75     24.26739     24.26550     -0.00189
  659.00     24.26758     24.26661     -0.00097
  659.25     24.26776     24.26771     -0.00005
  659.50     24.26795     24.26882      0.00087
  659.75     24.26859     24.27104      0.00245
  660.00     24.26942     24.27371      0.00429
  660.25     24.27025     24.27639      0.00614
  660.50     24.27139     24.27911      0.00773
  660.75     24.27544     24.28234      0.00690
  661.00     24.27950     24.28557      0.00607
  661.25     24.28355     24.28879      0.00524
  661.50     24.28778     24.29236      0.00459
  661.75     24.29219     24.29631      0.00413
  662.00     24.29659     24.30026      0.00367
  662.25     24.30100     24.30421      0.00321
  662.50     24.30229     24.30668      0.00439
  662.75     24.30303     24.30890      0.00587
  663.00     24.30377     24.31111      0.00734
  663.25     24.30412     24.31274      0.00862
  663.50     24.30320     24.31247      0.00927
  663.75     24.30228     24.31219      0.00991
  664.00     24.30135     24.31191      0.01056
  664.25     24.30174     24.31101      0.00927
  664.50     24.30294     24.30972      0.00678
  664.75     24.30414     24.30843      0.00429
  665.00     24.30533     24.30714      0.00181
