~Version Information
VERS. 2.0:
WRAP. NO:

~Well Information
STRT.FT -71.25:
STOP.FT 665.00:
STEP.FT 0.25:
NULL. -999.25:

~Curve Information
DEPT.FT     : Depth below casing
PRETEMP.C   : Pre-pump Temperature
POSTTEMP.C  : Post-pump Temperature (aligned)
DIFFTEMP.C  : Post minus Pre Temperature

~A  DEPT  PRETEMP  POSTTEMP  DIFFTEMP
# ...
  555.00     23.38499     23.38282     -0.00217
  555.25     23.38850     23.38218     -0.00632
  555.50     23.39200     23.38153     -0.01046
  555.75     23.39617     23.38172     -0.01444
  556.00     23.40041     23.38200     -0.01841
  556.25     23.40465     23.38228     -0.02237
  556.50     23.40769     23.38266     -0.02503
  556.75     23.40779     23.38330     -0.02448
  557.00     23.40788     23.38395     -0.02393
  557.25     23.40797     23.38459     -0.02338
  557.50     23.40800     23.38481     -0.02319
  557.75     23.40800     23.38481     -0.02319
  558.00     23.40800     23.38481     -0.02319
  558.25     23.40800     23.38478     -0.02322
  558.50     23.40790     23.38413     -0.02377
  558.75     23.40781     23.38349     -0.02432
  559.00     23.40772     23.38284     -0.02488
  559.25     23.40720     23.38369     -0.02351
  559.50     23.40609     23.38655     -0.01955
  559.75     23.40498     23.38940     -0.01558
  560.00     23.40388     23.39226     -0.01162
  560.25     23.40538     23.39564     -0.00974
  560.50     23.40750     23.39914     -0.00836
  560.75     23.40962     23.40264     -0.00698
  561.00     23.41180     23.40601     -0.00579
  561.25     23.41419     23.40877     -0.00542
  561.50     23.41659     23.41154     -0.00505
  561.75     23.41898     23.41430     -0.00468
  562.00     23.42090     23.41791     -0.00299
  562.25     23.42246     23.42213     -0.00033
  562.50     23.42402     23.42635      0.00233
  562.75     23.42558     23.43058      0.00500
  563.00     23.42915     23.43211      0.00296
  563.25     23.43284     23.43350      0.00065
  563.50     23.43653     23.43488     -0.00165
  563.75     23.44016     23.43581     -0.00435
  564.00     23.44366     23.43581     -0.00785
  564.25     23.44716     23.43581     -0.01135
  564.50     23.45066     23.43581     -0.01486
  564.75     23.45351     23.43673     -0.01678
  565.00     23.45609     23.43802     -0.01807
  565.25     23.45867     23.43931     -0.01936
  565.50     23.46093     23.44052     -0.02041
  565.75     23.46019     23.44098     -0.01921
  566.00     23.45945     23.44144     -0.01801
  566.25     23.45872     23.44190     -0.01682
  566.50     23.45869     23.44320     -0.01549
  566.75     23.45942     23.44540     -0.01402
  567.00     23.46016     23.44761     -0.01255
  567.25     23.46089     23.44981     -0.01108
  567.50     23.46327     23.45398     -0.00929
  567.75     23.46595     23.45850     -0.00745
  568.00     23.46862     23.46302     -0.00561
  568.25     23.47136     23.46714     -0.00422
  568.50     23.47431     23.47000     -0.00431
  568.75     23.47726     23.47286     -0.00440
  569.00     23.48021     23.47572     -0.00449
  569.25     23.48145     23.47738     -0.00407
  569.50     23.48163     23.47830     -0.00333
  569.75     23.48182     23.47922     -0.00260
  570.00     23.48200     23.48015     -0.00186
  570.25     23.48255     23.48310      0.00054
  570.50     23.48311     23.48604      0.00294
  570.75     23.48366     23.48899      0.00533
  571.00     23.48570     23.49151      0.00581
  571.25     23.49011     23.49335      0.00324
  571.50     23.49451     23.49519      0.00067
  571.75     23.49892     23.49702     -0.00190
  572.00     23.50056     23.50012     -0.00044
  572.25     23.50129     23.50362      0.00233
  572.50     23.50203     23.50712      0.00509
  572.75     23.50254     23.51070      0.00817
  573.00     23.50162     23.51476      0.01314
  573.25     23.50069     23.51882      0.01812
  573.50     23.49977     23.52287      0.02310
  573.75     23.50063     23.52471      0.02407
  574.00     23.50312     23.52453      0.02140
  574.25     23.50561     23.52434      0.01873
  574.50     23.50810     23.52416      0.01606
  574.75     23.51009     23.52439      0.01430
  575.00     23.51202     23.52467      0.01264
  575.25     23.51396     23.52494      0.01098
  575.50     23.51667     23.52605      0.00938
  575.75     23.52126     23.52917      0.00791
  576.00     23.52585     23.53229      0.00644
  576.25     23.53044     23.53541      0.00497
  576.50     23.53565     23.53787      0.00222
  576.75     23.54118     23.53999     -0.00119
  577.00     23.54671     23.54211     -0.00460
  577.25     23.55212     23.54418     -0.00794
  577.50     23.55489     23.54520     -0.00969
  577.75     23.55765     23.54621     -0.01144
  578.00     23.56042     23.54723     -0.01319
  578.25     23.56228     23.54848     -0.01380
  578.50     23.56292     23.55004     -0.01288
  578.75     23.56357     23.55161     -0.01196
  579.00     23.56421     23.55318     -0.01103
  579.25     23.56508     23.55467     -0.01041
  579.50     23.56600     23.55614     -0.00986
  579.75     23.56692     23.55762     -0.00931
  580.00     23.56815     23.55947     -0.00868
  580.25     23.57063     23.56287     -0.00776
  580.50     23.57311     23.56626     -0.00685
  580.75     23.57559     23.56966     -0.00593
  581.00     23.57693     23.57104     -0.00589
  581.25     23.57739     23.57085     -0.00654
  581.50     23.57785     23.57067     -0.00718
  581.75     23.57831     23.57048     -0.00783
  582.00     23.57868     23.57004     -0.00865
  582.25     23.57905     23.56957     -0.00948
  582.50     23.57942     23.56911     -0.01031
  582.75     23.58037     23.57006     -0.01031
  583.00     23.58249     23.57384     -0.00865
  583.25     23.58461     23.57762     -0.00699
  583.50     23.58673     23.58140     -0.00533
  583.75     23.58819     23.58571     -0.00248
  584.00     23.58939     23.59022      0.00083
  584.25     23.59059     23.59474      0.00415
  584.50     23.59179     23.59886      0.00707
  584.75     23.59308     23.59941      0.00633
  585.00     23.59437     23.59996      0.00560
  585.25     23.59565     23.60051      0.00486
  585.50     23.59763     23.60111      0.00348
  585.75     23.60040     23.60175      0.00136
  586.00     23.60316     23.60240     -0.00076
  586.25     23.60593     23.60304     -0.00288
  586.50     23.60712     23.60432     -0.00280
  586.75     23.60804     23.60570     -0.00234
  587.00     23.60896     23.60708     -0.00188
  587.25     23.61006     23.60842     -0.00164
  587.50     23.61172     23.60962     -0.00210
  587.75     23.61338     23.61082     -0.00256
  588.00     23.61504     23.61202     -0.00302
  588.25     23.61681     23.61345     -0.00337
  588.50     23.61865     23.61501     -0.00364
  588.75     23.62050     23.61658     -0.00392
  589.00     23.62235     23.61815     -0.00420
  589.25     23.62510     23.62054     -0.00456
  589.50     23.62785     23.62292     -0.00493
  589.75     23.63061     23.62531     -0.00530
  590.00     23.63344     23.62853     -0.00491
  590.25     23.63639     23.63314     -0.00325
  590.50     23.63934     23.63775     -0.00159
  590.75     23.64229     23.64236      0.00007
  591.00     23.64314     23.64543      0.00229
  591.25     23.64332     23.64801      0.00469
  591.50     23.64351     23.65059      0.00708
  591.75     23.64386     23.65290      0.00903
  592.00     23.64525     23.65354      0.00830
  592.25     23.64663     23.65419      0.00756
  592.50     23.64801     23.65483      0.00682
  592.75     23.65026     23.65466      0.00439
  593.00     23.65331     23.65373      0.00043
  593.25     23.65635     23.65281     -0.00354
  593.50     23.65939     23.65189     -0.00750
  593.75     23.66301     23.65256     -0.01045
  594.00     23.66668     23.65338     -0.01329
  594.25     23.67035     23.65421     -0.01614
  594.50     23.67441     23.65511     -0.01930
  594.75     23.67948     23.65622     -0.02326
  595.00     23.68455     23.65733     -0.02723
  595.25     23.68962     23.65843     -0.03119
  595.50     23.69182     23.66119     -0.03063
  595.75     23.69256     23.66478     -0.02778
  596.00     23.69330     23.66838     -0.02492
  596.25     23.69388     23.67203     -0.02185
  596.50     23.69120     23.67682     -0.01438
