~Version Information
VERS. 2.0:
WRAP. NO:

~Well Information
STRT.FT -71.25:
STOP.FT 665.00:
STEP.FT 0.25:
NULL. -999.25:

~Curve Information
DEPT.FT     : Depth below casing
PRETEMP.C   : Pre-pump Temperature
POSTTEMP.C  : Post-pump Temperature (aligned)
DIFFTEMP.C  : Post minus Pre Temperature

~A  DEPT  PRETEMP  POSTTEMP  DIFFTEMP
# ...
  555.00     23.19423     23.19638      0.00214
  555.25     23.19921     23.20043      0.00122
  555.50     23.20419     23.20449      0.00030
  555.75     23.20475     23.20405     -0.00070
  556.00     23.20484     23.20312     -0.00172
  556.25     23.20493     23.20220     -0.00273
  556.50     23.20463     23.20149     -0.00314
  556.75     23.20334     23.20131     -0.00203
  557.00     23.20205     23.20112     -0.00092
  557.25     23.20076     23.20094      0.00018
  557.50     23.20009     23.20088      0.00079
  557.75     23.19972     23.20088      0.00116
  558.00     23.19935     23.20088      0.00153
  558.25     23.19903     23.20093      0.00190
  558.50     23.19986     23.20222      0.00236
  558.75     23.20069     23.20351      0.00282
  559.00     23.20152     23.20480      0.00328
  559.25     23.20388     23.20696      0.00308
  559.50     23.20831     23.21027      0.00197
  559.75     23.21273     23.21359      0.00086
  560.00     23.21715     23.21691     -0.00024
  560.25     23.22091     23.22202      0.00111
  560.50     23.22450     23.22755      0.00305
  560.75     23.22810     23.23308      0.00498
  561.00     23.23157     23.23859      0.00703
  561.25     23.23452     23.24403      0.00951
  561.50     23.23747     23.24947      0.01200
  561.75     23.24042     23.25491      0.01449
  562.00     23.24283     23.25764      0.01480
  562.25     23.24485     23.25837      0.01352
  562.50     23.24687     23.25910      0.01223
  562.75     23.24889     23.25984      0.01095
  563.00     23.24769     23.25840      0.01070
  563.25     23.24631     23.25683      0.01052
  563.50     23.24493     23.25526      0.01034
  563.75     23.24376     23.25446      0.01070
  564.00     23.24302     23.25519      0.01217
  564.25     23.24228     23.25593      0.01365
  564.50     23.24154     23.25667      0.01512
  564.75     23.24232     23.25806      0.01574
  565.00     23.24370     23.25972      0.01602
  565.25     23.24509     23.26138      0.01630
  565.50     23.24683     23.26298      0.01615
  565.75     23.25190     23.26399      0.01209
  566.00     23.25697     23.26501      0.00804
  566.25     23.26204     23.26602      0.00398
  566.50     23.26612     23.26708      0.00095
  566.75     23.26915     23.26818     -0.00098
  567.00     23.27218     23.26928     -0.00291
  567.25     23.27521     23.27038     -0.00483
  567.50     23.27418     23.27313     -0.00104
  567.75     23.27243     23.27617      0.00375
  568.00     23.27067     23.27922      0.00854
  568.25     23.27024     23.28219      0.01195
  568.50     23.27411     23.28496      0.01085
  568.75     23.27798     23.28772      0.00974
  569.00     23.28186     23.29049      0.00863
  569.25     23.28527     23.29422      0.00895
  569.50     23.28840     23.29856      0.01015
  569.75     23.29154     23.30289      0.01135
  570.00     23.29467     23.30722      0.01255
  570.25     23.29531     23.30934      0.01402
  570.50     23.29596     23.31146      0.01550
  570.75     23.29660     23.31358      0.01697
  571.00     23.29799     23.31534      0.01735
  571.25     23.30056     23.31653      0.01597
  571.50     23.30313     23.31773      0.01459
  571.75     23.30570     23.31892      0.01322
  572.00     23.30863     23.31921      0.01058
  572.25     23.31167     23.31921      0.00754
  572.50     23.31471     23.31921      0.00450
  572.75     23.31758     23.31947      0.00189
  573.00     23.31933     23.32131      0.00198
  573.25     23.32108     23.32316      0.00208
  573.50     23.32283     23.32500      0.00217
  573.75     23.32482     23.32790      0.00308
  574.00     23.32704     23.33177      0.00474
  574.25     23.32925     23.33565      0.00640
  574.50     23.33146     23.33952      0.00806
  574.75     23.33376     23.34138      0.00763
  575.00     23.33606     23.34304      0.00698
  575.25     23.33836     23.34470      0.00634
  575.50     23.34072     23.34548      0.00476
  575.75     23.34320     23.34410      0.00090
  576.00     23.34568     23.34272     -0.00295
  576.25     23.34816     23.34135     -0.00681
  576.50     23.34991     23.34161     -0.00830
  576.75     23.35130     23.34271     -0.00858
  577.00     23.35268     23.34382     -0.00886
  577.25     23.35402     23.34507     -0.00895
  577.50     23.35458     23.34950     -0.00508
  577.75     23.35513     23.35392     -0.00121
  578.00     23.35568     23.35835      0.00266
  578.25     23.35687     23.36202      0.00515
  578.50     23.35889     23.36469      0.00580
  578.75     23.36092     23.36737      0.00645
  579.00     23.36295     23.37004      0.00709
  579.25     23.36199     23.37294      0.01095
  579.50     23.36033     23.37589      0.01556
  579.75     23.35867     23.37884      0.02017
  580.00     23.35744     23.38179      0.02434
  580.25     23.35799     23.38472      0.02673
  580.50     23.35854     23.38766      0.02912
  580.75     23.35909     23.39060      0.03151
  581.00     23.36105     23.39412      0.03307
  581.25     23.36409     23.39808      0.03399
  581.50     23.36713     23.40204      0.03491
  581.75     23.37018     23.40601      0.03583
  582.00     23.37261     23.40796      0.03535
  582.25     23.37500     23.40980      0.03480
  582.50     23.37740     23.41165      0.03425
  582.75     23.37903     23.41270      0.03366
  583.00     23.37912     23.41214      0.03302
  583.25     23.37921     23.41159      0.03237
  583.50     23.37931     23.41104      0.03173
  583.75     23.38105     23.41009      0.02904
  584.00     23.38345     23.40898      0.02553
  584.25     23.38584     23.40787      0.02203
  584.50     23.38847     23.40727      0.01881
  584.75     23.39315     23.41122      0.01807
  585.00     23.39783     23.41517      0.01734
  585.25     23.40252     23.41912      0.01660
  585.50     23.40548     23.42216      0.01669
  585.75     23.40649     23.42419      0.01770
  586.00     23.40750     23.42622      0.01872
  586.25     23.40852     23.42825      0.01973
  586.50     23.40827     23.42870      0.02043
  586.75     23.40781     23.42889      0.02107
  587.00     23.40735     23.42907      0.02172
  587.25     23.40790     23.42908      0.02119
  587.50     23.41167     23.42853      0.01685
  587.75     23.41545     23.42797      0.01252
  588.00     23.41923     23.42742      0.00819
  588.25     23.42238     23.42784      0.00546
  588.50     23.42515     23.42886      0.00371
  588.75     23.42791     23.42987      0.00196
  589.00     23.43068     23.43089      0.00021
  589.25     23.43288     23.43355      0.00067
  589.50     23.43508     23.43622      0.00113
  589.75     23.43729     23.43888      0.00159
  590.00     23.44039     23.44110      0.00071
  590.25     23.44500     23.44257     -0.00243
  590.50     23.44961     23.44405     -0.00556
  590.75     23.45422     23.44552     -0.00870
  591.00     23.45869     23.44756     -0.01113
  591.25     23.46311     23.44977     -0.01334
  591.50     23.46754     23.45198     -0.01556
  591.75     23.47132     23.45430     -0.01702
  592.00     23.47123     23.45725     -0.01398
  592.25     23.47114     23.46020     -0.01094
  592.50     23.47104     23.46315     -0.00790
  592.75     23.47115     23.46624     -0.00490
  593.00     23.47142     23.46947     -0.00196
  593.25     23.47170     23.47269      0.00099
  593.50     23.47197     23.47592      0.00394
  593.75     23.47475     23.47913      0.00438
  594.00     23.47778     23.48235      0.00456
  594.25     23.48081     23.48556      0.00475
  594.50     23.48354     23.48847      0.00493
  594.75     23.48548     23.49059      0.00511
  595.00     23.48741     23.49271      0.00530
  595.25     23.48935     23.49483      0.00548
  595.50     23.48982     23.49457      0.00475
  595.75     23.48954     23.49309      0.00355
  596.00     23.48926     23.49162      0.00236
  596.25     23.48901     23.49018      0.00117
  596.50     23.48929     23.48944      0.00015
