~Version Information
VERS. 2.0:
WRAP. NO:

~Well Information
STRT.FT -71.25:
STOP.FT 665.00:
STEP.FT 0.25:
NULL. -999.25:

~Curve Information
DEPT.FT     : Depth below casing
PRETEMP.C   : Pre-pump Temperature
POSTTEMP.C  : Post-pump Temperature (aligned)
DIFFTEMP.C  : Post minus Pre Temperature

~A  DEPT  PRETEMP  POSTTEMP  DIFFTEMP
# ...
  137.50     21.92909     21.89259     -0.03650
  137.75     21.92624     21.89330     -0.03294
  138.00     21.92357     21.89413     -0.02944
  138.25     21.92089     21.89496     -0.02594
  138.50     21.91930     21.89509     -0.02421
  138.75     21.92031     21.89352     -0.02679
  139.00     21.92132     21.89195     -0.02937
  139.25     21.92234     21.89039     -0.03195
  139.50     21.92149     21.88833     -0.03316
  139.75     21.91974     21.88603     -0.03371
  140.00     21.91800     21.88374     -0.03426
  140.25     21.91616     21.88152     -0.03464
  140.50     21.91219     21.88097     -0.03123
  140.75     21.90823     21.88041     -0.02781
  141.00     21.90427     21.87986     -0.02440
  141.25     21.90149     21.87876     -0.02273
  141.50     21.90029     21.87691     -0.02338
  141.75     21.89909     21.87507     -0.02402
  142.00     21.89789     21.87323     -0.02467
  142.25     21.89669     21.86966     -0.02703
  142.50     21.89550     21.86570     -0.02980
  142.75     21.89430     21.86173     -0.03256
  143.00     21.89276     21.85744     -0.03531
  143.25     21.88981     21.85182     -0.03798
  143.50     21.88686     21.84620     -0.04066
  143.75     21.88391     21.84058     -0.04333
  144.00     21.88064     21.83795     -0.04270
  144.25     21.87715     21.83749     -0.03967
  144.50     21.87367     21.83703     -0.03664
  144.75     21.87018     21.83657     -0.03361
  145.00     21.86659     21.83707     -0.02952
  145.25     21.86299     21.83762     -0.02537
  145.50     21.85940     21.83818     -0.02122
  145.75     21.85703     21.83793     -0.01910
  146.00     21.85712     21.83609     -0.02103
  146.25     21.85722     21.83424     -0.02297
  146.50     21.85731     21.83240     -0.02491
  146.75     21.85885     21.82976     -0.02909
  147.00     21.86097     21.82681     -0.03416
  147.25     21.86309     21.82386     -0.03923
  147.50     21.86476     21.82093     -0.04382
  147.75     21.86236     21.81817     -0.04419
  148.00     21.85997     21.81540     -0.04456
  148.25     21.85757     21.81264     -0.04493
  148.50     21.85589     21.81166     -0.04423
  148.75     21.85497     21.81258     -0.04240
  149.00     21.85405     21.81349     -0.04056
  149.25     21.85313     21.81441     -0.03872
  149.50     21.85221     21.81573     -0.03649
  149.75     21.85129     21.81711     -0.03418
  150.00     21.85037     21.81849     -0.03188
  150.25     21.84890     21.81911     -0.02979
  150.50     21.84567     21.81726     -0.02841
  150.75     21.84245     21.81542     -0.02703
  151.00     21.83922     21.81358     -0.02564
  151.25     21.83811     21.81099     -0.02713
  151.50     21.83830     21.80795     -0.03035
  151.75     21.83848     21.80490     -0.03358
  152.00     21.83867     21.80186     -0.03681
  152.25     21.83996     21.79817     -0.04179
  152.50     21.84125     21.79449     -0.04677
  152.75     21.84254     21.79080     -0.05175
  153.00     21.84269     21.78758     -0.05511
  153.25     21.84104     21.78510     -0.05594
  153.50     21.83938     21.78262     -0.05676
  153.75     21.83773     21.78014     -0.05759
  154.00     21.83461     21.77878     -0.05583
  154.25     21.83101     21.77776     -0.05325
  154.50     21.82742     21.77675     -0.05067
  154.75     21.82404     21.77613     -0.04792
  155.00     21.82202     21.77788     -0.04414
  155.25     21.81999     21.77963     -0.04036
  155.50     21.81796     21.78138     -0.03658
  155.75     21.81695     21.78420     -0.03275
  156.00     21.81686     21.78798     -0.02888
  156.25     21.81677     21.79176     -0.02501
  156.50     21.81667     21.79554     -0.02114
  156.75     21.81969     21.79538     -0.02431
  157.00     21.82300     21.79482     -0.02818
  157.25     21.82632     21.79427     -0.03205
  157.50     21.82802     21.79291     -0.03511
  157.75     21.82582     21.78960     -0.03621
  158.00     21.82361     21.78630     -0.03732
  158.25     21.82141     21.78299     -0.03842
  158.50     21.81883     21.78200     -0.03683
  158.75     21.81607     21.78219     -0.03388
  159.00     21.81330     21.78237     -0.03093
  159.25     21.81068     21.78258     -0.02810
  159.50     21.81086     21.78322     -0.02764
  159.75     21.81104     21.78387     -0.02718
  160.00     21.81123     21.78451     -0.02672
  160.25     21.81141     21.78472     -0.02669
  160.50     21.81160     21.78435     -0.02725
  160.75     21.81178     21.78398     -0.02780
  161.00     21.81197     21.78361     -0.02835
  161.25     21.80990     21.78167     -0.02823
  161.50     21.80732     21.77936     -0.02795
  161.75     21.80474     21.77706     -0.02768
  162.00     21.80181     21.77443     -0.02738
  162.25     21.79750     21.77048     -0.02701
  162.50     21.79318     21.76653     -0.02665
  162.75     21.78886     21.76258     -0.02628
  163.00     21.78501     21.76114     -0.02387
  163.25     21.78151     21.76160     -0.01991
  163.50     21.77801     21.76206     -0.01594
  163.75     21.77450     21.76252     -0.01198
  164.00     21.77547     21.76228     -0.01319
  164.25     21.77667     21.76201     -0.01467
  164.50     21.77787     21.76173     -0.01614
  164.75     21.77913     21.76121     -0.01793
  165.00     21.78051     21.76019     -0.02032
  165.25     21.78190     21.75918     -0.02272
  165.50     21.78328     21.75816     -0.02512
  165.75     21.78307     21.75715     -0.02592
  166.00     21.78224     21.75614     -0.02610
  166.25     21.78141     21.75512     -0.02629
  166.50     21.78061     21.75388     -0.02673
  166.75     21.78006     21.75067     -0.02939
  167.00     21.77951     21.74745     -0.03205
  167.25     21.77896     21.74424     -0.03472
  167.50     21.77919     21.74093     -0.03826
  167.75     21.78030     21.73752     -0.04277
  168.00     21.78140     21.73411     -0.04729
  168.25     21.78251     21.73070     -0.05181
  168.50     21.78132     21.72784     -0.05348
  168.75     21.77976     21.72508     -0.05468
  169.00     21.77819     21.72231     -0.05588
  169.25     21.77609     21.72054     -0.05555
  169.50     21.77231     21.72193     -0.05039
  169.75     21.76853     21.72331     -0.04522
  170.00     21.76475     21.72469     -0.04006
  170.25     21.76155     21.72487     -0.03668
  170.50     21.75869     21.72431     -0.03438
  170.75     21.75584     21.72376     -0.03207
  171.00     21.75298     21.72318     -0.02980
  171.25     21.74985     21.71905     -0.03081
  171.50     21.74673     21.71492     -0.03182
  171.75     21.74361     21.71079     -0.03283
  172.00     21.74090     21.70672     -0.03418
  172.25     21.73887     21.70275     -0.03612
  172.50     21.73685     21.69879     -0.03806
  172.75     21.73482     21.69483     -0.03999
  173.00     21.73167     21.69170     -0.03996
  173.25     21.72816     21.68885     -0.03932
  173.50     21.72466     21.68599     -0.03867
  173.75     21.72105     21.68305     -0.03800
  174.00     21.71681     21.67964     -0.03717
  174.25     21.71257     21.67623     -0.03634
  174.50     21.70833     21.67282     -0.03551
  174.75     21.70492     21.66999     -0.03493
  175.00     21.70225     21.66769     -0.03456
  175.25     21.69957     21.66539     -0.03419
  175.50     21.69690     21.66308     -0.03382
  175.75     21.69591     21.66355     -0.03236
  176.00     21.69509     21.66428     -0.03080
  176.25     21.69426     21.66502     -0.02924
  176.50     21.69330     21.66573     -0.02758
  176.75     21.69201     21.66637     -0.02564
  177.00     21.69072     21.66702     -0.02370
  177.25     21.68943     21.66766     -0.02177
  177.50     21.68581     21.66714     -0.01867
  177.75     21.68102     21.66604     -0.01498
  178.00     21.67622     21.66493     -0.01129
  178.25     21.67152     21.66369     -0.00783
  178.50     21.66857     21.65982     -0.00876
  178.75     21.66562     21.65594     -0.00968
  179.00     21.66267     21.65207     -0.01060
