~Version Information
VERS. 2.0:
WRAP. NO:

~Well Information
STRT.FT -71.25:
STOP.FT 665.00:
STEP.FT 0.25:
NULL. -999.25:

~Curve Information
DEPT.FT     : Depth below casing
PRETEMP.C   : Pre-pump Temperature
POSTTEMP.C  : Post-pump Temperature (aligned)
DIFFTEMP.C  : Post minus Pre Temperature

~A  DEPT  PRETEMP  POSTTEMP  DIFFTEMP
# ...
  429.75     22.45000     22.46018      0.01017
  430.00     22.44868     22.46197      0.01329
  430.25     22.44730     22.46381      0.01650
  430.50     22.44593     22.46564      0.01972
  430.75     22.44566     22.46709      0.02143
  431.00     22.44769     22.46773      0.02004
  431.25     22.44972     22.46838      0.01866
  431.50     22.45175     22.46903      0.01728
  431.75     22.45371     22.46810      0.01439
  432.00     22.45564     22.46653      0.01089
  432.25     22.45758     22.46496      0.00738
  432.50     22.45955     22.46361      0.00406
  432.75     22.46186     22.46425      0.00240
  433.00     22.46416     22.46490      0.00074
  433.25     22.46646     22.46554     -0.00092
  433.50     22.46820     22.46764     -0.00055
  433.75     22.46930     22.47133      0.00203
  434.00     22.47041     22.47502      0.00461
  434.25     22.47151     22.47870      0.00719
  434.50     22.47412     22.48064      0.00652
  434.75     22.47697     22.48229      0.00532
  435.00     22.47981     22.48394      0.00413
  435.25     22.48302     22.48568      0.00266
  435.50     22.48745     22.48771      0.00026
  435.75     22.49187     22.48974     -0.00214
  436.00     22.49630     22.49177     -0.00453
  436.25     22.49755     22.49243     -0.00511
  436.50     22.49681     22.49225     -0.00456
  436.75     22.49607     22.49206     -0.00401
  437.00     22.49533     22.49188     -0.00345
  437.25     22.49506     22.49179     -0.00327
  437.50     22.49478     22.49169     -0.00309
  437.75     22.49450     22.49160     -0.00290
  438.00     22.49571     22.49320     -0.00251
  438.25     22.49930     22.49754     -0.00177
  438.50     22.50290     22.50187     -0.00103
  438.75     22.50649     22.50620     -0.00029
  439.00     22.51015     22.51165      0.00150
  439.25     22.51382     22.51743      0.00361
  439.50     22.51749     22.52322      0.00572
  439.75     22.52126     22.52861      0.00736
  440.00     22.52559     22.53156      0.00597
  440.25     22.52992     22.53451      0.00459
  440.50     22.53425     22.53746      0.00321
  440.75     22.53753     22.53960      0.00207
  441.00     22.53984     22.54098      0.00114
  441.25     22.54214     22.54236      0.00022
  441.50     22.54445     22.54375     -0.00070
  441.75     22.54358     22.54538      0.00179
  442.00     22.54239     22.54704      0.00465
  442.25     22.54119     22.54870      0.00751
  442.50     22.53988     22.55126      0.01137
  442.75     22.53832     22.55605      0.01774
  443.00     22.53675     22.56084      0.02410
  443.25     22.53518     22.56564      0.03046
  443.50     22.53738     22.57103      0.03366
  443.75     22.54142     22.57673      0.03531
  444.00     22.54546     22.58242      0.03696
  444.25     22.54949     22.58781      0.03832
  444.50     22.55327     22.58615      0.03288
  444.75     22.55705     22.58449      0.02745
  445.00     22.56083     22.58283      0.02201
  445.25     22.56327     22.58051      0.01723
  445.50     22.56392     22.57728      0.01336
  445.75     22.56456     22.57406      0.00949
  446.00     22.56521     22.57083      0.00562
  446.25     22.56608     22.57275      0.00667
  446.50     22.56700     22.57588      0.00888
  446.75     22.56792     22.57901      0.01109
  447.00     22.56961     22.58277      0.01316
  447.25     22.57449     22.58913      0.01464
  447.50     22.57938     22.59549      0.01611
  447.75     22.58426     22.60185      0.01759
  448.00     22.58967     22.60465      0.01499
  448.25     22.59545     22.60483      0.00938
  448.50     22.60123     22.60502      0.00378
  448.75     22.60702     22.60520     -0.00182
  449.00     22.60576     22.60704      0.00128
  449.25     22.60411     22.60898      0.00487
  449.50     22.60245     22.61091      0.00847
  449.75     22.60012     22.61321      0.01310
  450.00     22.59643     22.61626      0.01982
  450.25     22.59274     22.61930      0.02655
  450.50     22.58906     22.62234      0.03328
  450.75     22.58945     22.62236      0.03291
  451.00     22.59147     22.62116      0.02969
  451.25     22.59350     22.61996      0.02646
  451.50     22.59545     22.61882      0.02337
  451.75     22.59665     22.61817      0.02152
  452.00     22.59785     22.61753      0.01968
  452.25     22.59904     22.61688      0.01784
  452.50     22.59945     22.61796      0.01851
  452.75     22.59899     22.62090      0.02191
  453.00     22.59853     22.62383      0.02531
  453.25     22.59807     22.62677      0.02870
  453.50     22.60145     22.62854      0.02710
  453.75     22.60550     22.63011      0.02461
  454.00     22.60956     22.63168      0.02212
  454.25     22.61424     22.63299      0.01874
  454.50     22.62097     22.63345      0.01248
  454.75     22.62770     22.63391      0.00621
  455.00     22.63443     22.63437     -0.00006
  455.25     22.63871     22.63597     -0.00274
  455.50     22.64147     22.63827     -0.00320
  455.75     22.64424     22.64058     -0.00366
  456.00     22.64700     22.64288     -0.00412
  456.25     22.64497     22.64269     -0.00227
  456.50     22.64294     22.64251     -0.00043
  456.75     22.64091     22.64233      0.00141
  457.00     22.63949     22.64228      0.00279
  457.25     22.63903     22.64247      0.00344
  457.50     22.63857     22.64265      0.00408
  457.75     22.63811     22.64283      0.00472
  458.00     22.64148     22.64733      0.00585
  458.25     22.64609     22.65323      0.00714
  458.50     22.65070     22.65913      0.00843
  458.75     22.65495     22.66484      0.00989
  459.00     22.65698     22.66936      0.01238
  459.25     22.65900     22.67387      0.01487
  459.50     22.66103     22.67839      0.01736
  459.75     22.66133     22.68069      0.01936
  460.00     22.66004     22.68097      0.02093
  460.25     22.65874     22.68124      0.02250
  460.50     22.65745     22.68152      0.02407
  460.75     22.65499     22.68063      0.02563
  461.00     22.65241     22.67961      0.02720
  461.25     22.64983     22.67860      0.02877
  461.50     22.64909     22.67711      0.02801
  461.75     22.65286     22.67444      0.02159
  462.00     22.65662     22.67178      0.01516
  462.25     22.66039     22.66912      0.00873
  462.50     22.66452     22.66864      0.00411
  462.75     22.66886     22.66928      0.00043
  463.00     22.67319     22.66993     -0.00326
  463.25     22.67736     22.67074     -0.00662
  463.50     22.67801     22.67526     -0.00275
  463.75     22.67865     22.67977      0.00112
  464.00     22.67930     22.68429      0.00499
  464.25     22.67955     22.68712      0.00757
  464.50     22.67927     22.68767      0.00840
  464.75     22.67900     22.68822      0.00923
  465.00     22.67872     22.68877      0.01006
  465.25     22.67949     22.68843      0.00894
  465.50     22.68050     22.68788      0.00737
  465.75     22.68152     22.68732      0.00581
  466.00     22.68335     22.68704      0.00369
  466.25     22.68859     22.68787     -0.00072
  466.50     22.69382     22.68869     -0.00513
  466.75     22.69905     22.68952     -0.00953
  467.00     22.70352     22.69253     -0.01099
  467.25     22.70739     22.69723     -0.01016
  467.50     22.71126     22.70193     -0.00933
  467.75     22.71513     22.70663     -0.00850
  468.00     22.71813     22.71177     -0.00636
  468.25     22.72108     22.71693     -0.00414
  468.50     22.72403     22.72210     -0.00193
  468.75     22.72689     22.72741      0.00052
  469.00     22.72956     22.73303      0.00347
  469.25     22.73223     22.73866      0.00642
  469.50     22.73491     22.74428      0.00937
  469.75     22.73804     22.74918      0.01114
  470.00     22.74136     22.75379      0.01243
  470.25     22.74468     22.75839      0.01372
  470.50     22.74792     22.76265      0.01473
  470.75     22.75049     22.76376      0.01326
  471.00     22.75306     22.76486      0.01179
  471.25     22.75563     22.76596      0.01033
