~Version Information
VERS. 2.0:
WRAP. NO:

~Well Information
STRT.FT -71.25:
STOP.FT 665.00:
STEP.FT 0.25:
NULL. -999.25:

~Curve Information
DEPT.FT     : Depth below casing
PRETEMP.C   : Pre-pump Temperature
POSTTEMP.C  : Post-pump Temperature (aligned)
DIFFTEMP.C  : Post minus Pre Temperature

~A  DEPT  PRETEMP  POSTTEMP  DIFFTEMP
# ...
  638.50     23.88258     23.87275     -0.00983
  638.75     23.88617     23.87607     -0.01011
  639.00     23.88879     23.88130     -0.00749
  639.25     23.89136     23.88663     -0.00473
  639.50     23.89393     23.89195     -0.00198
  639.75     23.89588     23.89594      0.00006
  640.00     23.89652     23.89713      0.00061
  640.25     23.89717     23.89833      0.00116
  640.50     23.89781     23.89953      0.00172
  640.75     23.89872     23.89942      0.00070
  641.00     23.89973     23.89878     -0.00096
  641.25     23.90075     23.89813     -0.00262
  641.50     23.90218     23.89789     -0.00429
  641.75     23.90771     23.90158     -0.00614
  642.00     23.91324     23.90526     -0.00798
  642.25     23.91877     23.90895     -0.00982
  642.50     23.92364     23.91281     -0.01083
  642.75     23.92779     23.91687     -0.01092
  643.00     23.93194     23.92092     -0.01102
  643.25     23.93609     23.92498     -0.01111
  643.50     23.93777     23.92602     -0.01175
  643.75     23.93906     23.92657     -0.01249
  644.00     23.94034     23.92712     -0.01322
  644.25     23.94108     23.92752     -0.01355
  644.50     23.93997     23.92743     -0.01254
  644.75     23.93887     23.92734     -0.01153
  645.00     23.93776     23.92725     -0.01051
  645.25     23.93756     23.92874     -0.00882
  645.50     23.93793     23.93123     -0.00670
  645.75     23.93830     23.93372     -0.00458
  646.00     23.93867     23.93621     -0.00246
  646.25     23.93922     23.94017      0.00095
  646.50     23.93977     23.94413      0.00436
  646.75     23.94032     23.94809      0.00777
  647.00     23.94151     23.95181      0.01030
  647.25     23.94372     23.95513      0.01141
  647.50     23.94593     23.95845      0.01251
  647.75     23.94815     23.96177      0.01362
  648.00     23.95113     23.96493      0.01381
  648.25     23.95434     23.96806      0.01372
  648.50     23.95755     23.97118      0.01362
  648.75     23.96087     23.97449      0.01362
  649.00     23.96483     23.97900      0.01417
  649.25     23.96879     23.98352      0.01473
  649.50     23.97276     23.98804      0.01528
  649.75     23.97782     23.99193      0.01411
  650.00     23.98390     23.99525      0.01135
  650.25     23.98999     23.99857      0.00858
  650.50     23.99607     24.00189      0.00582
  650.75     24.00033     24.00205      0.00172
  651.00     24.00438     24.00186     -0.00252
  651.25     24.00844     24.00168     -0.00676
  651.50     24.01189     24.00194     -0.00995
  651.75     24.01382     24.00332     -0.01050
  652.00     24.01576     24.00471     -0.01105
  652.25     24.01769     24.00609     -0.01161
  652.50     24.02036     24.00870     -0.01166
  652.75     24.02339     24.01191     -0.01148
  653.00     24.02642     24.01512     -0.01130
  653.25     24.02950     24.01839     -0.01111
  653.50     24.03384     24.02291     -0.01093
  653.75     24.03817     24.02742     -0.01075
  654.00     24.04250     24.03194     -0.01056
  654.25     24.04644     24.03583     -0.01061
  654.50     24.04985     24.03887     -0.01098
  654.75     24.05326     24.04192     -0.01135
  655.00     24.05667     24.04496     -0.01172
  655.25     24.05674     24.04607     -0.01067
  655.50     24.05600     24.04671     -0.00929
  655.75     24.05526     24.04736     -0.00791
  656.00     24.05451     24.04878     -0.00573
  656.25     24.05368     24.05348     -0.00020
  656.50     24.05285     24.05818      0.00533
  656.75     24.05202     24.06288      0.01086
  657.00     24.05473     24.06662      0.01189
  657.25     24.06005     24.06965      0.00960
  657.50     24.06538     24.07268      0.00730
  657.75     24.07070     24.07571      0.00501
  658.00     24.07674     24.07701      0.00027
  658.25     24.08283     24.07821     -0.00462
  658.50     24.08891     24.07941     -0.00950
  658.75     24.09430     24.08100     -0.01330
  659.00     24.09826     24.08339     -0.01487
  659.25     24.10223     24.08579     -0.01644
  659.50     24.10619     24.08819     -0.01800
  659.75     24.10825     24.09019     -0.01806
  660.00     24.10954     24.09203     -0.01751
  660.25     24.11083     24.09388     -0.01695
  660.50     24.11200     24.09572     -0.01628
  660.75     24.11200     24.09756     -0.01444
  661.00     24.11200     24.09941     -0.01259
  661.25     24.11200     24.10125     -0.01075
  661.50     24.11187     24.10340     -0.00847
  661.75     24.11159     24.10588     -0.00571
  662.00     24.11132     24.10836     -0.00296
  662.25     24.11104     24.11084     -0.00020
  662.50     24.11303     24.11145     -0.00159
  662.75     24.11543     24.11172     -0.00371
  663.00     24.11783     24.11200     -0.00583
  663.25     24.12020     24.11240     -0.00780
  663.50     24.12251     24.11323     -0.00927
  663.75     24.12481     24.11406     -0.01075
  664.00     24.12712     24.11489     -0.01222
  664.25     24.12902     24.11714     -0.01188
  664.50     24.13068     24.12028     -0.01040
  664.75     24.13234     24.12341     -0.00893
  665.00     24.13400     24.12655     -0.00745
