~Version Information
VERS. 2.0:
WRAP. NO:

~Well Information
STRT.FT -71.25:
STOP.FT 665.00:
STEP.FT 0.25:
NULL. -999.25:

~Curve Information
DEPT.FT     : Depth below casing
PRETEMP.C   : Pre-pump Temperature
POSTTEMP.C  : Post-pump Temperature (aligned)
DIFFTEMP.C  : Post minus Pre Temperature

~A  DEPT  PRETEMP  POSTTEMP  DIFFTEMP
  -71.25     22.50359     29.96843      7.46484
  -71.00     22.04593     28.97586      6.92993
  -70.75     21.58827     27.98330      6.39503
  -70.50     21.20602     27.14728      5.94126
  -70.25     21.00581     26.68916      5.68335
  -70.00     20.80560     26.23104      5.42543
  -69.75     20.60539     25.77292      5.16752
  -69.50     20.57844     25.61667      5.03822
  -69.25     20.63427     25.60464      4.97037
  -69.00     20.69009     25.59261      4.90252
  -68.75     20.74962     25.58380      4.83419
  -68.50     20.88549     25.64141      4.75593
  -68.25     21.02136     25.69903      4.67767
  -68.00     21.15722     25.75664      4.59941
  -67.75     21.28786     25.73770      4.44984
  -67.50     21.41156     25.61732      4.20576
  -67.25     21.53527     25.49694      3.96167
  -67.00     21.65897     25.37655      3.71759
  -66.75     21.81763     25.13855      3.32092
  -66.50     21.98428     24.87363      2.88935
  -66.25     22.15094     24.60871      2.45777
  -66.00     22.31470     24.35418      2.03948
  -65.75     22.46670     24.14180      1.67510
  -65.50     22.61870     23.92942      1.31072
  -65.25     22.77070     23.71705      0.94635
  -65.00     22.86855     23.57583      0.70728
  -64.75     22.92740     23.48585      0.55845
  -64.50     22.98626     23.39587      0.40961
  -64.25     23.04511     23.30589      0.26078
  -64.00     23.07026     23.29998      0.22972
  -63.75     23.09368     23.29842      0.20474
  -63.50     23.11709     23.29685      0.17976
  -63.25     23.14053     23.31796      0.17742
  -63.00     23.16404     23.38414      0.22010
  -62.75     23.18754     23.45032      0.26278
  -62.50     23.21105     23.51651      0.30546
  -62.25     23.16296     23.66892      0.50595
  -62.00     23.08683     23.85512      0.76829
  -61.75     23.01069     24.04131      1.03063
  -61.50     22.91236     24.22034      1.30798
  -61.25     22.61924     24.33639      1.71715
  -61.00     22.32611     24.45244      2.12633
  -60.75     22.03299     24.56849      2.53550
  -60.50     21.72137     24.51876      2.79739
  -60.25     21.39019     24.29372      2.90353
  -60.00     21.05901     24.06868      3.00967
  -59.75     20.72783     23.84364      3.11581
  -59.50     20.53355     23.51201      2.97846
  -59.25     20.36238     23.16238      2.80000
  -59.00     20.19120     22.81275      2.62155
  -58.75     20.05043     22.49253      2.44210
  -58.50     20.00628     22.26577      2.25950
  -58.25     19.96213     22.03902      2.07689
  -58.00     19.91797     21.81226      1.89429
  -57.75     19.91839     21.64949      1.73110
  -57.50     19.94577     21.52542      1.57965
  -57.25     19.97315     21.40135      1.42821
  -57.00     20.00158     21.27783      1.27626
  -56.75     20.18123     21.23331      1.05208
  -56.50     20.36088     21.18879      0.82791
  -56.25     20.54054     21.14427      0.60373
  -56.00     20.82699     21.12327      0.29628
  -55.75     21.28001     21.13897     -0.14104
  -55.50     21.73303     21.15467     -0.57836
  -55.25     22.18605     21.17038     -1.01568
  -55.00     22.68373     21.17757     -1.50616
  -54.75     23.19550     21.18209     -2.01341
  -54.50     23.70727     21.18661     -2.52066
  -54.25     24.16680     21.19338     -2.97342
  -54.00     24.31585     21.21357     -3.10228
  -53.75     24.46490     21.23375     -3.23115
  -53.50     24.61395     21.25394     -3.36001
  -53.25     24.50992     21.31791     -3.19201
  -53.00     24.17946     21.42106     -2.75840
  -52.75     23.84901     21.52421     -2.32480
  -52.50     23.51855     21.62735     -1.89120
  -52.25     23.28027     21.77100     -1.50927
  -52.00     23.05094     21.91858     -1.13236
  -51.75     22.82160     22.06615     -0.75545
  -51.50     22.75109     22.18853     -0.56257
  -51.25     23.05950     22.25078     -0.80872
  -51.00     23.36791     22.31303     -1.05488
  -50.75     23.67632     22.37528     -1.30104
  -50.50     24.14532     22.35452     -1.79079
  -50.25     24.69525     22.29194     -2.40331
  -50.00     25.24518     22.22935     -3.01583
  -49.75     25.78205     22.16646     -3.61559
  -49.50     26.06374     22.09769     -3.96605
  -49.25     26.34544     22.02893     -4.31651
  -49.00     26.62713     21.96017     -4.66696
  -48.75     26.70504     21.93553     -4.76951
  -48.50     26.51552     21.96881     -4.54672
  -48.25     26.32601     22.00208     -4.32393
  -48.00     26.13649     22.03536     -4.10113
  -47.75     26.00935     22.19346     -3.81589
  -47.50     25.89625     22.37965     -3.51659
  -47.25     25.78314     22.56585     -3.21729
  -47.00     25.71129     22.75874     -2.95255
  -46.75     25.80439     22.97836     -2.82603
  -46.50     25.89749     23.19798     -2.69951
  -46.25     25.99059     23.41761     -2.57299
  -46.00     26.13220     23.51870     -2.61350
  -45.75     26.31048     23.53022     -2.78025
  -45.50     26.48875     23.54175     -2.94700
  -45.25     26.66702     23.55327     -3.11375
  -45.00     26.90689     23.34773     -3.55916
  -44.75     27.14978     23.13158     -4.01820
  -44.50     27.39266     22.91542     -4.47724
  -44.25     27.54677     22.70244     -4.84433
  -44.00     27.52630     22.49568     -5.03062
  -43.75     27.50584     22.28893     -5.21691
  -43.50     27.48538     22.08218     -5.40320
  -43.25     27.25107     21.98500     -5.26607
  -43.00     26.93398     21.93025     -5.00374
  -42.75     26.61689     21.87549     -4.74140
  -42.50     26.31117     21.83955     -4.47163
  -42.25     26.10266     21.96441     -4.13824
  -42.00     25.89414     22.08928     -3.80486
  -41.75     25.68563     22.21415     -3.47148
  -41.50     25.62133     22.39298     -3.22835
  -41.25     25.71692     22.63163     -3.08529
  -41.00     25.81251     22.87027     -2.94223
  -40.75     25.90809     23.10892     -2.79917
  -40.50     25.99490     23.23526     -2.75964
  -40.25     26.08026     23.34302     -2.73724
  -40.00     26.16562     23.45077     -2.71484
  -39.75     26.28333     23.49813     -2.78521
  -39.50     26.50253     23.35608     -3.14645
  -39.25     26.72173     23.21404     -3.50769
  -39.00     26.94093     23.07199     -3.86894
  -38.75     27.12829     22.88093     -4.24736
  -38.50     27.29661     22.66054     -4.63607
  -38.25     27.46493     22.44014     -5.02479
  -38.00     27.62990     22.22086     -5.40904
  -37.75     27.44103     22.11986     -5.32117
  -37.50     27.25217     22.01887     -5.23330
  -37.25     27.06330     21.91787     -5.14544
  -37.00     26.81636     21.88542     -4.93093
  -36.75     26.47419     21.96534     -4.50886
  -36.50     26.13203     22.04526     -4.08678
  -36.25     25.78987     22.12517     -3.66470
  -36.00     25.74234     22.32397     -3.41837
  -35.75     25.78649     22.55976     -3.22673
  -35.50     25.83065     22.79555     -3.03510
  -35.25     25.88575     23.02289     -2.86286
  -35.00     26.00466     23.20098     -2.80368
  -34.75     26.12357     23.37906     -2.74450
  -34.50     26.24247     23.55715     -2.68533
  -34.25     26.29491     23.59916     -2.69575
  -34.00     26.28846     23.52063     -2.76783
  -33.75     26.28201     23.44209     -2.83991
  -33.50     26.27555     23.36356     -2.91200
  -33.25     26.35246     23.14751     -3.20495
  -33.00     26.43721     22.91852     -3.51869
  -32.75     26.52195     22.68953     -3.83242
  -32.50     26.57237     22.47934     -4.09303
  -32.25     26.53605     22.31665     -4.21940
  -32.00     26.49973     22.15395     -4.34578
  -31.75     26.46341     21.99126     -4.47215
  -31.50     26.29872     21.93130     -4.36742
  -31.25     26.07003     21.92254     -4.14749
  -31.00     25.84133     21.91378     -3.92755
  -30.75     25.61522     21.91210     -3.70312
  -30.50     25.43705     22.04180     -3.39525
  -30.25     25.25887     22.17149     -3.08738
  -30.00     25.08069     22.30118     -2.77950
  -29.75     25.03664     22.44783     -2.58881
