~Version Information
VERS. 2.0:
WRAP. NO:

~Well Information
STRT.FT -71.25:
STOP.FT 665.00:
STEP.FT 0.25:
NULL. -999.25:

~Curve Information
DEPT.FT     : Depth below casing
PRETEMP.C   : Pre-pump Temperature
POSTTEMP.C  : Post-pump Temperature (aligned)
DIFFTEMP.C  : Post minus Pre Temperature

~A  DEPT  PRETEMP  POSTTEMP  DIFFTEMP
  -71.25     16.09658     33.96905     17.87247
  -71.00     15.81673     32.78899     16.97226
  -70.75     15.53688     31.60894     16.07206
  -70.50     15.30231     30.59494     15.29263
  -70.25     15.17704     29.98177     14.80474
  -70.00     15.05177     29.36861     14.31684
  -69.75     14.92650     28.75545     13.82895
  -69.50     14.89259     28.46768     13.57509
  -69.25     14.90232     28.33537     13.43306
  -69.00     14.91205     28.20307     13.29102
  -68.75     14.92232     28.07838     13.15607
  -68.50     14.94361     28.11092     13.16731
  -68.25     14.96490     28.14346     13.17856
  -68.00     14.98620     28.17600     13.18980
  -67.75     14.99857     28.22511     13.22654
  -67.50     14.99912     28.29618     13.29705
  -67.25     14.99968     28.36724     13.36757
  -67.00     15.00023     28.43831     13.43808
  -66.75     15.01286     28.54261     13.52975
  -66.50     15.02825     28.65452     13.62626
  -66.25     15.04365     28.76642     13.72277
  -66.00     15.07252     28.88437     13.81185
  -65.75     15.15612     29.02688     13.87075
  -65.50     15.23973     29.16938     13.92965
  -65.25     15.32333     29.31189     13.98855
  -65.00     15.41945     29.44355     14.02410
  -64.75     15.52458     29.56741     14.04283
  -64.50     15.62971     29.69127     14.06156
  -64.25     15.73484     29.81513     14.08029
  -64.00     15.79829     29.91474     14.11645
  -63.75     15.85959     30.01309     14.15350
  -63.50     15.92088     30.11144     14.19056
  -63.25     15.97706     30.20576     14.22869
  -63.00     16.02306     30.29203     14.26898
  -62.75     16.06905     30.37831     14.30926
  -62.50     16.11505     30.46459     14.34954
  -62.25     16.13701     30.51179     14.37479
  -62.00     16.14954     30.54369     14.39414
  -61.75     16.16208     30.57558     14.41350
  -61.50     16.16681     30.59369     14.42688
  -61.25     16.10302     30.49082     14.38780
  -61.00     16.03924     30.38795     14.34872
  -60.75     15.97545     30.28508     14.30963
  -60.50     15.89679     30.13047     14.23367
  -60.25     15.80241     29.92113     14.11872
  -60.00     15.70802     29.71179     14.00377
  -59.75     15.61363     29.50245     13.88881
  -59.50     15.56617     29.32450     13.75833
  -59.25     15.52662     29.15185     13.62523
  -59.00     15.48708     28.97920     13.49212
  -58.75     15.46852     28.82994     13.36142
  -58.50     15.51663     28.75500     13.23837
  -58.25     15.56475     28.68006     13.11531
  -58.00     15.61287     28.60512     12.99225
  -57.75     15.66196     28.57033     12.90837
  -57.50     15.71164     28.55982     12.84818
  -57.25     15.76133     28.54931     12.78799
  -57.00     15.81101     28.53881     12.72781
  -56.75     15.86051     28.52950     12.66900
  -56.50     15.91001     28.52019     12.61019
  -56.25     15.95951     28.51088     12.55138
  -56.00     16.09352     28.49101     12.39749
  -55.75     16.35932     28.45465     12.09532
  -55.50     16.62513     28.41829     11.79316
  -55.25     16.89094     28.38193     11.49099
  -55.00     17.25460     28.31736     11.06277
  -54.75     17.64911     28.24390     10.59478
  -54.50     18.04363     28.17043     10.12680
  -54.25     18.38379     28.09870      9.71491
  -54.00     18.40084     28.03731      9.63647
  -53.75     18.41789     27.97592      9.55803
  -53.50     18.43495     27.91453      9.47959
  -53.25     18.26912     27.95079      9.68167
  -53.00     17.93968     28.07440     10.13472
  -52.75     17.61024     28.19801     10.58777
  -52.50     17.28080     28.32162     11.04082
  -52.25     16.94984     28.79864     11.84880
  -52.00     16.61874     29.30995     12.69121
  -51.75     16.28764     29.82126     13.53362
  -51.50     15.99936     30.39136     14.39200
  -51.25     15.81325     31.10174     15.28849
  -51.00     15.62714     31.81212     16.18498
  -50.75     15.44103     32.52250     17.08147
  -50.50     15.32774     32.92259     17.59486
  -50.25     15.25114     33.16631     17.91517
  -50.00     15.17454     33.41003     18.23549
  -49.75     15.10038     33.63143     18.53105
  -49.50     15.07392     33.41684     18.34292
  -49.25     15.04747     33.20225     18.15479
  -49.00     15.02101     32.98767     17.96665
  -48.75     15.02541     32.84304     17.81762
  -48.50     15.07030     32.79022     17.71992
  -48.25     15.11519     32.73740     17.62221
  -48.00     15.16008     32.68458     17.52450
  -47.75     15.35244     32.56834     17.21590
  -47.50     15.57800     32.43782     16.85982
  -47.25     15.80356     32.30729     16.50373
  -47.00     16.04102     32.10448     16.06345
  -46.75     16.32611     31.61253     15.28641
  -46.50     16.61120     31.12058     14.50938
  -46.25     16.89629     30.62863     13.73234
  -46.00     17.03433     30.24840     13.21407
  -45.75     17.06125     29.95261     12.89136
  -45.50     17.08816     29.65681     12.56865
  -45.25     17.11508     29.36101     12.24593
  -45.00     16.91132     29.56682     12.65550
  -44.75     16.69627     29.79717     13.10090
  -44.50     16.48122     30.02752     13.54630
  -44.25     16.26812     30.31698     14.04885
  -44.00     16.05888     30.72265     14.66377
  -43.75     15.84964     31.12832     15.27868
  -43.50     15.64040     31.53399     15.89360
  -43.25     15.50724     31.75812     16.25088
  -43.00     15.40354     31.91196     16.50842
  -42.75     15.29984     32.06581     16.76596
  -42.50     15.20650     32.22248     17.01598
  -42.25     15.20173     32.40336     17.20163
  -42.00     15.19695     32.58424     17.38728
  -41.75     15.19218     32.76511     17.57294
  -41.50     15.28050     32.90803     17.62753
  -41.25     15.47205     33.00888     17.53683
  -41.00     15.66359     33.10972     17.44613
  -40.75     15.85514     33.21056     17.35542
  -40.50     16.10987     32.80080     16.69093
  -40.25     16.37507     32.30655     15.93148
  -40.00     16.64026     31.81229     15.17203
  -39.75     16.84020     31.33529     14.49509
  -39.50     16.83550     30.91238     14.07688
  -39.25     16.83079     30.48947     13.65867
  -39.00     16.82609     30.06656     13.24047
  -38.75     16.69326     30.14752     13.45425
  -38.50     16.48374     30.53005     14.04631
  -38.25     16.27423     30.91259     14.63836
  -38.00     16.06530     31.29670     15.23140
  -37.75     15.91950     31.84741     15.92791
  -37.50     15.77370     32.39812     16.62442
  -37.25     15.62789     32.94883     17.32094
  -37.00     15.52923     33.29283     17.76360
  -36.75     15.50785     33.29800     17.79015
  -36.50     15.48646     33.30316     17.81670
  -36.25     15.46508     33.30832     17.84325
  -36.00     15.45831     33.36459     17.90628
  -35.75     15.45610     33.43677     17.98067
  -35.50     15.45389     33.50894     18.05505
  -35.25     15.46655     33.60650     18.13994
  -35.00     15.56592     33.85196     18.28604
  -34.75     15.66529     34.09743     18.43215
  -34.50     15.76465     34.34290     18.57825
  -34.25     15.94178     34.21662     18.27483
  -34.00     16.18780     33.76099     17.57318
  -33.75     16.43383     33.30535     16.87153
  -33.50     16.67985     32.84972     16.16987
  -33.25     16.76268     32.21034     15.44766
  -33.00     16.83017     31.55367     14.72350
  -32.75     16.89765     30.89700     13.99935
  -32.50     16.89257     30.45051     13.55794
  -32.25     16.70416     30.53504     13.83088
  -32.00     16.51575     30.61957     14.10381
  -31.75     16.32734     30.70409     14.37675
  -31.50     16.14797     30.97046     14.82248
  -31.25     15.97311     31.32746     15.35434
  -31.00     15.79825     31.68446     15.88621
  -30.75     15.62938     32.02592     16.39653
  -30.50     15.57168     32.07883     16.50715
  -30.25     15.51398     32.13174     16.61776
  -30.00     15.45627     32.18465     16.72837
  -29.75     15.41930     32.30523     16.88593
