~Version Information
VERS. 2.0:
WRAP. NO:

~Well Information
STRT.FT -71.25:
STOP.FT 665.00:
STEP.FT 0.25:
NULL. -999.25:

~Curve Information
DEPT.FT     : Depth below casing
PRETEMP.C   : Pre-pump Temperature
POSTTEMP.C  : Post-pump Temperature (aligned)
DIFFTEMP.C  : Post minus Pre Temperature

~A  DEPT  PRETEMP  POSTTEMP  DIFFTEMP
# ...
  346.25     21.93244     21.94054      0.00809
  346.50     21.93844     21.94146      0.00302
  346.75     21.94459     21.94489      0.00029
  347.00     21.95077     21.94857     -0.00220
  347.25     21.95695     21.95226     -0.00469
  347.50     21.96195     21.95597     -0.00597
  347.75     21.96407     21.95975     -0.00431
  348.00     21.96619     21.96353     -0.00266
  348.25     21.96831     21.96731     -0.00100
  348.50     21.96752     21.96805      0.00053
  348.75     21.96531     21.96732      0.00200
  349.00     21.96311     21.96658      0.00347
  349.25     21.96094     21.96594      0.00501
  349.50     21.95946     21.96742      0.00796
  349.75     21.95799     21.96889      0.01090
  350.00     21.95651     21.97037      0.01385
  350.25     21.95523     21.97290      0.01767
  350.50     21.95422     21.97687      0.02265
  350.75     21.95321     21.98083      0.02762
  351.00     21.95219     21.98479      0.03260
  351.25     21.95447     21.98517      0.03071
  351.50     21.95751     21.98471      0.02720
  351.75     21.96055     21.98425      0.02370
  352.00     21.96470     21.98323      0.01853
  352.25     21.97346     21.97992      0.00646
  352.50     21.98222     21.97660     -0.00562
  352.75     21.99097     21.97328     -0.01769
  353.00     21.99583     21.97363     -0.02220
  353.25     21.99785     21.97666     -0.02119
  353.50     21.99987     21.97969     -0.02018
  353.75     22.00189     21.98272     -0.01917
  354.00     21.99789     21.98795     -0.00995
  354.25     21.99356     21.99329     -0.00027
  354.50     21.98923     21.99864      0.00941
  354.75     21.98673     22.00194      0.01521
  355.00     21.98793     22.00111      0.01318
  355.25     21.98913     22.00028      0.01115
  355.50     21.99033     21.99945      0.00912
  355.75     21.99456     21.99677      0.00222
  356.00     21.99999     21.99336     -0.00663
  356.25     22.00543     21.98995     -0.01548
  356.50     22.01025     21.98705     -0.02320
  356.75     22.00942     21.98880     -0.02062
  357.00     22.00859     21.99055     -0.01804
  357.25     22.00776     21.99231     -0.01546
  357.50     22.00565     21.99467     -0.01097
  357.75     22.00216     21.99770     -0.00446
  358.00     21.99867     22.00073      0.00206
  358.25     21.99518     22.00376      0.00858
  358.50     21.99223     22.00547      0.01324
  358.75     21.98937     22.00694      0.01757
  359.00     21.98652     22.00842      0.02190
  359.25     21.98418     22.00922      0.02504
  359.50     21.98354     22.00784      0.02430
  359.75     21.98289     22.00645      0.02356
  360.00     21.98225     22.00507      0.02283
  360.25     21.98451     22.00569      0.02117
  360.50     21.98857     22.00753      0.01896
  360.75     21.99263     22.00938      0.01675
  361.00     21.99669     22.01123      0.01453
  361.25     22.00435     22.01519      0.01084
  361.50     22.01200     22.01915      0.00716
  361.75     22.01965     22.02312      0.00347
  362.00     22.02604     22.02619      0.00014
  362.25     22.03045     22.02784     -0.00261
  362.50     22.03486     22.02949     -0.00536
  362.75     22.03926     22.03114     -0.00812
  363.00     22.03789     22.03015     -0.00774
  363.25     22.03466     22.02831     -0.00636
  363.50     22.03144     22.02646     -0.00498
  363.75     22.02869     22.02475     -0.00394
  364.00     22.02888     22.02383     -0.00505
  364.25     22.02906     22.02291     -0.00616
  364.50     22.02925     22.02198     -0.00726
  364.75     22.03098     22.02246     -0.00851
  365.00     22.03411     22.02422     -0.00990
  365.25     22.03725     22.02597     -0.01128
  365.50     22.04038     22.02772     -0.01266
  365.75     22.04276     22.03240     -0.01036
  366.00     22.04506     22.03738     -0.00769
  366.25     22.04737     22.04236     -0.00501
  366.50     22.04919     22.04733     -0.00186
  366.75     22.04983     22.05229      0.00245
  367.00     22.05047     22.05724      0.00677
  367.25     22.05112     22.06220      0.01109
  367.50     22.05213     22.06485      0.01273
  367.75     22.05332     22.06633      0.01300
  368.00     22.05452     22.06780      0.01328
  368.25     22.05580     22.06923      0.01343
  368.50     22.05885     22.06969      0.01085
  368.75     22.06189     22.07015      0.00827
  369.00     22.06493     22.07062      0.00569
  369.25     22.06643     22.07001      0.00358
  369.50     22.06588     22.06798      0.00210
  369.75     22.06532     22.06595      0.00063
  370.00     22.06477     22.06392     -0.00085
  370.25     22.06392     22.06325     -0.00067
  370.50     22.06300     22.06288     -0.00012
  370.75     22.06207     22.06251      0.00043
  371.00     22.06171     22.06247      0.00075
  371.25     22.06364     22.06375      0.00011
  371.50     22.06557     22.06504     -0.00053
  371.75     22.06750     22.06632     -0.00118
  372.00     22.06823     22.06855      0.00032
  372.25     22.06804     22.07150      0.00345
  372.50     22.06786     22.07445      0.00659
  372.75     22.06768     22.07740      0.00972
  373.00     22.06653     22.08184      0.01531
  373.25     22.06533     22.08635      0.02102
  373.50     22.06413     22.09087      0.02674
  373.75     22.06450     22.09379      0.02928
  374.00     22.06801     22.09351      0.02550
  374.25     22.07151     22.09323      0.02173
  374.50     22.07501     22.09296      0.01795
  374.75     22.07772     22.09122      0.01351
  375.00     22.08012     22.08892      0.00880
  375.25     22.08251     22.08662      0.00410
  375.50     22.08471     22.08472      0.00001
  375.75     22.08517     22.08647      0.00129
  376.00     22.08563     22.08821      0.00258
  376.25     22.08609     22.08996      0.00387
  376.50     22.08672     22.09183      0.00511
  376.75     22.08755     22.09386      0.00631
  377.00     22.08838     22.09589      0.00751
  377.25     22.08921     22.09792      0.00870
  377.50     22.09138     22.09758      0.00620
  377.75     22.09378     22.09684      0.00307
  378.00     22.09618     22.09611     -0.00007
  378.25     22.09974     22.09605     -0.00369
  378.50     22.10702     22.09817     -0.00885
  378.75     22.11430     22.10029     -0.01401
  379.00     22.12158     22.10241     -0.01917
  379.25     22.12548     22.10379     -0.02169
  379.50     22.12732     22.10471     -0.02262
  379.75     22.12917     22.10563     -0.02354
  380.00     22.13098     22.10653     -0.02445
  380.25     22.12777     22.10433     -0.02344
  380.50     22.12455     22.10212     -0.02243
  380.75     22.12134     22.09992     -0.02142
  381.00     22.11909     22.09820     -0.02089
  381.25     22.11845     22.09728     -0.02117
  381.50     22.11780     22.09636     -0.02144
  381.75     22.11716     22.09543     -0.02172
  382.00     22.11539     22.09780     -0.01759
  382.25     22.11327     22.10121     -0.01206
  382.50     22.11115     22.10462     -0.00653
  382.75     22.10928     22.10817     -0.00111
  383.00     22.10891     22.11250      0.00359
  383.25     22.10854     22.11683      0.00829
  383.50     22.10817     22.12116      0.01299
  383.75     22.11101     22.12302      0.01201
  384.00     22.11673     22.12265      0.00592
  384.25     22.12244     22.12228     -0.00016
  384.50     22.12816     22.12191     -0.00625
  384.75     22.13101     22.12405     -0.00696
  385.00     22.13358     22.12644     -0.00714
  385.25     22.13615     22.12883     -0.00732
  385.50     22.13766     22.13117     -0.00650
  385.75     22.13647     22.13338     -0.00309
  386.00     22.13527     22.13559      0.00032
  386.25     22.13407     22.13780      0.00373
  386.50     22.13403     22.13744      0.00341
  386.75     22.13459     22.13578      0.00120
  387.00     22.13514     22.13413     -0.00101
  387.25     22.13576     22.13255     -0.00321
  387.50     22.13770     22.13255     -0.00515
  387.75     22.13963     22.13255     -0.00709
