~Version Information
VERS. 2.0:
WRAP. NO:

~Well Information
STRT.FT -71.25:
STOP.FT 665.00:
STEP.FT 0.25:
NULL. -999.25:

~Curve Information
DEPT.FT     : Depth below casing
PRETEMP.C   : Pre-pump Temperature
POSTTEMP.C  : Post-pump Temperature (aligned)
DIFFTEMP.C  : Post minus Pre Temperature

~A  DEPT  PRETEMP  POSTTEMP  DIFFTEMP
# ...
  179.25     21.66048     21.64852     -0.01196
  179.50     21.65928     21.64539     -0.01390
  179.75     21.65808     21.64225     -0.01583
  180.00     21.65689     21.63912     -0.01777
  180.25     21.65622     21.63644     -0.01977
  180.50     21.65567     21.63387     -0.02179
  180.75     21.65511     21.63130     -0.02381
  181.00     21.65432     21.62876     -0.02556
  181.25     21.65248     21.62637     -0.02611
  181.50     21.65064     21.62397     -0.02666
  181.75     21.64879     21.62158     -0.02722
  182.00     21.64674     21.62065     -0.02609
  182.25     21.64453     21.62083     -0.02369
  182.50     21.64231     21.62102     -0.02129
  182.75     21.64010     21.62120     -0.01890
  183.00     21.63868     21.61910     -0.01958
  183.25     21.63730     21.61689     -0.02041
  183.50     21.63592     21.61468     -0.02124
  183.75     21.63394     21.61206     -0.02188
  184.00     21.63081     21.60865     -0.02216
  184.25     21.62767     21.60524     -0.02243
  184.50     21.62454     21.60183     -0.02271
  184.75     21.62082     21.59896     -0.02186
  185.00     21.61687     21.59629     -0.02057
  185.25     21.61292     21.59363     -0.01929
  185.50     21.60906     21.59096     -0.01810
  185.75     21.60611     21.58819     -0.01792
  186.00     21.60316     21.58543     -0.01774
  186.25     21.60022     21.58266     -0.01755
  186.50     21.59884     21.57907     -0.01978
  186.75     21.59921     21.57455     -0.02466
  187.00     21.59958     21.57003     -0.02955
  187.25     21.59995     21.56552     -0.03443
  187.50     21.59913     21.56195     -0.03718
  187.75     21.59812     21.55854     -0.03958
  188.00     21.59710     21.55513     -0.04197
  188.25     21.59566     21.55201     -0.04365
  188.50     21.59290     21.54980     -0.04310
  188.75     21.59013     21.54758     -0.04255
  189.00     21.58737     21.54537     -0.04199
  189.25     21.58415     21.54432     -0.03983
  189.50     21.58066     21.54395     -0.03671
  189.75     21.57717     21.54358     -0.03359
  190.00     21.57368     21.54321     -0.03047
  190.25     21.57036     21.54560     -0.02476
  190.50     21.56704     21.54800     -0.01905
  190.75     21.56373     21.55039     -0.01333
  191.00     21.56181     21.55139     -0.01042
  191.25     21.56218     21.55010     -0.01208
  191.50     21.56254     21.54881     -0.01374
  191.75     21.56291     21.54752     -0.01540
  192.00     21.56574     21.54454     -0.02121
  192.25     21.56934     21.54104     -0.02830
  192.50     21.57293     21.53753     -0.03540
  192.75     21.57618     21.53464     -0.04154
  193.00     21.57737     21.53529     -0.04209
  193.25     21.57857     21.53593     -0.04264
  193.50     21.57977     21.53658     -0.04320
  193.75     21.57877     21.53761     -0.04116
  194.00     21.57583     21.53899     -0.03685
  194.25     21.57290     21.54036     -0.03253
  194.50     21.56996     21.54174     -0.02822
  194.75     21.56643     21.54337     -0.02306
  195.00     21.56283     21.54503     -0.01780
  195.25     21.55924     21.54669     -0.01255
  195.50     21.55680     21.54880     -0.00800
  195.75     21.55726     21.55202     -0.00524
  196.00     21.55772     21.55525     -0.00247
  196.25     21.55818     21.55847      0.00029
  196.50     21.56037     21.55862     -0.00174
  196.75     21.56341     21.55724     -0.00617
  197.00     21.56645     21.55586     -0.01059
  197.25     21.56942     21.55439     -0.01503
  197.50     21.57108     21.55135     -0.01973
  197.75     21.57274     21.54830     -0.02443
  198.00     21.57440     21.54526     -0.02914
  198.25     21.57521     21.54351     -0.03171
  198.50     21.57494     21.54341     -0.03152
  198.75     21.57466     21.54332     -0.03134
  199.00     21.57439     21.54323     -0.03116
  199.25     21.57433     21.54202     -0.03231
  199.50     21.57433     21.54055     -0.03378
  199.75     21.57433     21.53907     -0.03526
  200.00     21.57404     21.53777     -0.03626
  200.25     21.57247     21.53722     -0.03525
  200.50     21.57090     21.53667     -0.03423
  200.75     21.56934     21.53612     -0.03322
  201.00     21.56777     21.53688     -0.03089
  201.25     21.56620     21.53863     -0.02757
  201.50     21.56464     21.54038     -0.02425
  201.75     21.56307     21.54214     -0.02093
  202.00     21.56106     21.54292     -0.01814
  202.25     21.55903     21.54365     -0.01538
  202.50     21.55700     21.54439     -0.01261
  202.75     21.55557     21.54522     -0.01035
  203.00     21.55530     21.54623     -0.00906
  203.25     21.55502     21.54724     -0.00778
  203.50     21.55475     21.54825     -0.00649
  203.75     21.55283     21.54887     -0.00396
  204.00     21.55025     21.54933     -0.00092
  204.25     21.54767     21.54979      0.00212
  204.50     21.54522     21.54994      0.00471
  204.75     21.54402     21.54699      0.00296
  205.00     21.54282     21.54404      0.00121
  205.25     21.54163     21.54109     -0.00054
  205.50     21.54091     21.53734     -0.00357
  205.75     21.54073     21.53274     -0.00799
  206.00     21.54054     21.52813     -0.01242
  206.25     21.54036     21.52352     -0.01684
  206.50     21.53803     21.52081     -0.01722
  206.75     21.53536     21.51842     -0.01694
  207.00     21.53268     21.51602     -0.01666
  207.25     21.52968     21.51412     -0.01555
  207.50     21.52564     21.51375     -0.01188
  207.75     21.52160     21.51339     -0.00821
  208.00     21.51756     21.51302     -0.00454
  208.25     21.51407     21.51248     -0.00159
  208.50     21.51094     21.51184      0.00090
  208.75     21.50781     21.51119      0.00339
  209.00     21.50467     21.51055      0.00587
  209.25     21.50163     21.50631      0.00468
  209.50     21.49859     21.50207      0.00348
  209.75     21.49555     21.49783      0.00229
  210.00     21.49212     21.49387      0.00176
  210.25     21.48806     21.49037      0.00231
  210.50     21.48401     21.48687      0.00286
  210.75     21.47995     21.48337      0.00342
  211.00     21.47519     21.47852      0.00333
  211.25     21.47021     21.47327      0.00306
  211.50     21.46523     21.46801      0.00278
  211.75     21.46029     21.46239      0.00211
  212.00     21.45551     21.45468     -0.00083
  212.25     21.45074     21.44697     -0.00377
  212.50     21.44596     21.43925     -0.00671
  212.75     21.44252     21.43296     -0.00956
  213.00     21.44031     21.42798     -0.01232
  213.25     21.43809     21.42301     -0.01509
  213.50     21.43588     21.41803     -0.01785
  213.75     21.43375     21.41605     -0.01771
  214.00     21.43163     21.41439     -0.01724
  214.25     21.42951     21.41273     -0.01678
  214.50     21.42663     21.41078     -0.01585
  214.75     21.42183     21.40811     -0.01373
  215.00     21.41704     21.40543     -0.01161
  215.25     21.41225     21.40276     -0.00949
  215.50     21.40764     21.39978     -0.00786
  215.75     21.40312     21.39664     -0.00648
  216.00     21.39860     21.39351     -0.00510
  216.25     21.39391     21.39042     -0.00349
  216.50     21.38610     21.38813      0.00202
  216.75     21.37830     21.38583      0.00753
  217.00     21.37050     21.38353      0.01304
  217.25     21.36276     21.38030      0.01754
  217.50     21.35511     21.37578      0.02067
  217.75     21.34746     21.37126      0.02381
  218.00     21.33980     21.36675      0.02694
  218.25     21.33893     21.36096      0.02204
  218.50     21.33967     21.35488      0.01521
  218.75     21.34040     21.34880      0.00839
  219.00     21.34084     21.34271      0.00187
  219.25     21.34001     21.33663     -0.00338
  219.50     21.33918     21.33055     -0.00864
  219.75     21.33835     21.32446     -0.01389
  220.00     21.33636     21.32103     -0.01533
  220.25     21.33350     21.31956     -0.01394
  220.50     21.33064     21.31808     -0.01256
  220.75     21.32778     21.31661     -0.01118
