~Version Information
VERS. 2.0:
WRAP. NO:

~Well Information
STRT.FT -71.25:
STOP.FT 665.00:
STEP.FT 0.25:
NULL. -999.25:

~Curve Information
DEPT.FT     : Depth below casing
PRETEMP.C   : Pre-pump Temperature
POSTTEMP.C  : Post-pump Temperature (aligned)
DIFFTEMP.C  : Post minus Pre Temperature

~A  DEPT  PRETEMP  POSTTEMP  DIFFTEMP
# ...
  388.00     22.34252     22.34379      0.00127
  388.25     22.34526     22.34447     -0.00079
  388.50     22.34665     22.34447     -0.00217
  388.75     22.34803     22.34447     -0.00356
  389.00     22.34941     22.34447     -0.00494
  389.25     22.35124     22.34477     -0.00647
  389.50     22.35317     22.34514     -0.00803
  389.75     22.35510     22.34551     -0.00959
  390.00     22.35694     22.34633     -0.01060
  390.25     22.35841     22.34919     -0.00922
  390.50     22.35989     22.35205     -0.00784
  390.75     22.36136     22.35491     -0.00646
  391.00     22.36127     22.35703     -0.00424
  391.25     22.35998     22.35860     -0.00138
  391.50     22.35869     22.36016      0.00148
  391.75     22.35739     22.36173      0.00434
  392.00     22.35567     22.36356      0.00790
  392.25     22.35391     22.36541      0.01149
  392.50     22.35216     22.36725      0.01509
  392.75     22.35302     22.36841      0.01540
  393.00     22.35901     22.36823      0.00922
  393.25     22.36500     22.36804      0.00304
  393.50     22.37099     22.36786     -0.00313
  393.75     22.37954     22.36860     -0.01094
  394.00     22.38909     22.36970     -0.01939
  394.25     22.39864     22.37080     -0.02784
  394.50     22.40752     22.37222     -0.03530
  394.75     22.40964     22.37683     -0.03282
  395.00     22.41176     22.38144     -0.03033
  395.25     22.41388     22.38605     -0.02784
  395.50     22.41430     22.39131     -0.02299
  395.75     22.41283     22.39730     -0.01553
  396.00     22.41135     22.40329     -0.00806
  396.25     22.40988     22.40928     -0.00059
  396.50     22.40967     22.41219      0.00253
  396.75     22.40967     22.41459      0.00492
  397.00     22.40967     22.41699      0.00732
  397.25     22.41000     22.41914      0.00914
  397.50     22.41138     22.42052      0.00914
  397.75     22.41277     22.42190      0.00914
  398.00     22.41415     22.42329      0.00914
  398.25     22.41794     22.42398      0.00604
  398.50     22.42317     22.42425      0.00108
  398.75     22.42840     22.42453     -0.00387
  399.00     22.43364     22.42480     -0.00883
  399.25     22.43944     22.42563     -0.01381
  399.50     22.44525     22.42646     -0.01879
  399.75     22.45106     22.42729     -0.02376
  400.00     22.45592     22.42885     -0.02707
  400.25     22.45924     22.43162     -0.02762
  400.50     22.46256     22.43438     -0.02818
  400.75     22.46588     22.43715     -0.02873
  401.00     22.46540     22.43738     -0.02802
  401.25     22.46374     22.43683     -0.02691
  401.50     22.46208     22.43628     -0.02581
  401.75     22.45990     22.43583     -0.02407
  402.00     22.45465     22.43602     -0.01863
  402.25     22.44939     22.43620     -0.01319
  402.50     22.44414     22.43639     -0.00775
  402.75     22.44220     22.43871     -0.00349
  403.00     22.44321     22.44293     -0.00028
  403.25     22.44422     22.44716      0.00293
  403.50     22.44523     22.45138      0.00615
  403.75     22.44997     22.45512      0.00515
  404.00     22.45514     22.45881      0.00367
  404.25     22.46030     22.46249      0.00220
  404.50     22.46460     22.46470      0.00010
  404.75     22.46672     22.46313     -0.00359
  405.00     22.46884     22.46156     -0.00728
  405.25     22.47096     22.46000     -0.01096
  405.50     22.47210     22.45818     -0.01391
  405.75     22.47274     22.45625     -0.01650
  406.00     22.47339     22.45431     -0.01908
  406.25     22.47409     22.45275     -0.02134
  406.50     22.47584     22.45818     -0.01765
  406.75     22.47759     22.46362     -0.01397
  407.00     22.47934     22.46906     -0.01028
  407.25     22.48085     22.47449     -0.00636
  407.50     22.48205     22.47991     -0.00214
  407.75     22.48324     22.48533      0.00209
  408.00     22.48443     22.49074      0.00631
  408.25     22.48474     22.49351      0.00877
  408.50     22.48483     22.49563      0.01080
  408.75     22.48493     22.49775      0.01282
  409.00     22.48509     22.49951      0.01442
  409.25     22.48555     22.49969      0.01414
  409.50     22.48601     22.49988      0.01387
  409.75     22.48647     22.50006      0.01359
  410.00     22.48756     22.49977      0.01221
  410.25     22.48913     22.49913      0.01000
  410.50     22.49070     22.49848      0.00778
  410.75     22.49226     22.49784      0.00557
  411.00     22.49260     22.49693      0.00433
  411.25     22.49287     22.49600      0.00313
  411.50     22.49315     22.49508      0.00193
  411.75     22.49312     22.49481      0.00170
  412.00     22.49247     22.49582      0.00335
  412.25     22.49183     22.49683      0.00500
  412.50     22.49119     22.49784      0.00666
  412.75     22.49244     22.50003      0.00760
  413.00     22.49446     22.50271      0.00824
  413.25     22.49649     22.50538      0.00889
  413.50     22.49894     22.50790      0.00895
  413.75     22.50558     22.50891      0.00333
  414.00     22.51222     22.50993     -0.00229
  414.25     22.51885     22.51094     -0.00791
  414.50     22.52426     22.51239     -0.01187
  414.75     22.52832     22.51433     -0.01399
  415.00     22.53237     22.51627     -0.01611
  415.25     22.53643     22.51820     -0.01823
  415.50     22.53890     22.52148     -0.01742
  415.75     22.54111     22.52499     -0.01613
  416.00     22.54333     22.52849     -0.01484
  416.25     22.54529     22.53183     -0.01346
  416.50     22.54648     22.53468     -0.01181
  416.75     22.54768     22.53752     -0.01015
  417.00     22.54887     22.54037     -0.00850
  417.25     22.54950     22.54226     -0.00724
  417.50     22.54978     22.54355     -0.00623
  417.75     22.55006     22.54484     -0.00521
  418.00     22.55033     22.54614     -0.00420
  418.25     22.55162     22.54816     -0.00346
  418.50     22.55291     22.55019     -0.00272
  418.75     22.55420     22.55222     -0.00198
  419.00     22.55605     22.55498     -0.00107
  419.25     22.55882     22.55894      0.00013
  419.50     22.56158     22.56291      0.00133
  419.75     22.56435     22.56687      0.00252
  420.00     22.56873     22.57034      0.00161
  420.25     22.57362     22.57366      0.00004
  420.50     22.57850     22.57698     -0.00153
  420.75     22.58307     22.58020     -0.00287
  421.00     22.58583     22.58286     -0.00297
  421.25     22.58858     22.58553     -0.00306
  421.50     22.59134     22.58819     -0.00315
  421.75     22.59233     22.59176     -0.00057
  422.00     22.59169     22.59619      0.00450
  422.25     22.59104     22.60061      0.00957
  422.50     22.59040     22.60504      0.01464
  422.75     22.59200     22.60481      0.01281
  423.00     22.59384     22.60407      0.01023
  423.25     22.59568     22.60333      0.00765
  423.50     22.59829     22.60246      0.00418
  423.75     22.60280     22.60127     -0.00154
  424.00     22.60732     22.60007     -0.00725
  424.25     22.61184     22.59887     -0.01297
  424.50     22.61438     22.60063     -0.01375
  424.75     22.61595     22.60386     -0.01209
  425.00     22.61752     22.60708     -0.01043
  425.25     22.61900     22.61031     -0.00869
  425.50     22.61900     22.61352     -0.00548
  425.75     22.61900     22.61674     -0.00226
  426.00     22.61900     22.61995      0.00095
  426.25     22.62083     22.62165      0.00082
  426.50     22.62516     22.62128     -0.00388
  426.75     22.62949     22.62091     -0.00858
  427.00     22.63383     22.62054     -0.01328
  427.25     22.63638     22.62010     -0.01627
  427.50     22.63850     22.61964     -0.01886
  427.75     22.64062     22.61918     -0.02144
  428.00     22.64186     22.61907     -0.02279
  428.25     22.63937     22.62045     -0.01892
  428.50     22.63688     22.62183     -0.01505
  428.75     22.63439     22.62322     -0.01118
  429.00     22.63233     22.62476     -0.00757
  429.25     22.63058     22.62642     -0.00416
  429.50     22.62883     22.62808     -0.00075
