~Version Information
VERS. 2.0:
WRAP. NO:

~Well Information
STRT.FT -71.25:
STOP.FT 665.00:
STEP.FT 0.25:
NULL. -999.25:

~Curve Information
DEPT.FT     : Depth below casing
PRETEMP.C   : Pre-pump Temperature
POSTTEMP.C  : Post-pump Temperature (aligned)
DIFFTEMP.C  : Post minus Pre Temperature

~A  DEPT  PRETEMP  POSTTEMP  DIFFTEMP
# ...
  346.25     22.13373     22.13346     -0.00028
  346.50     22.13733     22.13530     -0.00203
  346.75     22.13800     22.13689     -0.00111
  347.00     22.13837     22.13846      0.00009
  347.25     22.13874     22.14003      0.00129
  347.50     22.13868     22.14175      0.00307
  347.75     22.13757     22.14387      0.00630
  348.00     22.13647     22.14599      0.00953
  348.25     22.13536     22.14811      0.01275
  348.50     22.13661     22.14924      0.01263
  348.75     22.13899     22.14988      0.01089
  349.00     22.14138     22.15052      0.00914
  349.25     22.14388     22.15128      0.00740
  349.50     22.14886     22.15460      0.00574
  349.75     22.15384     22.15792      0.00408
  350.00     22.15881     22.16124      0.00242
  350.25     22.16265     22.16432      0.00167
  350.50     22.16495     22.16708      0.00213
  350.75     22.16726     22.16985      0.00259
  351.00     22.16956     22.17262      0.00305
  351.25     22.17015     22.17299      0.00284
  351.50     22.17033     22.17281      0.00247
  351.75     22.17052     22.17262      0.00210
  352.00     22.17076     22.17235      0.00159
  352.25     22.17122     22.17170      0.00048
  352.50     22.17168     22.17106     -0.00062
  352.75     22.17214     22.17041     -0.00173
  353.00     22.17095     22.17099      0.00004
  353.25     22.16857     22.17246      0.00389
  353.50     22.16618     22.17393      0.00775
  353.75     22.16379     22.17540      0.01160
  354.00     22.16271     22.17687      0.01416
  354.25     22.16169     22.17835      0.01665
  354.50     22.16068     22.17982      0.01914
  354.75     22.16122     22.18029      0.01906
  355.00     22.16491     22.17872      0.01381
  355.25     22.16860     22.17715      0.00856
  355.50     22.17228     22.17559      0.00330
  355.75     22.17551     22.17521     -0.00030
  356.00     22.17855     22.17530     -0.00325
  356.25     22.18159     22.17539     -0.00620
  356.50     22.18405     22.17600     -0.00805
  356.75     22.18119     22.18135      0.00016
  357.00     22.17834     22.18669      0.00836
  357.25     22.17548     22.19204      0.01656
  357.50     22.17334     22.19680      0.02347
  357.75     22.17196     22.20093      0.02897
  358.00     22.17058     22.20506      0.03448
  358.25     22.16920     22.20920      0.03999
  358.50     22.17309     22.20831      0.03523
  358.75     22.17788     22.20656      0.02868
  359.00     22.18267     22.20481      0.02214
  359.25     22.18733     22.20258      0.01525
  359.50     22.19157     22.19880      0.00723
  359.75     22.19581     22.19502     -0.00079
  360.00     22.20005     22.19124     -0.00881
  360.25     22.20224     22.19038     -0.01186
  360.50     22.20316     22.19130     -0.01186
  360.75     22.20408     22.19222     -0.01186
  361.00     22.20500     22.19315     -0.01185
  361.25     22.20546     22.19684     -0.00862
  361.50     22.20592     22.20053     -0.00540
  361.75     22.20638     22.20421     -0.00217
  362.00     22.20652     22.20790      0.00137
  362.25     22.20616     22.21157      0.00541
  362.50     22.20579     22.21524      0.00945
  362.75     22.20542     22.21891      0.01349
  363.00     22.20561     22.22036      0.01475
  363.25     22.20598     22.22110      0.01512
  363.50     22.20635     22.22184      0.01549
  363.75     22.20713     22.22254      0.01540
  364.00     22.21045     22.22300      0.01255
  364.25     22.21377     22.22346      0.00969
  364.50     22.21709     22.22392      0.00683
  364.75     22.22065     22.22443      0.00378
  365.00     22.22443     22.22498      0.00055
  365.25     22.22821     22.22554     -0.00267
  365.50     22.23199     22.22609     -0.00590
  365.75     22.23334     22.22656     -0.00678
  366.00     22.23444     22.22702     -0.00743
  366.25     22.23555     22.22748     -0.00807
  366.50     22.23537     22.22864     -0.00673
  366.75     22.23206     22.23148     -0.00058
  367.00     22.22876     22.23433      0.00557
  367.25     22.22545     22.23718      0.01172
  367.50     22.22476     22.24101      0.01625
  367.75     22.22541     22.24534      0.01993
  368.00     22.22605     22.24967      0.02362
  368.25     22.22683     22.25393      0.02710
  368.50     22.23033     22.25660      0.02627
  368.75     22.23383     22.25927      0.02544
  369.00     22.23733     22.26195      0.02461
  369.25     22.23969     22.26347      0.02378
  369.50     22.24052     22.26347      0.02295
  369.75     22.24135     22.26347      0.02212
  370.00     22.24218     22.26347      0.02129
  370.25     22.24091     22.26392      0.02301
  370.50     22.23916     22.26448      0.02532
  370.75     22.23741     22.26503      0.02762
  371.00     22.23672     22.26596      0.02924
  371.25     22.24040     22.26844      0.02804
  371.50     22.24407     22.27092      0.02685
  371.75     22.24774     22.27340      0.02566
  372.00     22.25074     22.27458      0.02383
  372.25     22.25323     22.27476      0.02153
  372.50     22.25572     22.27495      0.01923
  372.75     22.25821     22.27513      0.01692
  373.00     22.25790     22.27698      0.01908
  373.25     22.25743     22.27891      0.02148
  373.50     22.25697     22.28085      0.02388
  373.75     22.25728     22.28251      0.02523
  374.00     22.25913     22.28361      0.02449
  374.25     22.26097     22.28472      0.02375
  374.50     22.26281     22.28583      0.02301
  374.75     22.26386     22.28687      0.02300
  375.00     22.26460     22.28788      0.02328
  375.25     22.26534     22.28889      0.02356
  375.50     22.26623     22.28989      0.02366
  375.75     22.26853     22.29072      0.02219
  376.00     22.27082     22.29154      0.02072
  376.25     22.27312     22.29237      0.01925
  376.50     22.27572     22.29263      0.01691
  376.75     22.27867     22.29226      0.01359
  377.00     22.28162     22.29189      0.01027
  377.25     22.28457     22.29153      0.00695
  377.50     22.28776     22.28887      0.00112
  377.75     22.29098     22.28583     -0.00515
  378.00     22.29421     22.28279     -0.01142
  378.25     22.29706     22.28135     -0.01571
  378.50     22.29872     22.28504     -0.01368
  378.75     22.30038     22.28873     -0.01165
  379.00     22.30204     22.29241     -0.00963
  379.25     22.30209     22.29650     -0.00559
  379.50     22.30117     22.30083     -0.00034
  379.75     22.30025     22.30517      0.00492
  380.00     22.29933     22.30946      0.01013
  380.25     22.29850     22.30763      0.00912
  380.50     22.29768     22.30579      0.00811
  380.75     22.29685     22.30395      0.00710
  381.00     22.29730     22.30281      0.00550
  381.25     22.29988     22.30281      0.00292
  381.50     22.30246     22.30281      0.00034
  381.75     22.30505     22.30281     -0.00224
  382.00     22.30777     22.30554     -0.00223
  382.25     22.31053     22.30913     -0.00140
  382.50     22.31330     22.31273     -0.00057
  382.75     22.31593     22.31600      0.00007
  383.00     22.31777     22.31739     -0.00039
  383.25     22.31962     22.31877     -0.00085
  383.50     22.32146     22.32015     -0.00131
  383.75     22.32209     22.32158     -0.00051
  384.00     22.32163     22.32306      0.00143
  384.25     22.32117     22.32453      0.00336
  384.50     22.32071     22.32601      0.00530
  384.75     22.31966     22.32848      0.00882
  385.00     22.31856     22.33105      0.01249
  385.25     22.31746     22.33362      0.01616
  385.50     22.31687     22.33552      0.01865
  385.75     22.31761     22.33571      0.01810
  386.00     22.31835     22.33589      0.01754
  386.25     22.31909     22.33608      0.01699
  386.50     22.32148     22.33687      0.01540
  386.75     22.32470     22.33798      0.01328
  387.00     22.32793     22.33909      0.01116
  387.25     22.33118     22.34020      0.00902
  387.50     22.33496     22.34140      0.00643
  387.75     22.33874     22.34259      0.00385
