~Version Information
VERS. 2.0:
WRAP. NO:

~Well Information
STRT.FT -71.25:
STOP.FT 665.00:
STEP.FT 0.25:
NULL. -999.25:

~Curve Information
DEPT.FT     : Depth below casing
PRETEMP.C   : Pre-pump Temperature
POSTTEMP.C  : Post-pump Temperature (aligned)
DIFFTEMP.C  : Post minus Pre Temperature

~A  DEPT  PRETEMP  POSTTEMP  DIFFTEMP
# ...
   54.00     22.91048     22.86415     -0.04633
   54.25     22.90773     22.86158     -0.04615
   54.50     22.90678     22.86019     -0.04659
   54.75     22.90614     22.85899     -0.04715
   55.00     22.90549     22.85779     -0.04770
   55.25     22.90456     22.85708     -0.04748
   55.50     22.90271     22.85791     -0.04481
   55.75     22.90087     22.85874     -0.04213
   56.00     22.89903     22.85957     -0.03946
   56.25     22.89592     22.86166     -0.03426
   56.50     22.89205     22.86452     -0.02753
   56.75     22.88818     22.86738     -0.02080
   57.00     22.88433     22.87019     -0.01413
   57.25     22.88340     22.86780     -0.01561
   57.50     22.88248     22.86540     -0.01708
   57.75     22.88156     22.86300     -0.01856
   58.00     22.88129     22.85821     -0.02308
   58.25     22.88202     22.84967     -0.03235
   58.50     22.88276     22.84113     -0.04163
   58.75     22.88349     22.83259     -0.05090
   59.00     22.88121     22.82606     -0.05515
   59.25     22.87799     22.82016     -0.05783
   59.50     22.87476     22.81426     -0.06050
   59.75     22.87155     22.80900     -0.06255
   60.00     22.86841     22.80752     -0.06089
   60.25     22.86528     22.80605     -0.05923
   60.50     22.86215     22.80457     -0.05757
   60.75     22.85872     22.80291     -0.05581
   61.00     22.85503     22.80106     -0.05397
   61.25     22.85134     22.79922     -0.05213
   61.50     22.84766     22.79737     -0.05028
   61.75     22.84565     22.79410     -0.05155
   62.00     22.84381     22.79069     -0.05312
   62.25     22.84196     22.78728     -0.05468
   62.50     22.83925     22.78461     -0.05465
   62.75     22.83448     22.78369     -0.05079
   63.00     22.82971     22.78277     -0.04693
   63.25     22.82493     22.78185     -0.04308
   63.50     22.82027     22.78204     -0.03823
   63.75     22.81566     22.78277     -0.03288
   64.00     22.81105     22.78351     -0.02754
   64.25     22.80668     22.78403     -0.02265
   64.50     22.80696     22.78025     -0.02671
   64.75     22.80723     22.77647     -0.03077
   65.00     22.80751     22.77269     -0.03482
   65.25     22.80663     22.76731     -0.03932
   65.50     22.80423     22.75985     -0.04439
   65.75     22.80184     22.75238     -0.04946
   66.00     22.79944     22.74491     -0.05453
   66.25     22.79396     22.73685     -0.05711
   66.50     22.78778     22.72864     -0.05914
   66.75     22.78160     22.72044     -0.06117
   67.00     22.77571     22.71323     -0.06248
   67.25     22.77094     22.71002     -0.06091
   67.50     22.76616     22.70681     -0.05935
   67.75     22.76139     22.70359     -0.05779
   68.00     22.75760     22.70179     -0.05581
   68.25     22.75456     22.70105     -0.05350
   68.50     22.75152     22.70032     -0.05120
   68.75     22.74847     22.69958     -0.04889
   69.00     22.74543     22.69374     -0.05169
   69.25     22.74239     22.68766     -0.05473
   69.50     22.73935     22.68158     -0.05777
   69.75     22.73615     22.67643     -0.05973
   70.00     22.73265     22.67311     -0.05954
   70.25     22.72915     22.66979     -0.05936
   70.50     22.72564     22.66647     -0.05917
   70.75     22.72114     22.66475     -0.05640
   71.00     22.71626     22.66364     -0.05262
   71.25     22.71137     22.66254     -0.04884
   71.50     22.70644     22.66094     -0.04550
   71.75     22.70112     22.65515     -0.04596
   72.00     22.69579     22.64937     -0.04642
   72.25     22.69046     22.64358     -0.04688
   72.50     22.68570     22.63722     -0.04848
   72.75     22.68155     22.63021     -0.05133
   73.00     22.67740     22.62321     -0.05419
   73.25     22.67325     22.61620     -0.05705
   73.50     22.66926     22.61141     -0.05785
   73.75     22.66530     22.60699     -0.05831
   74.00     22.66134     22.60257     -0.05877
   74.25     22.65690     22.59915     -0.05776
   74.50     22.65101     22.59887     -0.05214
   74.75     22.64511     22.59859     -0.04651
   75.00     22.63921     22.59832     -0.04089
   75.25     22.63515     22.59787     -0.03729
   75.50     22.63220     22.59731     -0.03489
   75.75     22.62925     22.59676     -0.03249
   76.00     22.62633     22.59615     -0.03018
   76.25     22.62578     22.58944     -0.03633
   76.50     22.62523     22.58274     -0.04248
   76.75     22.62468     22.57604     -0.04864
   77.00     22.62321     22.56978     -0.05343
   77.25     22.62026     22.56425     -0.05601
   77.50     22.61732     22.55872     -0.05860
   77.75     22.61437     22.55319     -0.06118
   78.00     22.61022     22.55216     -0.05806
   78.25     22.60570     22.55253     -0.05317
   78.50     22.60119     22.55290     -0.04829
   78.75     22.59698     22.55306     -0.04392
   79.00     22.59458     22.55205     -0.04254
   79.25     22.59219     22.55104     -0.04115
   79.50     22.58979     22.55002     -0.03977
   79.75     22.58651     22.54739     -0.03912
   80.00     22.58246     22.54334     -0.03912
   80.25     22.57840     22.53928     -0.03912
   80.50     22.57435     22.53523     -0.03912
   80.75     22.57106     22.53093     -0.04013
   81.00     22.56785     22.52662     -0.04123
   81.25     22.56463     22.52230     -0.04233
   81.50     22.56105     22.51746     -0.04359
   81.75     22.55653     22.51128     -0.04525
   82.00     22.55202     22.50511     -0.04691
   82.25     22.54750     22.49893     -0.04857
   82.50     22.54298     22.49337     -0.04961
   82.75     22.53847     22.48812     -0.05035
   83.00     22.53395     22.48286     -0.05109
   83.25     22.52956     22.47773     -0.05183
   83.50     22.52753     22.47487     -0.05266
   83.75     22.52551     22.47202     -0.05349
   84.00     22.52348     22.46916     -0.05432
   84.25     22.51985     22.46466     -0.05519
   84.50     22.51413     22.45802     -0.05611
   84.75     22.50842     22.45138     -0.05703
   85.00     22.50270     22.44475     -0.05795
   85.25     22.49595     22.43798     -0.05797
   85.50     22.48897     22.43119     -0.05779
   85.75     22.48200     22.42439     -0.05760
   86.00     22.47593     22.41839     -0.05754
   86.25     22.47381     22.41581     -0.05800
   86.50     22.47169     22.41323     -0.05846
   86.75     22.46957     22.41065     -0.05892
   87.00     22.46666     22.40802     -0.05865
   87.25     22.46316     22.40534     -0.05782
   87.50     22.45966     22.40267     -0.05699
   87.75     22.45615     22.40000     -0.05616
   88.00     22.45018     22.39635     -0.05383
   88.25     22.44410     22.39267     -0.05143
   88.50     22.43802     22.38898     -0.04904
   88.75     22.43243     22.38507     -0.04736
   89.00     22.42782     22.38074     -0.04708
   89.25     22.42322     22.37641     -0.04681
   89.50     22.41861     22.37208     -0.04653
   89.75     22.41348     22.36875     -0.04473
   90.00     22.40815     22.36581     -0.04234
   90.25     22.40283     22.36288     -0.03995
   90.50     22.39757     22.35980     -0.03777
   90.75     22.39296     22.35537     -0.03759
   91.00     22.38835     22.35095     -0.03740
   91.25     22.38374     22.34653     -0.03722
   91.50     22.37878     22.34272     -0.03607
   91.75     22.37344     22.33958     -0.03385
   92.00     22.36809     22.33645     -0.03164
   92.25     22.36274     22.33331     -0.02943
   92.50     22.35883     22.32780     -0.03103
   92.75     22.35514     22.32190     -0.03324
   93.00     22.35145     22.31600     -0.03545
   93.25     22.34817     22.30970     -0.03847
   93.50     22.34614     22.30214     -0.04400
   93.75     22.34411     22.29458     -0.04954
   94.00     22.34209     22.28702     -0.05507
   94.25     22.33637     22.28173     -0.05464
   94.50     22.32848     22.27778     -0.05069
   94.75     22.32058     22.27383     -0.04674
   95.00     22.31268     22.26989     -0.04280
   95.25     22.30623     22.26611     -0.04012
   95.50     22.29977     22.26233     -0.03745
