~Version Information
VERS. 2.0:
WRAP. NO:

~Well Information
STRT.FT -71.25:
STOP.FT 665.00:
STEP.FT 0.25:
NULL. -999.25:

~Curve Information
DEPT.FT     : Depth below casing
PRETEMP.C   : Pre-pump Temperature
POSTTEMP.C  : Post-pump Temperature (aligned)
DIFFTEMP.C  : Post minus Pre Temperature

~A  DEPT  PRETEMP  POSTTEMP  DIFFTEMP
# ...
  137.50     22.10544     22.10130     -0.00414
  137.75     22.10450     22.10122     -0.00327
  138.00     22.10358     22.10132     -0.00226
  138.25     22.10265     22.10141     -0.00125
  138.50     22.10181     22.10059     -0.00123
  138.75     22.10117     22.09754     -0.00362
  139.00     22.10052     22.09450     -0.00602
  139.25     22.09988     22.09146     -0.00842
  139.50     22.09607     22.08849     -0.00758
  139.75     22.09075     22.08555     -0.00520
  140.00     22.08542     22.08261     -0.00281
  140.25     22.08013     22.07960     -0.00052
  140.50     22.07552     22.07509     -0.00043
  140.75     22.07091     22.07057     -0.00034
  141.00     22.06630     22.06605     -0.00025
  141.25     22.06402     22.06233     -0.00169
  141.50     22.06485     22.05965     -0.00520
  141.75     22.06568     22.05698     -0.00870
  142.00     22.06651     22.05431     -0.01220
  142.25     22.06547     22.05276     -0.01271
  142.50     22.06399     22.05147     -0.01253
  142.75     22.06252     22.05018     -0.01234
  143.00     22.06011     22.04945     -0.01066
  143.25     22.05384     22.05101     -0.00282
  143.50     22.04757     22.05258      0.00501
  143.75     22.04130     22.05415      0.01285
  144.00     22.03723     22.05433      0.01710
  144.25     22.03475     22.05350      0.01875
  144.50     22.03227     22.05267      0.02040
  144.75     22.02979     22.05185      0.02206
  145.00     22.03089     22.04874      0.01785
  145.25     22.03218     22.04552      0.01334
  145.50     22.03347     22.04229      0.00882
  145.75     22.03357     22.03937      0.00581
  146.00     22.03126     22.03707      0.00581
  146.25     22.02896     22.03476      0.00581
  146.50     22.02665     22.03246      0.00581
  146.75     22.02342     22.03029      0.00686
  147.00     22.01983     22.02817      0.00834
  147.25     22.01623     22.02605      0.00981
  147.50     22.01274     22.02396      0.01122
  147.75     22.01016     22.02221      0.01205
  148.00     22.00758     22.02046      0.01288
  148.25     22.00500     22.01871      0.01371
  148.50     22.00278     22.01638      0.01361
  148.75     22.00094     22.01344      0.01250
  149.00     21.99910     22.01051      0.01140
  149.25     21.99727     22.00757      0.01030
  149.50     21.99787     22.00580      0.00794
  149.75     21.99888     22.00423      0.00535
  150.00     21.99989     22.00267      0.00277
  150.25     22.00128     22.00136      0.00008
  150.50     22.00386     22.00090     -0.00296
  150.75     22.00644     22.00044     -0.00600
  151.00     22.00902     21.99998     -0.00904
  151.25     22.01006     21.99975     -0.01031
  151.50     22.01015     21.99966     -0.01049
  151.75     22.01024     21.99956     -0.01068
  152.00     22.01033     21.99947     -0.01086
  152.25     22.00978     21.99901     -0.01077
  152.50     22.00922     21.99855     -0.01068
  152.75     22.00867     21.99809     -0.01058
  153.00     22.00773     21.99698     -0.01074
  153.25     22.00617     21.99487     -0.01129
  153.50     22.00460     21.99276     -0.01184
  153.75     22.00304     21.99065     -0.01239
  154.00     22.00218     21.98944     -0.01274
  154.25     22.00153     21.98852     -0.01301
  154.50     22.00089     21.98760     -0.01329
  154.75     22.00020     21.98707     -0.01313
  155.00     21.99928     21.98891     -0.01037
  155.25     21.99836     21.99076     -0.00760
  155.50     21.99744     21.99260     -0.00484
  155.75     21.99865     21.99405     -0.00459
  156.00     22.00178     21.99516     -0.00662
  156.25     22.00492     21.99627     -0.00865
  156.50     22.00805     21.99737     -0.01068
  156.75     22.00775     21.99630     -0.01145
  157.00     22.00710     21.99501     -0.01209
  157.25     22.00646     21.99372     -0.01274
  157.50     22.00444     21.99181     -0.01263
  157.75     21.99911     21.98841     -0.01070
  158.00     21.99379     21.98501     -0.00877
  158.25     21.98846     21.98162     -0.00684
  158.50     21.98245     21.97876     -0.00369
  158.75     21.97609     21.97618      0.00009
  159.00     21.96973     21.97360      0.00387
  159.25     21.96363     21.97120      0.00756
  159.50     21.96289     21.97239      0.00950
  159.75     21.96216     21.97359      0.01144
  160.00     21.96142     21.97479      0.01337
  160.25     21.96211     21.97694      0.01483
  160.50     21.96469     21.98035      0.01566
  160.75     21.96727     21.98376      0.01649
  161.00     21.96985     21.98717      0.01732
  161.25     21.96966     21.98736      0.01770
  161.50     21.96883     21.98680      0.01797
  161.75     21.96800     21.98625      0.01825
  162.00     21.96688     21.98531      0.01844
  162.25     21.96458     21.98284      0.01825
  162.50     21.96229     21.98036      0.01807
  162.75     21.95999     21.97788      0.01789
  163.00     21.95774     21.97429      0.01655
  163.25     21.95553     21.96987      0.01434
  163.50     21.95332     21.96544      0.01213
  163.75     21.95111     21.96102      0.00991
  164.00     21.94898     21.95879      0.00981
  164.25     21.94686     21.95667      0.00981
  164.50     21.94474     21.95455      0.00981
  164.75     21.94327     21.95336      0.01008
  165.00     21.94309     21.95400      0.01091
  165.25     21.94290     21.95465      0.01174
  165.50     21.94272     21.95529      0.01257
  165.75     21.94452     21.95328      0.00876
  166.00     21.94710     21.95024      0.00314
  166.25     21.94969     21.94720     -0.00248
  166.50     21.95186     21.94432     -0.00754
  166.75     21.95048     21.94285     -0.00763
  167.00     21.94910     21.94138     -0.00772
  167.25     21.94773     21.93991     -0.00781
  167.50     21.94395     21.93910     -0.00485
  167.75     21.93750     21.93900      0.00151
  168.00     21.93105     21.93891      0.00787
  168.25     21.92459     21.93882      0.01423
  168.50     21.92280     21.93612      0.01332
  168.75     21.92178     21.93299      0.01120
  169.00     21.92077     21.92985      0.00908
  169.25     21.92015     21.92714      0.00699
  169.50     21.92080     21.92576      0.00496
  169.75     21.92145     21.92438      0.00293
  170.00     21.92209     21.92299      0.00090
  170.25     21.92078     21.92161      0.00083
  170.50     21.91829     21.92023      0.00194
  170.75     21.91580     21.91884      0.00304
  171.00     21.91332     21.91745      0.00414
  171.25     21.91111     21.91497      0.00386
  171.50     21.90891     21.91250      0.00359
  171.75     21.90671     21.91002      0.00331
  172.00     21.90377     21.90771      0.00394
  172.25     21.89962     21.90568      0.00606
  172.50     21.89547     21.90365      0.00818
  172.75     21.89132     21.90162      0.01030
  173.00     21.88998     21.90072      0.01074
  173.25     21.88952     21.90017      0.01064
  173.50     21.88906     21.89961      0.01055
  173.75     21.88861     21.89858      0.00997
  174.00     21.88824     21.89471      0.00646
  174.25     21.88788     21.89084      0.00296
  174.50     21.88751     21.88696     -0.00054
  174.75     21.88563     21.88114     -0.00448
  175.00     21.88240     21.87359     -0.00882
  175.25     21.87918     21.86603     -0.01315
  175.50     21.87595     21.85847     -0.01748
  175.75     21.87139     21.85261     -0.01878
  176.00     21.86671     21.84692     -0.01979
  176.25     21.86203     21.84123     -0.02080
  176.50     21.85760     21.83766     -0.01994
  176.75     21.85382     21.83950     -0.01432
  177.00     21.85004     21.84135     -0.00870
  177.25     21.84626     21.84319     -0.00307
  177.50     21.84463     21.84534      0.00071
  177.75     21.84408     21.84764      0.00357
  178.00     21.84353     21.84995      0.00642
  178.25     21.84299     21.85195      0.00896
  178.50     21.84281     21.84817      0.00537
  178.75     21.84262     21.84439      0.00177
  179.00     21.84244     21.84061     -0.00182
