~Version Information
VERS. 2.0:
WRAP. NO:

~Well Information
STRT.FT -71.25:
STOP.FT 665.00:
STEP.FT 0.25:
NULL. -999.25:

~Curve Information
DEPT.FT     : Depth below casing
PRETEMP.C   : Pre-pump Temperature
POSTTEMP.C  : Post-pump Temperature (aligned)
DIFFTEMP.C  : Post minus Pre Temperature

~A  DEPT  PRETEMP  POSTTEMP  DIFFTEMP
# ...
  304.50     21.87964     21.87968      0.00004
  304.75     21.87863     21.87811     -0.00052
  305.00     21.87786     21.87665     -0.00121
  305.25     21.87749     21.87536     -0.00213
  305.50     21.87712     21.87407     -0.00305
  305.75     21.87675     21.87278     -0.00398
  306.00     21.87772     21.87536     -0.00236
  306.25     21.87911     21.87914      0.00003
  306.50     21.88049     21.88292      0.00243
  306.75     21.88184     21.88663      0.00479
  307.00     21.88304     21.88995      0.00691
  307.25     21.88424     21.89327      0.00903
  307.50     21.88544     21.89658      0.01115
  307.75     21.88639     21.89780      0.01141
  308.00     21.88712     21.89716      0.01003
  308.25     21.88786     21.89651      0.00865
  308.50     21.88859     21.89587      0.00728
  308.75     21.89000     21.89597      0.00598
  309.00     21.89147     21.89616      0.00469
  309.25     21.89295     21.89634      0.00340
  309.50     21.89455     21.89689      0.00234
  309.75     21.89649     21.89837      0.00188
  310.00     21.89842     21.89984      0.00142
  310.25     21.90036     21.90132      0.00096
  310.50     21.90168     21.90255      0.00087
  310.75     21.90269     21.90365      0.00096
  311.00     21.90371     21.90476      0.00105
  311.25     21.90491     21.90587      0.00097
  311.50     21.90952     21.90716     -0.00235
  311.75     21.91413     21.90845     -0.00567
  312.00     21.91873     21.90975     -0.00899
  312.25     21.92185     21.91187     -0.00998
  312.50     21.92305     21.91509     -0.00796
  312.75     21.92424     21.91830     -0.00594
  313.00     21.92543     21.92151     -0.00392
  313.25     21.92247     21.92348      0.00100
  313.50     21.91851     21.92514      0.00663
  313.75     21.91455     21.92679      0.01225
  314.00     21.91151     21.92795      0.01644
  314.25     21.91243     21.92693      0.01450
  314.50     21.91335     21.92592      0.01257
  314.75     21.91427     21.92491      0.01063
  315.00     21.91826     21.92463      0.00637
  315.25     21.92453     21.92491      0.00038
  315.50     21.93080     21.92518     -0.00561
  315.75     21.93706     21.92546     -0.01160
  316.00     21.94024     21.92759     -0.01265
  316.25     21.94329     21.92980     -0.01348
  316.50     21.94633     21.93201     -0.01431
  316.75     21.94752     21.93532     -0.01220
  317.00     21.94513     21.94074     -0.00440
  317.25     21.94275     21.94615      0.00341
  317.50     21.94036     21.95157      0.01121
  317.75     21.93967     21.95753      0.01786
  318.00     21.93967     21.96370      0.02404
  318.25     21.93967     21.96988      0.03021
  318.50     21.94019     21.97561      0.03542
  318.75     21.94572     21.97709      0.03137
  319.00     21.95125     21.97856      0.02731
  319.25     21.95678     21.98004      0.02326
  319.50     21.96293     21.98120      0.01828
  319.75     21.96975     21.98203      0.01228
  320.00     21.97657     21.98286      0.00629
  320.25     21.98339     21.98369      0.00030
  320.50     21.98703     21.98412     -0.00291
  320.75     21.99017     21.98449     -0.00568
  321.00     21.99330     21.98486     -0.00844
  321.25     21.99578     21.98550     -0.01028
  321.50     21.99624     21.98697     -0.00927
  321.75     21.99670     21.98844     -0.00826
  322.00     21.99716     21.98991     -0.00725
  322.25     21.99682     21.99223     -0.00459
  322.50     21.99599     21.99509     -0.00091
  322.75     21.99516     21.99795      0.00278
  323.00     21.99433     22.00080      0.00647
  323.25     21.99516     22.00099      0.00583
  323.50     21.99599     22.00117      0.00518
  323.75     21.99682     22.00136      0.00454
  324.00     21.99829     22.00105      0.00276
  324.25     22.00077     21.99994     -0.00083
  324.50     22.00326     21.99884     -0.00443
  324.75     22.00575     21.99773     -0.00802
  325.00     22.00760     21.99995     -0.00766
  325.25     22.00926     22.00317     -0.00609
  325.50     22.01092     22.00640     -0.00453
  325.75     22.01232     22.00990     -0.00242
  326.00     22.01223     22.01495      0.00272
  326.25     22.01214     22.02000      0.00786
  326.50     22.01204     22.02505      0.01300
  326.75     22.01157     22.02824      0.01667
  327.00     22.01074     22.02971      0.01897
  327.25     22.00991     22.03119      0.02128
  327.50     22.00908     22.03266      0.02358
  327.75     22.01050     22.02764      0.01714
  328.00     22.01216     22.02193      0.00977
  328.25     22.01382     22.01621      0.00240
  328.50     22.01672     22.01174     -0.00498
  328.75     22.02271     22.01036     -0.01235
  329.00     22.02870     22.00898     -0.01973
  329.25     22.03470     22.00759     -0.02710
  329.50     22.03821     22.00912     -0.02909
  329.75     22.04052     22.01207     -0.02845
  330.00     22.04282     22.01502     -0.02780
  330.25     22.04495     22.01807     -0.02689
  330.50     22.04413     22.02284     -0.02129
  330.75     22.04330     22.02762     -0.01569
  331.00     22.04248     22.03239     -0.01008
  331.25     22.04266     22.03631     -0.00635
  331.50     22.04423     22.03908     -0.00515
  331.75     22.04580     22.04184     -0.00396
  332.00     22.04737     22.04461     -0.00276
  332.25     22.04871     22.04499     -0.00372
  332.50     22.05000     22.04481     -0.00519
  332.75     22.05129     22.04462     -0.00667
  333.00     22.05230     22.04465     -0.00765
  333.25     22.05211     22.04557     -0.00654
  333.50     22.05193     22.04649     -0.00544
  333.75     22.05174     22.04741     -0.00433
  334.00     22.05156     22.04797     -0.00360
  334.25     22.05138     22.04824     -0.00313
  334.50     22.05119     22.04852     -0.00267
  334.75     22.05101     22.04879     -0.00221
  335.00     22.05250     22.04933     -0.00316
  335.25     22.05406     22.04989     -0.00417
  335.50     22.05562     22.05044     -0.00518
  335.75     22.05712     22.05178     -0.00535
  336.00     22.05850     22.05473     -0.00378
  336.25     22.05989     22.05768     -0.00221
  336.50     22.06127     22.06063     -0.00064
  336.75     22.06291     22.06436      0.00145
  337.00     22.06467     22.06842      0.00375
  337.25     22.06642     22.07248      0.00606
  337.50     22.06841     22.07640      0.00799
  337.75     22.07265     22.07907      0.00642
  338.00     22.07689     22.08174      0.00485
  338.25     22.08113     22.08442      0.00329
  338.50     22.08409     22.08620      0.00212
  338.75     22.08565     22.08703      0.00138
  339.00     22.08722     22.08786      0.00064
  339.25     22.08879     22.08869     -0.00009
  339.50     22.08900     22.08809     -0.00091
  339.75     22.08900     22.08727     -0.00173
  340.00     22.08900     22.08644     -0.00256
  340.25     22.08896     22.08628     -0.00268
  340.50     22.08877     22.08831     -0.00046
  340.75     22.08859     22.09034      0.00175
  341.00     22.08840     22.09236      0.00396
  341.25     22.08998     22.09542      0.00543
  341.50     22.09266     22.09910      0.00645
  341.75     22.09533     22.10279      0.00746
  342.00     22.09801     22.10648      0.00847
  342.25     22.10464     22.10841      0.00377
  342.50     22.11128     22.11035     -0.00094
  342.75     22.11792     22.11228     -0.00564
  343.00     22.12278     22.11436     -0.00842
  343.25     22.12481     22.11666     -0.00814
  343.50     22.12684     22.11897     -0.00787
  343.75     22.12886     22.12127     -0.00759
  344.00     22.12792     22.12322     -0.00470
  344.25     22.12609     22.12505     -0.00103
  344.50     22.12425     22.12689      0.00264
  344.75     22.12274     22.12849      0.00574
  345.00     22.12330     22.12858      0.00528
  345.25     22.12385     22.12867      0.00482
  345.50     22.12440     22.12876      0.00436
  345.75     22.12654     22.12977      0.00322
  346.00     22.13014     22.13161      0.00147
