~Version Information
VERS. 2.0:
WRAP. NO:

~Well Information
STRT.FT -71.25:
STOP.FT 665.00:
STEP.FT 0.25:
NULL. -999.25:

~Curve Information
DEPT.FT     : Depth below casing
PRETEMP.C   : Pre-pump Temperature
POSTTEMP.C  : Post-pump Temperature (aligned)
DIFFTEMP.C  : Post minus Pre Temperature

~A  DEPT  PRETEMP  POSTTEMP  DIFFTEMP
# ...
  -29.50     15.40925     32.51373     17.10448
  -29.25     15.39920     32.72224     17.32303
  -29.00     15.38916     32.93074     17.54159
  -28.75     15.49678     33.19044     17.69366
  -28.50     15.63046     33.46148     17.83102
  -28.25     15.76415     33.73252     17.96838
  -28.00     15.92354     33.86767     17.94413
  -27.75     16.19380     33.41674     17.22293
  -27.50     16.46407     32.96580     16.50174
  -27.25     16.73433     32.51487     15.78054
  -27.00     16.88385     31.98111     15.09726
  -26.75     16.94303     31.38537     14.44234
  -26.50     17.00221     30.78962     13.78742
  -26.25     17.06138     30.19388     13.13250
  -26.00     16.88603     30.22340     13.33737
  -25.75     16.69984     30.28184     13.58201
  -25.50     16.51364     30.34028     13.82665
  -25.25     16.33170     30.47760     14.14591
  -25.00     16.15803     30.76833     14.61029
  -24.75     15.98437     31.05906     15.07468
  -24.50     15.81071     31.34978     15.53907
  -24.25     15.71033     31.54471     15.83438
  -24.00     15.63798     31.70300     16.06502
  -23.75     15.56563     31.86129     16.29566
  -23.50     15.50183     32.03432     16.53249
  -23.25     15.52156     32.35122     16.82966
  -23.00     15.54128     32.66813     17.12684
  -22.75     15.56101     32.98503     17.42402
  -22.50     15.66431     33.21982     17.55551
  -22.25     15.85935     33.36444     17.50509
  -22.00     16.05440     33.50907     17.45467
  -21.75     16.24945     33.65370     17.40425
  -21.50     16.44981     33.18403     16.73422
  -21.25     16.65103     32.61475     15.96371
  -21.00     16.85226     32.04546     15.19320
  -20.75     16.98441     31.51730     14.53289
  -20.50     16.90283     31.11642     14.21359
  -20.25     16.82126     30.71555     13.89429
  -20.00     16.73968     30.31467     13.57499
  -19.75     16.56922     30.42958     13.86036
  -19.50     16.34610     30.85000     14.50390
  -19.25     16.12299     31.27043     15.14744
  -19.00     15.89988     31.69085     15.79097
  -18.75     15.78761     32.13877     16.35116
  -18.50     15.67562     32.58675     16.91113
  -18.25     15.56362     33.03473     17.47111
  -18.00     15.49479     33.31086     17.81607
  -17.75     15.49599     33.30819     17.81220
  -17.50     15.49719     33.30551     17.80833
  -17.25     15.49839     33.30284     17.80445
  -17.00     15.53844     33.43290     17.89445
  -16.75     15.59043     33.60370     18.01327
  -16.50     15.64242     33.77451     18.13209
  -16.25     15.71657     33.92472     18.20815
  -16.00     15.91743     33.95726     18.03983
  -15.75     16.11828     33.98980     17.87152
  -15.50     16.31914     34.02234     17.70320
  -15.25     16.49815     33.68027     17.18212
  -15.00     16.65800     33.00955     16.35155
  -14.75     16.81785     32.33884     15.52099
  -14.50     16.97770     31.66812     14.69042
  -14.25     16.88406     31.11553     14.23148
  -14.00     16.76293     30.57574     13.81281
  -13.75     16.64181     30.03595     13.39414
  -13.50     16.49385     29.70198     13.20813
  -13.25     16.27890     29.88182     13.60292
  -13.00     16.06394     30.06166     13.99772
  -12.75     15.84898     30.24149     14.39251
  -12.50     15.69206     30.61890     14.92684
  -12.25     15.56375     31.09370     15.52995
  -12.00     15.43544     31.56851     16.13307
  -11.75     15.31197     32.02607     16.71410
  -11.50     15.27399     32.17890     16.90491
  -11.25     15.23601     32.33173     17.09571
  -11.00     15.19803     32.48456     17.28652
  -10.75     15.18008     32.59058     17.41050
  -10.50     15.18788     32.63640     17.44851
  -10.25     15.19569     32.68222     17.48653
  -10.00     15.20349     32.72803     17.52454
   -9.75     15.34022     32.83416     17.49395
   -9.50     15.50780     32.95473     17.44694
   -9.25     15.67537     33.07530     17.39993
   -9.00     15.86383     33.10592     17.24208
   -8.75     16.14092     32.75472     16.61380
   -8.50     16.41800     32.40353     15.98552
   -8.25     16.69509     32.05233     15.35724
   -8.00     16.84196     31.60217     14.76020
   -7.75     16.89239     31.07869     14.18631
   -7.50     16.94281     30.55522     13.61241
   -7.25     16.99323     30.03174     13.03852
   -7.00     16.78812     30.11207     13.32396
   -6.75     16.57187     30.21872     13.64685
   -6.50     16.35562     30.32537     13.96975
   -6.25     16.13429     30.59875     14.46445
   -6.00     15.90319     31.19289     15.28969
   -5.75     15.67209     31.78703     16.11493
   -5.50     15.44099     32.38117     16.94018
   -5.25     15.29877     32.82120     17.52242
   -5.00     15.19259     33.19876     18.00617
   -4.75     15.08640     33.57632     18.48992
   -4.50     14.99150     33.91515     18.92364
   -4.25     15.00376     33.88648     18.88272
   -4.00     15.01602     33.85781     18.84179
   -3.75     15.02828     33.82914     18.80086
   -3.50     15.07092     33.76192     18.69100
   -3.25     15.14660     33.65278     18.50618
   -3.00     15.22228     33.54365     18.32137
   -2.75     15.29796     33.43451     18.13655
   -2.50     15.36934     33.33762     17.96828
   -2.25     15.44004     33.24268     17.80264
   -2.00     15.51074     33.14773     17.63699
   -1.75     15.62669     32.94711     17.32042
   -1.50     15.88084     32.42376     16.54293
   -1.25     16.13498     31.90041     15.76543
   -1.00     16.38913     31.37706     14.98793
   -0.75     16.95579     30.53061     13.57482
   -0.50     17.71708     29.48292     11.76584
   -0.25     18.47837     28.43523      9.95686
    0.00     19.23967     27.38755      8.14788
    0.25     20.12273     26.61215      6.48942
    0.50     21.00578     25.83675      4.83097
    0.75     21.88884     25.06136      3.17252
    1.00     22.62852     24.53501      1.90649
    1.25     23.13799     24.40854      1.27056
    1.50     23.64745     24.28208      0.63463
    1.75     24.15691     24.15561     -0.00131
    2.00     24.41408     24.22229     -0.19178
    2.25     24.59484     24.34747     -0.24737
    2.50     24.77560     24.47265     -0.30295
    2.75     24.93784     24.59348     -0.34435
    3.00     24.99623     24.68998     -0.30625
    3.25     25.05463     24.78648     -0.26815
    3.50     25.11302     24.88298     -0.23004
    3.75     25.15680     24.95375     -0.20305
    4.00     25.18712     25.00085     -0.18627
    4.25     25.21745     25.04795     -0.16950
    4.50     25.24778     25.09505     -0.15272
    4.75     25.26751     25.12231     -0.14520
    5.00     25.28613     25.14748     -0.13866
    5.25     25.30475     25.17264     -0.13211
    5.50     25.32090     25.19334     -0.12756
    5.75     25.33095     25.20302     -0.12793
    6.00     25.34099     25.21269     -0.12830
    6.25     25.35104     25.22237     -0.12867
    6.50     25.35650     25.22604     -0.13046
    6.75     25.35973     25.22678     -0.13295
    7.00     25.36295     25.22752     -0.13544
    7.25     25.36550     25.22780     -0.13770
    7.50     25.35650     25.22036     -0.13614
    7.75     25.34750     25.21292     -0.13458
    8.00     25.33850     25.20548     -0.13302
    8.25     25.32541     25.19462     -0.13079
    8.50     25.30679     25.17914     -0.12765
    8.75     25.28817     25.16365     -0.12452
    9.00     25.26955     25.14816     -0.12139
    9.25     25.24832     25.12895     -0.11937
    9.50     25.22647     25.10885     -0.11762
    9.75     25.20463     25.08876     -0.11587
   10.00     25.18202     25.06856     -0.11346
   10.25     25.15621     25.04791     -0.10830
   10.50     25.13040     25.02726     -0.10313
   10.75     25.10459     25.00662     -0.09797
   11.00     25.07670     24.98299     -0.09371
   11.25     25.04730     24.95718     -0.09012
   11.50     25.01789     24.93137     -0.08652
   11.75     24.98849     24.90556     -0.08293
   12.00     24.96105     24.87694     -0.08411
