~Version Information
VERS. 2.0:
WRAP. NO:

~Well Information
STRT.FT -172.57:
STOP.FT 709.27:
STEP.FT 0.863:
NULL. -999.25:

~Curve Information
DEPT.FT     : Depth below casing
DAS_VAR.NM  : DAS Amplitude Variance
DAS_RMS.NM  : DAS RMS Amplitude
DAS_STD.NM  : DAS Standard Deviation
DAS_MEAN.NM : DAS Mean Amplitude
DAS_MAX.NM  : DAS Maximum Absolute Amplitude

~A  DEPT  DAS_VAR  DAS_RMS  DAS_STD  DAS_MEAN  DAS_MAX
# ...
  366.72    0.03716    0.20609    0.19277   -0.07307    0.94447
  367.58    0.03546    0.20163    0.18831   -0.07226    0.82833
  368.44    0.03470    0.20008    0.18628   -0.07321    0.73694
  369.30    0.03558    0.20217    0.18863   -0.07294    0.64786
  370.17    0.03588    0.20311    0.18943   -0.07347    0.78237
  371.03    0.03762    0.20726    0.19395   -0.07330    0.82250
  371.89    0.03872    0.21013    0.19678   -0.07391    0.86544
  372.76    0.04200    0.21774    0.20493   -0.07381    1.28999
  373.62    0.04424    0.22293    0.21032   -0.07415    1.80910
  374.48    0.04549    0.22564    0.21327   -0.07393    1.81709
  375.34    0.04381    0.22195    0.20931   -0.07406    1.75299
  376.21    0.04236    0.21842    0.20581   -0.07339    1.79377
  377.07    0.04352    0.22094    0.20862   -0.07298    1.98065
  377.93    0.04249    0.21830    0.20614   -0.07210    1.81698
  378.80    0.04523    0.22445    0.21267   -0.07202    1.91712
  379.66    0.04511    0.22413    0.21238   -0.07184    2.17562
  380.52    0.04413    0.22206    0.21008   -0.07221    1.87718
  381.38    0.04239    0.21855    0.20588   -0.07356    1.45989
  382.25    0.04092    0.21514    0.20230   -0.07343    1.37089
  383.11    0.03986    0.21259    0.19965   -0.07326    1.07572
  383.97    0.04003    0.21320    0.20007   -0.07388    1.12281
  384.84    0.04246    0.21903    0.20606   -0.07449    1.51858
  385.70    0.04630    0.22756    0.21518   -0.07428    1.89254
  386.56    0.06615    0.26743    0.25719   -0.07367    3.94558
  387.42    0.07101    0.27620    0.26648   -0.07305    4.04985
  388.29    0.06677    0.26849    0.25840   -0.07328    3.31553
  389.15    0.06459    0.26409    0.25414   -0.07216    1.85483
  390.01    0.06456    0.26454    0.25409   -0.07397    1.88332
  390.88    0.06585    0.26685    0.25662   -0.07354    2.74638
  391.74    0.06977    0.27372    0.26413   -0.07221    3.35399
  392.60    0.06592    0.26695    0.25675   -0.07344    3.30864
  393.46    0.06620    0.26732    0.25729   -0.07290    3.82093
  394.33    0.06719    0.26903    0.25921   -0.07238    3.93028
  395.19    0.06618    0.26717    0.25725   -0.07250    4.07109
  396.05    0.06010    0.25543    0.24516   -0.07206    3.60892
  396.92    0.06067    0.25654    0.24631   -0.07206    3.95444
  397.78    0.05804    0.25104    0.24091   -0.07093    3.33643
  398.64    0.05809    0.25061    0.24103   -0.06898    3.40327
  399.50    0.05574    0.24532    0.23609   -0.06702    3.22191
  400.37    0.04392    0.21932    0.20958   -0.06489    2.70120
  401.23    0.03753    0.20336    0.19372   -0.06209    2.12478
  402.09    0.03641    0.19999    0.19082   -0.06013    2.00022
  402.96    0.03339    0.19145    0.18272   -0.05741    1.56151
  403.82    0.03303    0.18999    0.18175   -0.05559    1.42770
  404.68    0.03145    0.18553    0.17735   -0.05470    1.40807
  405.54    0.02807    0.17545    0.16754   -0.05230    1.43336
  406.41    0.02679    0.17147    0.16366   -0.05136    1.36235
  407.27    0.03321    0.19026    0.18224   -0.05489    2.05691
  408.13    0.03606    0.19821    0.18990   -0.05705    2.36201
  409.00    0.03194    0.18756    0.17873   -0.05709    1.75447
  409.86    0.04186    0.21187    0.20460   -0.05533    3.00789
  410.72    0.03413    0.19112    0.18475   -0.04918    2.24000
  411.58    0.03655    0.19606    0.19117   -0.04385    2.48066
  412.45    0.03741    0.19740    0.19342   -0.03982    2.80691
  413.31    0.05383    0.23597    0.23202   -0.04346    4.15732
  414.17    0.05619    0.24262    0.23704   -0.05215    4.37225
  415.04    0.05985    0.25188    0.24465   -0.06030    3.98004
  415.90    0.06241    0.25802    0.24982   -0.06492    3.76874
  416.76    0.06024    0.25440    0.24544   -0.06728    3.74670
  417.62    0.05151    0.23782    0.22697   -0.07131    2.83825
  418.49    0.05037    0.23563    0.22443   -0.07205    2.99833
  419.35    0.04761    0.22973    0.21821   -0.07211    2.75393
  420.21    0.04619    0.22674    0.21492   -0.07251    2.64595
  421.08    0.04334    0.22035    0.20817   -0.07247    2.36939
  421.94    0.04611    0.22663    0.21472   -0.07275    2.74851
  422.80    0.03805    0.20823    0.19506   -0.07309    1.42139
  423.66    0.03703    0.20569    0.19244   -0.07283    1.04323
  424.53    0.03730    0.20625    0.19312   -0.07260    1.01563
  425.39    0.03829    0.20892    0.19567   -0.07343    1.23628
  426.25    0.04003    0.21253    0.20008   -0.07192    1.81788
  427.12    0.04148    0.21605    0.20366   -0.07235    2.02526
  427.98    0.04066    0.21406    0.20164   -0.07208    2.15528
  428.84    0.03955    0.21146    0.19886   -0.07212    1.53857
  429.70    0.03813    0.20818    0.19527   -0.07238    1.09980
  430.57    0.03640    0.20374    0.19079   -0.07169    1.01633
  431.43    0.03779    0.20660    0.19439   -0.07019    1.04116
  432.29    0.04071    0.21298    0.20176   -0.06845    0.95735
  433.16    0.04211    0.21562    0.20520   -0.06646    1.09036
  434.02    0.04327    0.21789    0.20800   -0.06514    1.05875
  434.88    0.04438    0.21948    0.21066   -0.06187    0.95622
  435.74    0.03307    0.18826    0.18184   -0.04902    0.88626
  436.61    0.02853    0.17553    0.16890   -0.04804    0.83450
  437.47    0.03261    0.18834    0.18059   -0.05372    0.78963
  438.33    0.03351    0.19201    0.18305   -0.05820    0.78136
  439.20    0.03427    0.19561    0.18513   -0.06337    1.57210
  440.06    0.03912    0.20874    0.19779   -0.06696    2.10309
  440.92    0.04201    0.21597    0.20497   -0.06829    2.42348
  441.78    0.03678    0.20391    0.19177   -0.06951    1.58236
  442.65    0.03321    0.19481    0.18224   -0.06901    0.95737
  443.51    0.03370    0.19607    0.18358   -0.06904    0.70014
  444.37    0.03653    0.20267    0.19113   -0.06762    0.70382
  445.24    0.04057    0.21260    0.20143   -0.06824    0.86631
  446.10    0.04036    0.21190    0.20090   -0.06762    0.97829
  446.96    0.04000    0.21073    0.20000   -0.06660    1.46543
  447.82    0.04230    0.21583    0.20567   -0.06568    2.24585
  448.69    0.05176    0.23674    0.22752   -0.06575    3.62340
  449.55    0.06420    0.26221    0.25337   -0.06787    4.21278
  450.41    0.05571    0.24579    0.23604   -0.06887    3.35874
  451.28    0.04985    0.23348    0.22327   -0.06859    2.96202
  452.14    0.04915    0.23207    0.22169   -0.06891    2.54823
  453.00    0.05378    0.24203    0.23191   -0.06954    2.92519
  453.86    0.05264    0.23958    0.22943   -0.06931    3.05109
  454.73    0.05953    0.25361    0.24399   -0.06955    3.17881
  455.59    0.05696    0.24850    0.23865   -0.06957    3.24785
  456.45    0.05429    0.24299    0.23299   -0.06928    3.23243
  457.32    0.05021    0.23472    0.22408   -0.07015    2.83179
  458.18    0.05697    0.24889    0.23869   -0.07083    3.36656
  459.04    0.04910    0.23191    0.22158   -0.06872    3.16741
  459.90    0.04569    0.22313    0.21375   -0.06430    2.87587
  460.77    0.04360    0.21672    0.20880   -0.05835    2.87217
  461.63    0.04790    0.22573    0.21887   -0.05558    3.52685
  462.49    0.05257    0.23608    0.22928   -0.05665    3.61783
  463.36    0.05678    0.24548    0.23829   -0.05936    3.90049
  464.22    0.07340    0.27780    0.27093   -0.06190    4.74206
  465.08    0.07345    0.27865    0.27102   -0.06520    5.14708
  465.94    0.06893    0.27067    0.26255   -0.06620    3.91734
  466.81    0.08055    0.29118    0.28381   -0.06560    4.85513
  467.67    0.06917    0.27119    0.26300   -0.06657    4.37480
  468.53    0.08507    0.29857    0.29167   -0.06435    5.46858
  469.40    0.06832    0.26940    0.26137   -0.06570    4.12723
  470.26    0.05788    0.24964    0.24058   -0.06701    3.65119
  471.12    0.05643    0.24784    0.23754   -0.07101    3.38002
  471.98    0.05115    0.23737    0.22616   -0.07238    2.74693
  472.85    0.04516    0.22466    0.21250   -0.07315    2.28679
  473.71    0.04078    0.21476    0.20195   -0.07329    1.70468
