~Version Information
VERS. 2.0:
WRAP. NO:

~Well Information
STRT.FT -172.57:
STOP.FT 709.27:
STEP.FT 0.863:
NULL. -999.25:

~Curve Information
DEPT.FT     : Depth below casing
DAS_VAR.NM  : DAS Amplitude Variance
DAS_RMS.NM  : DAS RMS Amplitude
DAS_STD.NM  : DAS Standard Deviation
DAS_MEAN.NM : DAS Mean Amplitude
DAS_MAX.NM  : DAS Maximum Absolute Amplitude

~A  DEPT  DAS_VAR  DAS_RMS  DAS_STD  DAS_MEAN  DAS_MAX
# ...
  366.72    0.04041    0.22170    0.20103   -0.09467    0.57593
  367.58    0.03936    0.21960    0.19838   -0.09534    0.54800
  368.44    0.04060    0.22359    0.20148   -0.09810    0.53717
  369.30    0.04029    0.22289    0.20071   -0.09808    0.52901
  370.17    0.04083    0.22367    0.20208   -0.09706    0.58967
  371.03    0.04419    0.23080    0.21021   -0.09656    0.59957
  371.89    0.05261    0.24798    0.22937   -0.09580    0.86544
  372.76    0.07148    0.28269    0.26736   -0.09399    1.28999
  373.62    0.09146    0.31580    0.30242   -0.09372    1.80910
  374.48    0.09432    0.31959    0.30712   -0.09133    1.81709
  375.34    0.08862    0.31079    0.29770   -0.09198    1.75299
  376.21    0.08899    0.31175    0.29831   -0.09324    1.79377
  377.07    0.10193    0.33206    0.31927   -0.09430    1.98065
  377.93    0.09360    0.31866    0.30594   -0.09203    1.81698
  378.80    0.10749    0.33973    0.32786   -0.09229    1.91712
  379.66    0.11000    0.34319    0.33167   -0.09159    2.17562
  380.52    0.09431    0.32063    0.30710   -0.09499    1.87718
  381.38    0.07563    0.29060    0.27502   -0.09608    1.45989
  382.25    0.07074    0.28229    0.26597   -0.09664    1.37089
  383.11    0.06441    0.27008    0.25380   -0.09429    1.07572
  383.97    0.06852    0.27699    0.26177   -0.09266    1.12281
  384.84    0.07403    0.28832    0.27208   -0.09754    1.51858
  385.70    0.09688    0.32431    0.31125   -0.09400    1.89254
  386.56    0.23445    0.49111    0.48420   -0.08970    3.94558
  387.42    0.24495    0.50028    0.49492   -0.08181    4.04985
  388.29    0.20149    0.45576    0.44887   -0.08571    3.31553
  389.15    0.14285    0.38780    0.37796   -0.09128    1.85483
  390.01    0.14318    0.38821    0.37839   -0.09121    1.88332
  390.88    0.17817    0.43002    0.42210   -0.08797    2.74638
  391.74    0.22077    0.47630    0.46986   -0.08553    3.35399
  392.60    0.21670    0.47263    0.46551   -0.08878    3.30864
  393.46    0.23607    0.49275    0.48587   -0.08972    3.82093
  394.33    0.24886    0.50519    0.49886   -0.08800    3.93028
  395.19    0.25505    0.51112    0.50503   -0.08721    4.07109
  396.05    0.21531    0.47087    0.46401   -0.08720    3.60892
  396.92    0.21104    0.46604    0.45939   -0.08558    3.95444
  397.78    0.17570    0.42635    0.41917   -0.08398    3.33643
  398.64    0.18779    0.43895    0.43335   -0.07701    3.40327
  399.50    0.16646    0.41379    0.40799   -0.07546    3.22191
  400.37    0.10747    0.33528    0.32783   -0.07444    2.70120
  401.23    0.08406    0.29841    0.28993   -0.07386    2.12478
  402.09    0.08032    0.29284    0.28341   -0.07667    2.00022
  402.96    0.06330    0.26208    0.25160   -0.07571    1.56151
  403.82    0.06094    0.25682    0.24686   -0.07318    1.42770
  404.68    0.05480    0.24240    0.23409   -0.06532    1.40807
  405.54    0.04493    0.21763    0.21197   -0.05178    1.43336
  406.41    0.03766    0.19819    0.19406   -0.04279    1.36235
  407.27    0.06798    0.26438    0.26073   -0.04787    2.05691
  408.13    0.08411    0.29426    0.29001   -0.05430    2.36201
  409.00    0.06535    0.26129    0.25563   -0.05735    1.75447
  409.86    0.12931    0.36262    0.35959   -0.05391    3.00789
  410.72    0.07939    0.28448    0.28176   -0.04449    2.24000
  411.58    0.08882    0.29902    0.29802   -0.03298    2.48066
  412.45    0.09609    0.31029    0.30998   -0.02704    2.80691
  413.31    0.21699    0.46568    0.46583   -0.03263    4.15732
  414.17    0.22811    0.47862    0.47761   -0.04728    4.37225
  415.04    0.22653    0.47978    0.47596   -0.07012    3.98004
  415.90    0.23684    0.49235    0.48667   -0.08297    3.76874
  416.76    0.22033    0.47534    0.46939   -0.08271    3.74670
  417.62    0.14531    0.39076    0.38120   -0.09049    2.83825
  418.49    0.13943    0.38261    0.37340   -0.08797    2.99833
  419.35    0.12786    0.36740    0.35757   -0.08850    2.75393
  420.21    0.12314    0.36094    0.35092   -0.08842    2.64595
  421.08    0.10759    0.33970    0.32801   -0.09167    2.36939
  421.94    0.11825    0.35441    0.34387   -0.08952    2.74851
  422.80    0.06869    0.27810    0.26209   -0.09503    1.42139
  423.66    0.05641    0.25532    0.23751   -0.09536    1.04323
  424.53    0.05742    0.25682    0.23963   -0.09410    1.01563
  425.39    0.06238    0.26666    0.24976   -0.09527    1.23628
  426.25    0.08211    0.30021    0.28655   -0.09206    1.81788
  427.12    0.09694    0.32350    0.31135   -0.09082    2.02526
  427.98    0.09952    0.32705    0.31547   -0.08942    2.15528
  428.84    0.07502    0.28777    0.27389   -0.09063    1.53857
  429.70    0.06072    0.26155    0.24642   -0.08959    1.09980
  430.57    0.05476    0.24996    0.23400   -0.08959    1.01633
  431.43    0.05958    0.25841    0.24408   -0.08676    1.04116
  432.29    0.06754    0.27326    0.25988   -0.08665    0.95735
  433.16    0.07152    0.27968    0.26743   -0.08425    1.09036
  434.02    0.06991    0.27639    0.26441   -0.08287    1.05875
  434.88    0.07705    0.28794    0.27758   -0.07929    0.95622
  435.74    0.04068    0.20673    0.20169   -0.04780    0.88626
  436.61    0.02361    0.15877    0.15367   -0.04155    0.83450
  437.47    0.03709    0.20082    0.19258   -0.05872    0.70718
  438.33    0.04425    0.21953    0.21036   -0.06471    0.78136
  439.20    0.06677    0.26904    0.25840   -0.07734    1.57210
  440.06    0.09869    0.32399    0.31415   -0.08262    2.10309
  440.92    0.10792    0.33836    0.32851   -0.08468    2.42348
  441.78    0.07562    0.28826    0.27499   -0.08886    1.58236
  442.65    0.05146    0.24352    0.22685   -0.09016    0.95737
  443.51    0.04834    0.23740    0.21987   -0.09101    0.64538
  444.37    0.05749    0.25474    0.23978   -0.08786    0.70382
  445.24    0.06949    0.27712    0.26361   -0.08769    0.86631
  446.10    0.07378    0.28455    0.27162   -0.08716    0.97829
  446.96    0.08230    0.29755    0.28688   -0.08178    1.46543
  447.82    0.11484    0.34665    0.33888   -0.07721    2.24585
  448.69    0.18181    0.43147    0.42639   -0.07323    3.62340
  449.55    0.26091    0.51554    0.51080   -0.07949    4.21278
  450.41    0.19430    0.44748    0.44080   -0.08375    3.35874
  451.28    0.15357    0.39973    0.39188   -0.08405    2.96202
  452.14    0.13119    0.37091    0.36220   -0.08431    2.54823
  453.00    0.15795    0.40597    0.39743   -0.08797    2.92519
  453.86    0.15760    0.40495    0.39699   -0.08517    3.05109
  454.73    0.20855    0.46354    0.45668   -0.08644    3.17881
  455.59    0.18499    0.43727    0.43011   -0.08509    3.24785
  456.45    0.17833    0.42969    0.42229   -0.08537    3.23243
  457.32    0.15988    0.40810    0.39984   -0.08692    2.83179
  458.18    0.21256    0.46780    0.46104   -0.08634    3.36656
  459.04    0.17086    0.42057    0.41335   -0.08348    3.16741
  459.90    0.15421    0.39822    0.39270   -0.07229    2.87587
  460.77    0.14755    0.38723    0.38412   -0.05673    2.87217
  461.63    0.18876    0.43751    0.43446   -0.06091    3.52685
  462.49    0.22077    0.47338    0.46986   -0.06742    3.61783
  463.36    0.23415    0.48773    0.48389   -0.07098    3.90049
  464.22    0.32687    0.57454    0.57173   -0.07104    4.74206
  465.08    0.33195    0.57932    0.57615   -0.07418    5.14708
  465.94    0.25255    0.50740    0.50255   -0.07941    3.91734
  466.81    0.34314    0.58841    0.58578   -0.07063    4.85513
  467.67    0.27473    0.52773    0.52415   -0.07273    4.37480
  468.53    0.38900    0.62493    0.62370   -0.06085    5.46858
  469.40    0.27665    0.52922    0.52598   -0.07042    4.12723
  470.26    0.20182    0.45422    0.44925   -0.07496    3.65119
  471.12    0.19227    0.44537    0.43849   -0.08454    3.38002
  471.98    0.14520    0.38961    0.38105   -0.08604    2.74693
  472.85    0.11289    0.34570    0.33599   -0.08513    2.28679
  473.71    0.08597    0.30656    0.29321   -0.09213    1.70468
