~Version Information
VERS. 2.0:
WRAP. NO:

~Well Information
STRT.FT -172.57:
STOP.FT 709.27:
STEP.FT 0.863:
NULL. -999.25:

~Curve Information
DEPT.FT     : Depth below casing
DAS_VAR.NM  : DAS Amplitude Variance
DAS_RMS.NM  : DAS RMS Amplitude
DAS_STD.NM  : DAS Standard Deviation
DAS_MEAN.NM : DAS Mean Amplitude
DAS_MAX.NM  : DAS Maximum Absolute Amplitude

~A  DEPT  DAS_VAR  DAS_RMS  DAS_STD  DAS_MEAN  DAS_MAX
 -172.57    0.00929    0.09666    0.09640    0.01005    0.69110
 -171.71    0.00997    0.10061    0.09983    0.01455    0.80936
 -170.85    0.01170    0.10903    0.10817    0.01587    0.81630
 -169.98    0.01076    0.10443    0.10375    0.01422    0.61471
 -169.12    0.00785    0.08915    0.08861    0.01183    0.28254
 -168.26    0.00794    0.08936    0.08910    0.00952    0.26284
 -167.40    0.00726    0.08554    0.08518    0.01011    0.27536
 -166.53    0.00492    0.07040    0.07017    0.00769    0.27846
 -165.67    0.00435    0.06594    0.06595    0.00487    0.26281
 -164.81    0.00369    0.06076    0.06077    0.00438    0.23832
 -163.94    0.00359    0.05987    0.05994    0.00354    0.21583
 -163.08    0.00378    0.06137    0.06150    0.00226    0.20740
 -162.22    0.00738    0.08580    0.08588    0.00508    0.30976
 -161.35    0.01563    0.12470    0.12501    0.00293    0.47065
 -160.49    0.02884    0.17030    0.16983    0.01788    0.94235
 -159.63    0.05022    0.22846    0.22411    0.04741    1.68660
 -158.77    0.13034    0.36593    0.36103    0.06548    1.83736
 -157.90    0.20961    0.46625    0.45783    0.09458    2.08119
 -157.04    0.34033    0.59376    0.58338    0.11879    2.66753
 -156.18    0.84792    0.92556    0.92082    0.11600    5.83401
 -155.31    1.01196    1.01082    1.00596    0.12418    3.60222
 -154.45    1.45188    1.21033    1.20494    0.14525    4.97056
 -153.59    3.69012    1.92160    1.92097    0.15148   11.50327
 -152.73    8.25168    2.87323    2.87257    0.22270   17.57008
 -151.86   21.69952    4.65424    4.65827    0.28808   26.93986
 -151.00   22.98448    4.78793    4.79421    0.25986   26.24496
 -150.14   22.88098    4.77375    4.78341    0.18665   23.47822
 -149.27   18.03651    4.23535    4.24694    0.04330   16.98134
 -148.41   11.79111    3.42428    3.43382   -0.00866   11.67263
 -147.55   14.31326    3.77278    3.78329    0.01237   17.32895
 -146.69   22.05032    4.68293    4.69578   -0.04442   17.84470
 -145.82   27.99264    5.27612    5.29081   -0.01772   20.31494
 -144.96   39.40571    6.26149    6.27740    0.13939   27.01415
 -144.10   47.33811    6.86190    6.88027    0.10283   25.37910
 -143.23   51.55468    7.16496    7.18016    0.26142   22.38100
 -142.37   69.20217    8.30742    8.31878    0.44211   26.80011
 -141.51   77.08234    8.77108    8.77965    0.52694   32.38432
 -140.65   73.49610    8.55995    8.57299    0.42998   33.47990
 -139.78   81.52367    9.01873    9.02905    0.51649   31.06908
 -138.92   93.80864    9.67816    9.68549    0.61580   34.89867
 -138.06  111.99563   10.57766   10.58280    0.71658   40.64346
 -137.19  124.39995   11.14968   11.15347    0.77874   45.74513
 -136.33  127.07334   11.26350   11.27268    0.70640   37.48473
 -135.47  149.23259   12.22900   12.21608    1.06998   39.82587
 -134.61  209.68103   14.47662   14.48037    1.02784   55.65376
 -133.74  257.10432   16.02099   16.03447    0.99803   63.96800
 -132.88  248.44088   15.75367   15.76201    1.05708   67.99924
 -132.02  213.51908   14.61230   14.61229    1.08925   47.70520
 -131.15  184.79242   13.59921   13.59384    1.08286   40.96478
 -130.29  170.87484   13.09564   13.07191    1.25310   46.28543
 -129.43  141.21026   11.91786   11.88319    1.26870   39.69917
 -128.57  140.65166   11.90081   11.85967    1.32631   35.46954
 -127.70  143.07278   11.99386   11.96130    1.25490   41.87273
 -126.84  168.18631   12.97626   12.96867    1.06365   39.87225
 -125.98  193.75124   13.89693   13.91946    0.67070   50.89018
 -125.11  222.16778   14.87682   14.90529    0.62138   44.29562
 -124.25  241.62526   15.50653   15.54430    0.41161   46.71548
 -123.39  272.23821   16.45706   16.49964    0.33007   51.72087
 -122.53  280.16060   16.69363   16.73800    0.27047   60.85614
 -121.66  263.39187   16.18916   16.22935    0.40059   64.56204
 -120.80  250.02432   15.78631   15.81216    0.75645   57.63295
 -119.94  274.03966   16.52561   16.55414    0.76063   56.39032
 -119.07  321.89889   17.90778   17.94154    0.76021   58.31728
 -118.21  344.41112   18.51900   18.55832    0.67503   58.62863
 -117.35  361.57767   18.97438   19.01520    0.67686   57.91982
 -116.49  389.34787   19.68572   19.73190    0.58535   60.56721
 -115.62  399.81683   19.94372   19.99542    0.39527   57.33293
 -114.76  410.42309   20.20833   20.25890    0.48323   61.57881
 -113.90  415.22235   20.33511   20.37701    0.77545   64.93608
 -113.03  404.06624   20.05850   20.10140    0.72236   63.96240
 -112.17  386.54433   19.63512   19.66073    1.06826   60.56212
 -111.31  408.46250   20.17528   20.21046    0.92116   57.31696
 -110.45  386.39460   19.63073   19.65692    1.05713   60.85413
 -109.58  393.19109   19.78872   19.82905    0.76606   59.73488
 -108.72  406.02716   20.10873   20.15012    0.76795   63.69972
 -107.86  420.19520   20.45414   20.49866    0.71484   66.75504
 -106.99  407.56196   20.14621   20.18816    0.75643   70.69685
 -106.13  402.18003   20.02304   20.05443    0.98817   71.80740
 -105.27  431.51672   20.73004   20.77298    0.78421   69.55725
 -104.41  420.62444   20.47032   20.50913    0.86385   71.16461
 -103.54  413.92434   20.30802   20.34513    0.88925   63.90529
 -102.68  388.15030   19.66078   19.70153    0.74328   62.77197
 -101.82  410.62821   20.21690   20.26396    0.61343   66.61584
 -100.95  418.67537   20.41953   20.46156    0.77960   67.12476
 -100.09  397.91030   19.90260   19.94769    0.64339   63.49977
  -99.23  404.46921   20.06053   20.11142    0.45018   64.99123
  -98.37  409.90648   20.19486   20.24615    0.45052   70.96777
  -97.50  442.99002   20.99316   21.04733    0.42874   72.29169
  -96.64  396.25186   19.85777   19.90608    0.52953   70.39835
  -95.78  434.31606   20.78916   20.84025    0.53484   76.03085
  -94.91  425.23634   20.56883   20.62126    0.45056   72.09662
  -94.05  423.37711   20.52908   20.57613    0.64660   75.75273
  -93.19  424.13394   20.54726   20.59451    0.64203   66.70131
  -92.33  404.84677   20.06983   20.12080    0.44778   65.90263
  -91.46  395.49157   19.83655   19.88697    0.44069   67.83037
  -90.60  379.79527   19.44636   19.48834    0.68972   69.37138
  -89.74  359.15130   18.91388   18.95129    0.76092   66.35220
  -88.87  365.42523   19.07589   19.11610    0.70319   65.83698
  -88.01  388.55067   19.66720   19.71169    0.63765   63.12799
  -87.15  438.18573   20.88346   20.93289    0.60618   71.91023
  -86.29  452.89511   21.23514   21.28133    0.74314   69.58708
  -85.42  441.49408   20.96855   21.01176    0.79924   71.87732
  -84.56  475.45551   21.77279   21.80494    1.11374   73.91705
  -83.70  438.77111   20.90896   20.94686    0.92251   69.68771
  -82.83  416.95481   20.38575   20.41947    0.96982   72.13000
  -81.97  399.88359   19.96866   19.99709    1.04186   72.47861
  -81.11  417.33884   20.40259   20.42887    1.11594   71.05746
  -80.25  430.94377   20.72532   20.75919    0.99462   70.42441
  -79.38  408.60807   20.19224   20.21406    1.17830   66.13036
  -78.52  407.89816   20.17152   20.19649    1.12172   67.09923
  -77.66  394.07328   19.83214   19.85128    1.19571   62.34122
  -76.79  375.66656   19.37990   19.38212    1.41454   68.63675
  -75.93  351.53051   18.73643   18.74915    1.21508   62.55676
  -75.07  333.83719   18.26102   18.27121    1.21750   58.06018
  -74.21  295.23205   17.18319   17.18232    1.29235   67.12680
  -73.34  249.68502   15.79829   15.80142    1.13498   64.59227
  -72.48  229.58413   15.15164   15.15203    1.12408   60.12115
  -71.62  175.57105   13.26510   13.25032    1.16932   45.58815
  -70.75  171.96921   13.12267   13.11370    1.09115   44.46431
  -69.89  175.23838   13.24571   13.23776    1.08812   46.08244
  -69.03  156.11245   12.50181   12.49450    1.02478   40.81574
  -68.17  160.87207   12.68208   12.68354    0.92567   41.73083
  -67.30  156.87756   12.51478   12.52508    0.78345   43.84164
  -66.44  150.92438   12.27184   12.28513    0.71566   43.15181
  -65.58  138.52823   11.76488   11.76980    0.80864   43.15761
