~Version Information
VERS. 2.0:
WRAP. NO:

~Well Information
STRT.FT -172.57:
STOP.FT 709.27:
STEP.FT 0.863:
NULL. -999.25:

~Curve Information
DEPT.FT     : Depth below casing
DAS_VAR.NM  : DAS Amplitude Variance
DAS_RMS.NM  : DAS RMS Amplitude
DAS_STD.NM  : DAS Standard Deviation
DAS_MEAN.NM : DAS Mean Amplitude
DAS_MAX.NM  : DAS Maximum Absolute Amplitude

~A  DEPT  DAS_VAR  DAS_RMS  DAS_STD  DAS_MEAN  DAS_MAX
# ...
  366.72    0.00940    0.09692    0.09696   -0.00054    0.60286
  367.58    0.00891    0.09437    0.09441   -0.00024    0.47014
  368.44    0.00904    0.09503    0.09507    0.00017    0.32528
  369.30    0.00910    0.09538    0.09541   -0.00020    0.31993
  370.17    0.00933    0.09654    0.09658   -0.00022    0.34005
  371.03    0.01002    0.10007    0.10010   -0.00059    0.70458
  371.89    0.01094    0.10453    0.10457   -0.00098    1.25117
  372.76    0.01566    0.12510    0.12513   -0.00222    2.57591
  373.62    0.02047    0.14306    0.14309   -0.00289    3.48176
  374.48    0.02156    0.14680    0.14683   -0.00305    3.60361
  375.34    0.01912    0.13825    0.13828   -0.00265    3.23786
  376.21    0.01918    0.13847    0.13850   -0.00273    3.32856
  377.07    0.02146    0.14648    0.14650   -0.00306    3.73635
  377.93    0.02064    0.14364    0.14367   -0.00305    3.57781
  378.80    0.02227    0.14920    0.14923   -0.00314    3.77847
  379.66    0.02436    0.15606    0.15608   -0.00354    4.16469
  380.52    0.02109    0.14519    0.14522   -0.00299    3.61582
  381.38    0.01586    0.12592    0.12595   -0.00208    2.59191
  382.25    0.01462    0.12088    0.12091   -0.00184    2.32259
  383.11    0.01338    0.11566    0.11569   -0.00176    2.05378
  383.97    0.01395    0.11807    0.11810   -0.00192    2.21255
  384.84    0.01536    0.12391    0.12394   -0.00193    2.48340
  385.70    0.02200    0.14828    0.14831   -0.00312    3.71659
  386.56    0.05681    0.23833    0.23835   -0.00630    7.41572
  387.42    0.06004    0.24502    0.24503   -0.00651    7.60577
  388.29    0.04668    0.21604    0.21606   -0.00519    6.38935
  389.15    0.02536    0.15921    0.15924   -0.00308    3.59980
  390.01    0.02564    0.16008    0.16011   -0.00310    3.66716
  390.88    0.03393    0.18417    0.18419   -0.00428    5.00016
  391.74    0.04413    0.21005    0.21007   -0.00522    6.10274
  392.60    0.04680    0.21630    0.21632   -0.00527    6.53501
  393.46    0.05467    0.23379    0.23381   -0.00605    7.30330
  394.33    0.05752    0.23981    0.23983   -0.00623    7.49910
  395.19    0.05807    0.24096    0.24097   -0.00636    7.57296
  396.05    0.04944    0.22234    0.22235   -0.00576    6.89542
  396.92    0.05245    0.22901    0.22902   -0.00615    7.12800
  397.78    0.04504    0.21221    0.21223   -0.00541    6.46122
  398.64    0.04826    0.21967    0.21968   -0.00560    6.78805
  399.50    0.04195    0.20481    0.20483   -0.00523    6.23565
  400.37    0.02590    0.16092    0.16093   -0.00416    4.50756
  401.23    0.02036    0.14266    0.14268   -0.00335    3.75571
  402.09    0.01929    0.13885    0.13887   -0.00312    3.61726
  402.96    0.01429    0.11951    0.11953   -0.00239    2.71597
  403.82    0.01297    0.11386    0.11389   -0.00217    2.44679
  404.68    0.01289    0.11351    0.11353   -0.00216    2.49441
  405.54    0.01187    0.10894    0.10896   -0.00220    2.50016
  406.41    0.01079    0.10386    0.10388   -0.00212    2.31453
  407.27    0.01820    0.13488    0.13489   -0.00326    3.70228
  408.13    0.02169    0.14725    0.14726   -0.00370    4.18429
  409.00    0.01686    0.12984    0.12986   -0.00292    3.49133
  409.86    0.03001    0.17322    0.17323   -0.00462    5.25634
  410.72    0.02094    0.14468    0.14469   -0.00361    4.15774
  411.58    0.02366    0.15382    0.15383   -0.00398    4.53764
  412.45    0.02498    0.15804    0.15804   -0.00437    4.73278
  413.31    0.05505    0.23464    0.23464   -0.00655    7.63639
  414.17    0.05849    0.24185    0.24185   -0.00678    7.83130
  415.04    0.05487    0.23424    0.23425   -0.00633    7.47614
  415.90    0.05399    0.23234    0.23235   -0.00611    7.36105
  416.76    0.05121    0.22628    0.22630   -0.00599    7.10473
  417.62    0.03343    0.18283    0.18285   -0.00429    5.32259
  418.49    0.03239    0.17997    0.17998   -0.00465    5.20381
  419.35    0.02965    0.17219    0.17220   -0.00432    4.90438
  420.21    0.02825    0.16807    0.16809   -0.00412    4.74997
  421.08    0.02466    0.15702    0.15704   -0.00371    4.30544
  421.94    0.02822    0.16799    0.16800   -0.00422    4.77427
  422.80    0.01546    0.12431    0.12434   -0.00236    2.80929
  423.66    0.01191    0.10908    0.10911   -0.00165    1.94361
  424.53    0.01194    0.10923    0.10926   -0.00168    1.94468
  425.39    0.01338    0.11563    0.11566   -0.00204    2.38123
  426.25    0.01942    0.13933    0.13935   -0.00309    3.62625
  427.12    0.02178    0.14757    0.14759   -0.00339    4.02210
  427.98    0.02175    0.14747    0.14749   -0.00351    4.02848
  428.84    0.01554    0.12464    0.12466   -0.00255    2.85149
  429.70    0.01268    0.11258    0.11261   -0.00195    2.17226
  430.57    0.01212    0.11005    0.11007   -0.00183    2.02843
  431.43    0.01240    0.11132    0.11135   -0.00181    1.98385
  432.29    0.01270    0.11267    0.11270   -0.00167    1.90507
  433.16    0.01382    0.11752    0.11755   -0.00181    2.10166
  434.02    0.01416    0.11897    0.11900   -0.00175    2.08315
  434.88    0.01406    0.11853    0.11857   -0.00151    1.84261
  435.74    0.01082    0.10397    0.10400   -0.00133    1.66789
  436.61    0.00935    0.09668    0.09671   -0.00136    1.64206
  437.47    0.00915    0.09562    0.09566   -0.00091    1.03073
  438.33    0.01017    0.10081    0.10084   -0.00142    1.38616
  439.20    0.01557    0.12476    0.12478   -0.00266    3.04327
  440.06    0.02225    0.14916    0.14918   -0.00352    4.12741
  440.92    0.02466    0.15703    0.15704   -0.00392    4.44409
  441.78    0.01572    0.12534    0.12536   -0.00270    3.07531
  442.65    0.01035    0.10172    0.10175   -0.00164    1.73282
  443.51    0.00870    0.09323    0.09327   -0.00081    0.68044
  444.37    0.00925    0.09616    0.09620   -0.00059    0.48217
  445.24    0.01096    0.10466    0.10469   -0.00099    1.04892
  446.10    0.01254    0.11194    0.11198   -0.00168    1.84739
  446.96    0.01625    0.12745    0.12748   -0.00248    2.88031
  447.82    0.02470    0.15716    0.15718   -0.00369    4.39274
  448.69    0.04180    0.20444    0.20445   -0.00555    6.30290
  449.55    0.06007    0.24509    0.24510   -0.00661    7.84046
  450.41    0.04464    0.21127    0.21128   -0.00539    6.50315
  451.28    0.03615    0.19011    0.19013   -0.00459    5.70645
  452.14    0.02847    0.16871    0.16872   -0.00410    4.76262
  453.00    0.03444    0.18556    0.18558   -0.00436    5.45181
  453.86    0.03594    0.18958    0.18959   -0.00485    5.62632
  454.73    0.04195    0.20479    0.20481   -0.00519    6.28888
  455.59    0.04289    0.20708    0.20709   -0.00534    6.34527
  456.45    0.04077    0.20190    0.20191   -0.00525    6.20623
  457.32    0.03514    0.18744    0.18745   -0.00470    5.64143
  458.18    0.04652    0.21568    0.21569   -0.00559    6.72565
  459.04    0.03807    0.19510    0.19511   -0.00513    5.94441
  459.90    0.03328    0.18241    0.18242   -0.00451    5.53436
  460.77    0.03437    0.18539    0.18540   -0.00471    5.68896
  461.63    0.04470    0.21142    0.21143   -0.00564    6.70570
  462.49    0.04840    0.21999    0.22000   -0.00587    7.05855
  463.36    0.05428    0.23296    0.23297   -0.00624    7.45956
  464.22    0.07241    0.26908    0.26909   -0.00741    8.73196
  465.08    0.07431    0.27260    0.27260   -0.00779    8.84651
  465.94    0.05616    0.23697    0.23698   -0.00626    7.42419
  466.81    0.07487    0.27363    0.27363   -0.00754    8.83939
  467.67    0.06331    0.25161    0.25162   -0.00683    8.00194
  468.53    0.08934    0.29890    0.29890   -0.00846    9.77585
  469.40    0.06567    0.25624    0.25625   -0.00676    8.24558
  470.26    0.05106    0.22595    0.22597   -0.00593    7.09854
  471.12    0.04570    0.21376    0.21378   -0.00542    6.61427
  471.98    0.03442    0.18552    0.18553   -0.00452    5.44607
  472.85    0.02530    0.15905    0.15907   -0.00371    4.39773
  473.71    0.01768    0.13296    0.13298   -0.00270    3.29552
