~Version Information
VERS. 2.0:
WRAP. NO:

~Well Information
STRT.FT -172.57:
STOP.FT 709.27:
STEP.FT 0.863:
NULL. -999.25:

~Curve Information
DEPT.FT     : Depth below casing
DAS_VAR.NM  : DAS Amplitude Variance
DAS_RMS.NM  : DAS RMS Amplitude
DAS_STD.NM  : DAS Standard Deviation
DAS_MEAN.NM : DAS Mean Amplitude
DAS_MAX.NM  : DAS Maximum Absolute Amplitude

~A  DEPT  DAS_VAR  DAS_RMS  DAS_STD  DAS_MEAN  DAS_MAX
# ...
  582.43    0.00976    0.09877    0.09881    0.00072    0.78627
  583.29    0.00951    0.09749    0.09753    0.00060    0.66593
  584.16    0.00913    0.09552    0.09556    0.00075    0.85989
  585.02    0.00862    0.09280    0.09283    0.00080    0.89846
  585.88    0.00831    0.09113    0.09117    0.00077    0.91591
  586.75    0.00852    0.09228    0.09231    0.00063    0.75541
  587.61    0.00918    0.09576    0.09579    0.00064    0.79595
  588.47    0.00884    0.09398    0.09401    0.00057    0.66166
  589.33    0.00897    0.09465    0.09469    0.00063    0.72100
  590.20    0.00866    0.09303    0.09306    0.00066    0.80284
  591.06    0.00877    0.09361    0.09365    0.00058    0.73746
  591.92    0.00900    0.09481    0.09485    0.00068    0.83060
  592.79    0.00904    0.09502    0.09506    0.00054    0.68009
  593.65    0.00946    0.09724    0.09728    0.00074    0.79291
  594.51    0.00912    0.09548    0.09552    0.00056    0.56731
  595.37    0.00909    0.09529    0.09533    0.00027    0.56398
  596.24    0.00952    0.09754    0.09758   -0.00032    0.60586
  597.10    0.00939    0.09686    0.09689   -0.00019    0.54711
  597.96    0.00896    0.09460    0.09464    0.00021    0.58260
  598.83    0.00929    0.09634    0.09638    0.00046    0.72174
  599.69    0.00887    0.09415    0.09419    0.00028    0.66397
  600.55    0.00818    0.09039    0.09043    0.00018    0.37316
  601.41    0.00842    0.09174    0.09178    0.00001    0.45464
  602.28    0.00738    0.08590    0.08593   -0.00023    0.48358
  603.14    0.00586    0.07649    0.07652   -0.00034    0.53482
  604.00    0.00569    0.07541    0.07544   -0.00033    0.51063
  604.87    0.00543    0.07365    0.07368    0.00018    0.33241
  605.73    0.00571    0.07551    0.07554    0.00031    0.31048
  606.59    0.00618    0.07860    0.07863    0.00036    0.33900
  607.45    0.00688    0.08289    0.08292    0.00071    0.67505
  608.32    0.00799    0.08935    0.08938    0.00114    1.16053
  609.18    0.00821    0.09057    0.09060    0.00088    0.78929
  610.04    0.00886    0.09411    0.09415    0.00068    0.58371
  610.91    0.00865    0.09295    0.09299    0.00070    0.62464
  611.77    0.00874    0.09345    0.09348    0.00069    0.53637
  612.63    0.01080    0.10389    0.10393    0.00078    0.74460
  613.49    0.01151    0.10723    0.10728    0.00068    0.67161
  614.36    0.01240    0.11133    0.11137    0.00079    0.76350
  615.22    0.01325    0.11509    0.11513    0.00128    1.24469
  616.08    0.01640    0.12802    0.12806    0.00125    1.20004
  616.95    0.02051    0.14317    0.14323   -0.00023    0.71040
  617.81    0.03728    0.19302    0.19308   -0.00243    3.03279
  618.67    0.03772    0.19415    0.19422   -0.00085    1.02303
  619.53    0.03976    0.19934    0.19941    0.00178    2.02122
  620.40    0.04521    0.21256    0.21263    0.00291    3.35903
  621.26    0.04921    0.22177    0.22183    0.00373    4.26866
  622.12    0.05252    0.22912    0.22917    0.00427    4.85923
  622.99    0.04786    0.21871    0.21876    0.00372    4.23155
  623.85    0.03922    0.19797    0.19804    0.00221    2.54794
  624.71    0.03491    0.18678    0.18685    0.00045    0.69381
  625.57    0.03764    0.19394    0.19402   -0.00070    0.78269
  626.44    0.03840    0.19588    0.19596   -0.00088    0.95090
  627.30    0.04242    0.20588    0.20595   -0.00196    2.21266
  628.16    0.04055    0.20130    0.20137   -0.00224    2.74785
  629.03    0.04376    0.20914    0.20920   -0.00332    3.84555
  629.89    0.03737    0.19326    0.19331   -0.00285    3.33160
  630.75    0.02668    0.16328    0.16333   -0.00160    1.86510
  631.61    0.02953    0.17179    0.17186   -0.00146    1.63724
  632.48    0.03452    0.18572    0.18579   -0.00021    1.03965
  633.34    0.05899    0.24280    0.24287    0.00314    3.97133
  634.20    0.07671    0.27689    0.27697    0.00356    4.43996
  635.07    0.07345    0.27091    0.27101    0.00153    2.13688
  635.93    0.07011    0.26468    0.26478   -0.00077    1.10260
  636.79    0.06791    0.26050    0.26060   -0.00123    1.10351
  637.65    0.06587    0.25655    0.25665   -0.00095    1.15036
  638.52    0.06647    0.25771    0.25781   -0.00032    1.15537
  639.38    0.07195    0.26813    0.26823    0.00052    1.25469
  640.24    0.09442    0.30716    0.30728    0.00230    3.16948
  641.11    0.10827    0.32893    0.32905    0.00236    3.14456
  641.97    0.11404    0.33757    0.33770    0.00064    1.37155
  642.83    0.12426    0.35237    0.35251   -0.00161    1.51922
  643.69    0.12903    0.35907    0.35921   -0.00241    2.69550
  644.56    0.12147    0.34839    0.34853   -0.00183    2.00009
  645.42    0.10862    0.32944    0.32957    0.00022    1.28081
  646.28    0.10429    0.32282    0.32294    0.00155    2.16457
  647.15    0.09537    0.30872    0.30883    0.00280    3.69519
  648.01    0.10069    0.31723    0.31731    0.00482    5.80427
  648.87    0.08539    0.29213    0.29222    0.00443    5.43438
  649.73    0.07135    0.26706    0.26712    0.00457    5.54781
  650.60    0.03358    0.18318    0.18324    0.00269    3.15694
  651.46    0.01249    0.11174    0.11178    0.00145    1.51444
  652.32    0.00800    0.08944    0.08946   -0.00189    2.28366
  653.19    0.04170    0.20421    0.20421    0.00571    6.78327
  654.05    0.10693    0.32702    0.32701    0.00955   11.08463
  654.91    0.00743    0.08617    0.08619   -0.00174    1.81425
  655.77    0.01393    0.11799    0.11802   -0.00204    2.46784
  656.64    0.00974    0.09867    0.09870    0.00006    0.97007
  657.50    0.07838    0.27996    0.27997    0.00745    9.01308
  658.36    0.01146    0.10700    0.10704    0.00083    1.06762
  659.23    0.42335    0.65068    0.65065    0.01908   22.12229
  660.09    0.34434    0.58683    0.58680    0.01727   20.00826
  660.95    0.16934    0.41152    0.41151    0.01194   13.88738
  661.81    0.01742    0.13198    0.13198    0.00340    3.65999
  662.68    0.02017    0.14201    0.14203   -0.00307    4.02603
  663.54    0.69565    0.83406    0.83406   -0.02369   28.68837
  664.40    0.82323    0.90734    0.90732   -0.02605   31.26496
  665.27    1.33230    1.15429    1.15425   -0.03379   39.81754
  666.13    0.74569    0.86355    0.86353   -0.02480   29.66695
  666.99    0.27678    0.52611    0.52610   -0.01512   17.83715
  667.85    0.18592    0.43119    0.43119    0.01227   14.45925
  668.72    1.44045    1.20026    1.20019    0.03626   41.23698
  669.58    1.46271    1.20946    1.20942    0.03545   41.61156
  670.44    1.45422    1.20597    1.20591    0.03598   41.35271
  671.31    0.39187    0.62599    0.62600    0.01742   21.05216
  672.17    0.16335    0.40415    0.40417   -0.01063   13.08269
  673.03    1.29535    1.13820    1.13814   -0.03429   39.02877
  673.89    0.81180    0.90100    0.90100   -0.02540   30.65501
  674.76    0.65628    0.81011    0.81011   -0.02269   27.26256
  675.62    0.09275    0.30454    0.30455   -0.00812    9.09666
  676.48    0.13122    0.36223    0.36224   -0.00975   11.20155
  677.35    0.13118    0.36217    0.36219   -0.00947   10.90023
  678.21    0.21496    0.46361    0.46364   -0.01201   14.31233
  679.07    0.43359    0.65848    0.65847   -0.01859   21.64448
  679.93    0.48157    0.69396    0.69395   -0.01991   22.97066
  680.80    0.04397    0.20963    0.20969   -0.00267    3.25333
  681.66    0.03998    0.19988    0.19995    0.00176    1.71832
  682.52    0.28898    0.53755    0.53757   -0.01437   17.40744
  683.39    0.72564    0.85185    0.85184   -0.02419   28.78844
  684.25    0.25929    0.50920    0.50920   -0.01412   16.62598
  685.11    0.56679    0.75287    0.75286   -0.02177   25.35540
  685.97    0.77776    0.88192    0.88191   -0.02507   29.81487
  686.84    0.07355    0.27115    0.27121   -0.00542    6.48443
  687.70    0.20813    0.45620    0.45622    0.01240   14.10545
  688.56    0.26911    0.51876    0.51876    0.01466   16.35119
  689.43    0.36813    0.60674    0.60674    0.01729   19.36790
