~Version Information
VERS. 2.0:
WRAP. NO:

~Well Information
STRT.FT -172.57:
STOP.FT 709.27:
STEP.FT 0.863:
NULL. -999.25:

~Curve Information
DEPT.FT     : Depth below casing
DAS_VAR.NM  : DAS Amplitude Variance
DAS_RMS.NM  : DAS RMS Amplitude
DAS_STD.NM  : DAS Standard Deviation
DAS_MEAN.NM : DAS Mean Amplitude
DAS_MAX.NM  : DAS Maximum Absolute Amplitude

~A  DEPT  DAS_VAR  DAS_RMS  DAS_STD  DAS_MEAN  DAS_MAX
# ...
  474.57    0.04303    0.21993    0.20744   -0.07328    1.99858
  475.44    0.04947    0.23398    0.22241   -0.07293    2.89336
  476.30    0.05160    0.23839    0.22716   -0.07260    2.97883
  477.16    0.05365    0.24293    0.23162   -0.07353    2.93393
  478.02    0.05201    0.23932    0.22807   -0.07281    2.85719
  478.89    0.06280    0.26112    0.25060   -0.07373    3.61551
  479.75    0.05753    0.25114    0.23985   -0.07478    3.01423
  480.61    0.06890    0.27286    0.26249   -0.07488    3.55981
  481.48    0.07753    0.28828    0.27844   -0.07507    3.99705
  482.34    0.07152    0.27746    0.26742   -0.07433    3.92465
  483.20    0.07000    0.27465    0.26457   -0.07410    4.16674
  484.06    0.06576    0.26679    0.25644   -0.07394    3.88740
  484.93    0.06239    0.26053    0.24978   -0.07438    3.71755
  485.79    0.06608    0.26712    0.25706   -0.07295    4.13032
  486.65    0.06165    0.25876    0.24830   -0.07314    3.50387
  487.52    0.05696    0.24929    0.23865   -0.07237    3.16420
  488.38    0.05099    0.23697    0.22581   -0.07217    2.94985
  489.24    0.05906    0.25322    0.24303   -0.07144    3.44656
  490.11    0.05530    0.24519    0.23517   -0.06972    3.26246
  490.97    0.06482    0.26360    0.25460   -0.06866    3.90269
  491.83    0.06447    0.26289    0.25391   -0.06851    4.27505
  492.69    0.06194    0.25709    0.24889   -0.06479    3.89451
  493.56    0.05340    0.23878    0.23109   -0.06046    3.72177
  494.42    0.03749    0.20126    0.19362   -0.05520    2.87807
  495.28    0.02474    0.16515    0.15730   -0.05049    1.46679
  496.15    0.02229    0.15551    0.14930   -0.04374    0.62212
  497.01    0.03131    0.18283    0.17694   -0.04632    1.50856
  497.87    0.04291    0.21470    0.20715   -0.05676    2.85507
  498.73    0.04545    0.22236    0.21318   -0.06353    2.66645
  499.60    0.04299    0.21813    0.20733   -0.06804    2.21105
  500.46    0.04189    0.21686    0.20467   -0.07192    1.87031
  501.32    0.04327    0.22062    0.20802   -0.07371    1.99893
  502.19    0.04228    0.21852    0.20561   -0.07420    1.44312
  503.05    0.04338    0.22096    0.20829   -0.07400    1.39341
  503.91    0.04332    0.22100    0.20813   -0.07454    1.40657
  504.77    0.05140    0.23828    0.22671   -0.07363    2.90965
  505.64    0.04585    0.22634    0.21414   -0.07358    2.08116
  506.50    0.04516    0.22502    0.21251   -0.07423    2.05617
  507.36    0.04887    0.23307    0.22106   -0.07412    2.62161
  508.23    0.04839    0.23202    0.21997   -0.07407    2.64977
  509.09    0.05244    0.24069    0.22900   -0.07437    2.86382
  509.95    0.05918    0.25389    0.24327   -0.07300    3.14640
  510.81    0.06044    0.25574    0.24584   -0.07079    3.05367
  511.68    0.05655    0.24827    0.23781   -0.07161    2.79156
  512.54    0.05401    0.24310    0.23241   -0.07160    2.83784
  513.40    0.05455    0.24427    0.23355   -0.07188    2.89337
  514.27    0.04783    0.23017    0.21870   -0.07200    2.19583
  515.13    0.04191    0.21713    0.20471   -0.07262    1.46322
  515.99    0.03949    0.21101    0.19872   -0.07120    0.91548
  516.85    0.04004    0.21153    0.20011   -0.06881    1.34508
  517.72    0.03910    0.20927    0.19774   -0.06873    1.44910
  518.58    0.03984    0.21103    0.19961   -0.06872    1.96724
  519.44    0.03912    0.20942    0.19780   -0.06903    1.82741
  520.31    0.04464    0.22215    0.21128   -0.06892    2.78747
  521.17    0.04608    0.22522    0.21466   -0.06845    3.23069
  522.03    0.04612    0.22517    0.21475   -0.06797    2.68260
  522.89    0.04064    0.21250    0.20158   -0.06747    2.19704
  523.76    0.03882    0.20745    0.19703   -0.06516    1.94097
  524.62    0.05118    0.23448    0.22622   -0.06201    3.01469
  525.48    0.07295    0.27685    0.27010   -0.06124    3.72753
  526.35    0.05163    0.23645    0.22721   -0.06576    2.49241
  527.21    0.04131    0.21376    0.20326   -0.06643    1.18616
  528.07    0.03864    0.20742    0.19657   -0.06644    1.20011
  528.93    0.03423    0.19562    0.18502   -0.06375    1.01305
  529.80    0.03230    0.18981    0.17973   -0.06125    0.78995
  530.66    0.03327    0.19269    0.18241   -0.06232    0.84132
  531.52    0.03554    0.19844    0.18851   -0.06221    1.44748
  532.39    0.03292    0.19200    0.18143   -0.06303    1.26540
  533.25    0.03239    0.19117    0.17998   -0.06466    1.42298
  534.11    0.03707    0.20438    0.19255   -0.06875    1.44429
  534.97    0.03726    0.20552    0.19302   -0.07078    1.08593
  535.84    0.03623    0.20310    0.19034   -0.07107    0.92445
  536.70    0.03616    0.20321    0.19017   -0.07183    0.86273
  537.56    0.03634    0.20363    0.19064   -0.07176    0.67764
  538.43    0.03760    0.20745    0.19391   -0.07392    0.66224
  539.29    0.03925    0.21158    0.19811   -0.07451    0.69831
  540.15    0.03907    0.21163    0.19767   -0.07578    0.65694
  541.01    0.04008    0.21417    0.20020   -0.07629    0.65358
  541.88    0.04103    0.21642    0.20256   -0.07642    0.69247
  542.74    0.03843    0.21032    0.19604   -0.07638    0.73738
  543.60    0.03326    0.19601    0.18238   -0.07200    0.66236
  544.47    0.03316    0.19561    0.18211   -0.07160    0.60374
  545.33    0.03324    0.19648    0.18233   -0.07338    0.60000
  546.19    0.03255    0.19430    0.18041   -0.07232    0.78375
  547.05    0.03511    0.20054    0.18738   -0.07164    0.84304
  547.92    0.03689    0.20509    0.19206   -0.07214    1.36935
  548.78    0.03296    0.19529    0.18156   -0.07212    0.76348
  549.64    0.03496    0.20005    0.18698   -0.07130    0.66387
  550.51    0.04187    0.21580    0.20461   -0.06883    0.94709
  551.37    0.04229    0.21608    0.20565   -0.06657    1.01618
  552.23    0.03915    0.20773    0.19786   -0.06353    0.86858
  553.09    0.03767    0.20388    0.19409   -0.06267    0.82887
  553.96    0.03689    0.20145    0.19208   -0.06096    0.93361
  554.82    0.03263    0.18989    0.18064   -0.05874    0.84347
  555.68    0.02806    0.17705    0.16751   -0.05751    0.73212
  556.55    0.02643    0.17320    0.16258   -0.05988    0.76894
  557.41    0.02947    0.18254    0.17167   -0.06224    0.70356
  558.27    0.03165    0.18875    0.17792   -0.06323    0.66000
  559.13    0.03324    0.19344    0.18232   -0.06484    0.62554
  560.00    0.03523    0.19974    0.18769   -0.06854    0.60023
  560.86    0.03752    0.20678    0.19370   -0.07258    0.71118
  561.72    0.03864    0.20978    0.19657   -0.07347    0.60844
  562.59    0.03616    0.20347    0.19015   -0.07259    0.67792
  563.45    0.03574    0.20226    0.18905   -0.07210    0.65117
  564.31    0.03531    0.20098    0.18790   -0.07152    0.68700
  565.17    0.03663    0.20356    0.19138   -0.06955    1.06130
  566.04    0.03834    0.20746    0.19581   -0.06876    1.22081
  566.90    0.03740    0.20537    0.19338   -0.06936    0.97754
  567.76    0.03442    0.19832    0.18553   -0.07026    1.14296
  568.63    0.03254    0.19315    0.18037   -0.06926    1.28606
  569.49    0.03081    0.18878    0.17554   -0.06963    0.86727
  570.35    0.03187    0.19181    0.17852   -0.07033    0.86504
  571.21    0.03334    0.19556    0.18260   -0.07021    0.72069
  572.08    0.03318    0.19477    0.18215   -0.06917    0.65021
  572.94    0.03259    0.19307    0.18053   -0.06864    0.61092
  573.80    0.03146    0.19039    0.17736   -0.06940    0.55009
  574.67    0.03294    0.19418    0.18148   -0.06926    0.62643
  575.53    0.03789    0.20657    0.19465   -0.06937    1.04358
  576.39    0.03855    0.20836    0.19635   -0.06993    1.22731
  577.25    0.03824    0.20707    0.19556   -0.06830    1.28742
  578.12    0.04365    0.22064    0.20893   -0.07116    1.27936
  578.98    0.04052    0.21358    0.20130   -0.07161    1.17124
  579.84    0.04466    0.22292    0.21134   -0.07116    1.79840
  580.71    0.04386    0.22110    0.20942   -0.07116    1.38218
  581.57    0.03746    0.20633    0.19354   -0.07172    0.75797
