~Version Information
VERS. 2.0:
WRAP. NO:

~Well Information
STRT.FT -172.57:
STOP.FT 709.27:
STEP.FT 0.863:
NULL. -999.25:

~Curve Information
DEPT.FT     : Depth below casing
DAS_VAR.NM  : DAS Amplitude Variance
DAS_RMS.NM  : DAS RMS Amplitude
DAS_STD.NM  : DAS Standard Deviation
DAS_MEAN.NM : DAS Mean Amplitude
DAS_MAX.NM  : DAS Maximum Absolute Amplitude

~A  DEPT  DAS_VAR  DAS_RMS  DAS_STD  DAS_MEAN  DAS_MAX
# ...
  -64.71  151.92428   12.32215   12.32576   -0.17805   64.30907
  -63.85  138.75764   11.77585   11.77954   -0.15209   57.12144
  -62.99  125.94671   11.21923   11.22260   -0.15609   58.12668
  -62.13  107.75877   10.37770   10.38069   -0.15319   40.70076
  -61.26   92.78844    9.63012    9.63268   -0.15622   48.14020
  -60.40   71.24082    8.43847    8.44043   -0.15350   40.69324
  -59.54   53.57970    7.31840    7.31982   -0.14785   31.61340
  -58.67   44.31843    6.65533    6.65721   -0.10106   29.05123
  -57.81   35.30283    5.93995    5.94162   -0.09045   32.26788
  -56.95   29.43432    5.42372    5.42534   -0.07569   30.11701
  -56.09   24.96289    4.99455    4.99629   -0.04966   22.32547
  -55.22   23.10626    4.80533    4.80690   -0.05715   26.28920
  -54.36   21.90071    4.67841    4.67982   -0.06486   29.74659
  -53.50   21.52147    4.63775    4.63912   -0.06556   31.46496
  -52.63   20.34019    4.50894    4.51001   -0.08045   32.05984
  -51.77   18.89791    4.34658    4.34717   -0.09912   31.65485
  -50.91   15.78144    3.97179    3.97259   -0.07890   29.56464
  -50.05   11.04612    3.32271    3.32357   -0.05514   29.46439
  -49.18    7.64632    2.76432    2.76520   -0.03505   27.56166
  -48.32    5.63666    2.37386    2.37417   -0.05509   28.68353
  -47.46    4.70090    2.16795    2.16816   -0.05335   29.75296
  -46.59    3.77676    1.94353    1.94339   -0.05948   24.91961
  -45.73    4.07483    2.01869    2.01862   -0.05913   28.59233
  -44.87    3.82744    1.95638    1.95638   -0.05486   27.83099
  -44.01    3.93292    1.98305    1.98316   -0.05167   27.79324
  -43.14    3.81615    1.95311    1.95350   -0.03915   26.18514
  -42.28    3.78813    1.94594    1.94631   -0.03949   27.99049
  -41.42    4.32241    2.07871    2.07904   -0.04518   29.97617
  -40.55    4.49647    2.12011    2.12049   -0.04457   30.50967
  -39.69    4.41139    2.10001    2.10033   -0.04656   29.71206
  -38.83    5.44929    2.33386    2.33437   -0.04418   34.49153
  -37.97    5.40706    2.32493    2.32531   -0.05013   35.18099
  -37.10    5.20287    2.28071    2.28098   -0.05400   34.86034
  -36.24    5.03550    2.24350    2.24399   -0.04221   33.82281
  -35.38    5.05881    2.24872    2.24918   -0.04415   34.62329
  -34.51    5.08654    2.25498    2.25534   -0.04936   33.15679
  -33.65    5.40486    2.32440    2.32484   -0.04765   37.77675
  -32.79    5.74939    2.39723    2.39779   -0.04345   40.19455
  -31.93    5.23481    2.28765    2.28797   -0.05197   33.51796
  -31.06    5.28438    2.29851    2.29878   -0.05437   34.58499
  -30.20    5.05701    2.24830    2.24878   -0.04331   33.76573
  -29.34    4.83713    2.19909    2.19935   -0.05223   31.30074
  -28.47    4.28485    2.06984    2.06999   -0.05295   29.74108
  -27.61    4.63963    2.15377    2.15398   -0.05263   30.70000
  -26.75    4.39726    2.09670    2.09696   -0.04879   29.54711
  -25.89    3.84895    1.96159    1.96187   -0.04423   27.57853
  -25.02    3.72126    1.92886    1.92906   -0.04663   27.22388
  -24.16    3.91025    1.97718    1.97743   -0.04596   26.56583
  -23.30    3.78468    1.94549    1.94543   -0.05723   26.72137
  -22.43    3.63974    1.90763    1.90781   -0.04699   27.45795
  -21.57    4.19236    2.04731    2.04753   -0.04953   31.70848
  -20.71    4.10582    2.02589    2.02628   -0.04071   31.03582
  -19.85    3.81672    1.95367    1.95364   -0.05604   33.02386
  -18.98    3.17317    1.78150    1.78134   -0.05571   29.35954
  -18.12    2.30845    1.51970    1.51936   -0.05359   25.78579
  -17.26    1.36429    1.16893    1.16803   -0.05639   14.98418
  -16.39    1.03205    1.01702    1.01590   -0.05566    8.50181
  -15.53    0.85993    0.92892    0.92733   -0.06032    9.13824
  -14.67    0.64681    0.80592    0.80425   -0.05658    9.74550
  -13.81    0.70890    0.84364    0.84196   -0.05816   10.68129
  -12.94    0.71502    0.84684    0.84559   -0.05178   11.66031
  -12.08    0.84893    0.92214    0.92138   -0.04571   10.84801
  -11.22    1.04155    1.02114    1.02057   -0.04463   13.72938
  -10.35    1.09642    1.04777    1.04710   -0.04775   14.73232
   -9.49    0.95103    0.97636    0.97521   -0.05476   13.99648
   -8.63    0.93319    0.96731    0.96602   -0.05696   14.98562
   -7.77    1.02124    1.01177    1.01057   -0.05692   16.73236
   -6.90    0.96695    0.98469    0.98334   -0.05851   15.96775
   -6.04    1.00401    1.00323    1.00200   -0.05716   16.95583
   -5.18    1.05752    1.02949    1.02836   -0.05632   16.91946
   -4.31    1.14881    1.07285    1.07182   -0.05574   17.16835
   -3.45    1.20674    1.09953    1.09852   -0.05646   17.62886
   -2.59    1.12237    1.06058    1.05942   -0.05782   17.56340
   -1.73    0.98540    0.99402    0.99267   -0.05890   17.38649
   -0.86    0.96457    0.98350    0.98213   -0.05890   16.65553
    0.00    1.05369    1.02811    1.02649   -0.06453   17.59787
    0.86    1.02490    1.01385    1.01238   -0.06165   16.89034
    1.73    0.97426    0.98855    0.98705   -0.06121   17.51909
    2.59    0.75496    0.87098    0.86888   -0.06518   14.19796
    3.45    0.59812    0.77552    0.77338   -0.06154   13.75330
    4.31    0.46369    0.68343    0.68095   -0.06134   10.93430
    5.18    0.45457    0.67689    0.67422   -0.06305    9.96687
    6.04    0.42624    0.65581    0.65287   -0.06472   10.17554
    6.90    0.37208    0.61332    0.60998   -0.06615    9.72874
    7.77    0.42850    0.65753    0.65460   -0.06471    9.80704
    8.63    0.41412    0.64630    0.64352   -0.06256    8.04963
    9.49    0.26468    0.51743    0.51447   -0.05718    5.49718
   10.35    0.25060    0.50440    0.50060   -0.06337    3.83282
   11.22    0.22638    0.47986    0.47579   -0.06380    3.52629
   12.08    0.22557    0.47940    0.47494   -0.06659    4.19282
   12.94    0.26072    0.51437    0.51061   -0.06374    4.98290
   13.81    0.37197    0.61186    0.60990   -0.05195    9.44423
   14.67    0.39028    0.62615    0.62472   -0.04581    9.91583
   15.53    0.30018    0.55035    0.54788   -0.05433    9.31313
   16.39    0.32647    0.57398    0.57137   -0.05692    9.26276
   17.26    0.23750    0.49057    0.48734   -0.05787    8.20369
   18.12    0.18960    0.43933    0.43543   -0.05970    4.68016
   18.98    0.18397    0.43320    0.42892   -0.06198    5.55241
   19.85    0.30311    0.55419    0.55056   -0.06523    7.46321
   20.71    0.31430    0.56387    0.56062   -0.06243    7.59742
   21.57    0.40988    0.64280    0.64022   -0.06034    8.62355
   22.43    0.31328    0.56289    0.55971   -0.06179    7.52127
   23.30    0.19549    0.44627    0.44214   -0.06184    4.94225
   24.16    0.10975    0.33667    0.33129   -0.06067    3.55934
   25.02    0.09727    0.31771    0.31189   -0.06117    3.00020
   25.89    0.12651    0.36195    0.35568   -0.06779    3.01361
   26.75    0.14494    0.38610    0.38071   -0.06523    3.25011
   27.61    0.13414    0.37184    0.36625   -0.06507    3.23173
   28.47    0.12871    0.36458    0.35877   -0.06564    2.38305
   29.34    0.11164    0.34078    0.33412   -0.06771    3.45160
   30.20    0.10370    0.32836    0.32203   -0.06484    3.61495
   31.06    0.12696    0.36196    0.35631   -0.06448    4.07314
   31.93    0.10908    0.33599    0.33027   -0.06242    3.40629
   32.79    0.10826    0.33489    0.32903   -0.06307    3.23734
   33.65    0.12108    0.35358    0.34797   -0.06351    3.15128
   34.51    0.15557    0.39836    0.39442   -0.05700    3.57752
   35.38    0.09831    0.32056    0.31354   -0.06730    2.86147
   36.24    0.09639    0.31743    0.31046   -0.06671    3.32551
   37.10    0.08419    0.29739    0.29016   -0.06567    3.14598
   37.97    0.07613    0.28355    0.27591   -0.06582    2.80102
   38.83    0.06863    0.27056    0.26197   -0.06803    2.31335
   39.69    0.07558    0.28218    0.27491   -0.06409    2.38587
   40.55    0.08330    0.29468    0.28861   -0.06003    2.44078
   41.42    0.07759    0.28510    0.27855   -0.06127    3.18620
   42.28    0.06505    0.26233    0.25505   -0.06178    1.77325
