~Version Information
VERS. 2.0:
WRAP. NO:

~Well Information
STRT.FT -172.57:
STOP.FT 709.27:
STEP.FT 0.863:
NULL. -999.25:

~Curve Information
DEPT.FT     : Depth below casing
DAS_VAR.NM  : DAS Amplitude Variance
DAS_RMS.NM  : DAS RMS Amplitude
DAS_STD.NM  : DAS Standard Deviation
DAS_MEAN.NM : DAS Mean Amplitude
DAS_MAX.NM  : DAS Maximum Absolute Amplitude

~A  DEPT  DAS_VAR  DAS_RMS  DAS_STD  DAS_MEAN  DAS_MAX
# ...
  258.86    0.04286    0.22724    0.20703   -0.09493    0.63685
  259.72    0.04626    0.23458    0.21508   -0.09500    0.69234
  260.58    0.04116    0.22365    0.20287   -0.09534    0.65704
  261.45    0.03866    0.21695    0.19661   -0.09289    0.57128
  262.31    0.04160    0.22322    0.20396   -0.09196    0.52980
  263.17    0.04408    0.22765    0.20996   -0.08935    0.53952
  264.04    0.05305    0.24744    0.23033   -0.09202    1.00008
  264.90    0.06581    0.27165    0.25653   -0.09139    1.39513
  265.76    0.09257    0.31655    0.30425   -0.09027    1.98877
  266.62    0.11667    0.35198    0.34157   -0.08868    2.51604
  267.49    0.11979    0.35578    0.34611   -0.08635    2.47491
  268.35    0.14145    0.38581    0.37610   -0.09047    2.78368
  269.21    0.13308    0.37375    0.36480   -0.08574    2.86784
  270.08    0.14078    0.38413    0.37521   -0.08690    2.76909
  270.94    0.14913    0.39480    0.38618   -0.08699    3.15581
  271.80    0.18101    0.43388    0.42545   -0.09083    3.19643
  272.66    0.16432    0.41418    0.40536   -0.09023    3.11522
  273.53    0.18856    0.44272    0.43424   -0.09211    3.22343
  274.39    0.14580    0.39089    0.38183   -0.08838    2.90330
  275.25    0.20175    0.45647    0.44916   -0.08797    3.47318
  276.12    0.18723    0.43980    0.43270   -0.08505    3.52511
  276.98    0.18906    0.44269    0.43481   -0.08924    3.46172
  277.84    0.15388    0.40099    0.39227   -0.08813    2.98038
  278.70    0.13010    0.36980    0.36069   -0.08587    2.86925
  279.57    0.11413    0.34768    0.33783   -0.08595    2.54123
  280.43    0.07584    0.28677    0.27539   -0.08259    1.93743
  281.29    0.06839    0.27172    0.26152   -0.07627    1.79154
  282.16    0.08555    0.30127    0.29250   -0.07538    2.22634
  283.02    0.07546    0.28380    0.27471   -0.07414    1.98754
  283.88    0.10399    0.32952    0.32247   -0.07194    2.85493
  284.74    0.17828    0.42811    0.42223   -0.07741    3.44165
  285.61    0.23809    0.49311    0.48795   -0.07990    4.35647
  286.47    0.24913    0.50421    0.49913   -0.08050    4.31251
  287.33    0.22387    0.47938    0.47314   -0.08475    4.00203
  288.20    0.31715    0.56758    0.56316   -0.08218    4.79320
  289.06    0.47529    0.69175    0.68941   -0.07658    6.24275
  289.92    0.55303    0.74599    0.74366   -0.08084    6.68721
  290.78    0.43262    0.66025    0.65774   -0.07562    5.86807
  291.65    0.47264    0.69005    0.68748   -0.07847    6.12616
  292.51    0.34412    0.59025    0.58662   -0.07867    5.22617
  293.37    0.44790    0.67175    0.66926   -0.07634    6.13506
  294.24    0.40762    0.64138    0.63845   -0.07753    5.40935
  295.10    0.44931    0.67282    0.67031   -0.07662    5.96950
  295.96    0.52803    0.72874    0.72666   -0.07722    6.45467
  296.82    0.41280    0.64513    0.64250   -0.07538    5.68269
  297.69    0.36953    0.61064    0.60789   -0.07352    5.48581
  298.55    0.28796    0.54108    0.53662   -0.08003    4.75539
  299.41    0.22781    0.48346    0.47729   -0.08477    3.65569
  300.28    0.22154    0.47685    0.47068   -0.08414    3.54804
  301.14    0.31239    0.56319    0.55892   -0.08079    4.41643
  302.00    0.23896    0.49458    0.48884   -0.08351    3.98994
  302.86    0.17261    0.42314    0.41546   -0.08600    3.17144
  303.73    0.28249    0.53658    0.53150   -0.08363    4.06619
  304.59    0.28037    0.53524    0.52950   -0.08758    4.26912
  305.45    0.29924    0.55202    0.54703   -0.08454    4.86041
  306.32    0.26915    0.52337    0.51879   -0.07915    4.27876
  307.18    0.23755    0.49122    0.48739   -0.07115    4.13222
  308.04    0.17647    0.42561    0.42008   -0.07523    3.10405
  308.90    0.19905    0.45063    0.44615   -0.07160    3.45393
  309.77    0.15551    0.39925    0.39435   -0.06896    2.85697
  310.63    0.25418    0.50692    0.50416   -0.06481    4.37024
  311.49    0.27560    0.52864    0.52497   -0.07345    4.45370
  312.36    0.35495    0.59898    0.59578   -0.07615    5.62920
  313.22    0.37332    0.61351    0.61100   -0.07175    5.77178
  314.08    0.27014    0.52306    0.51975   -0.07038    4.58355
  314.94    0.37900    0.61750    0.61563   -0.06642    4.98333
  315.81    0.36487    0.60651    0.60405   -0.07075    5.25707
  316.67    0.30595    0.55629    0.55312   -0.07217    4.87267
  317.53    0.42286    0.65208    0.65028   -0.06849    5.75733
  318.40    0.27209    0.52603    0.52163   -0.07828    4.56311
  319.26    0.35242    0.59696    0.59365   -0.07686    5.61229
  320.12    0.22739    0.48276    0.47686   -0.08327    4.17305
  320.98    0.24103    0.49655    0.49095   -0.08288    4.08661
  321.85    0.17588    0.42765    0.41938   -0.08934    3.07935
  322.71    0.15499    0.40255    0.39369   -0.08893    2.81662
  323.57    0.18657    0.44017    0.43194   -0.09064    3.27953
  324.44    0.17325    0.42436    0.41623   -0.08827    3.15441
  325.30    0.22857    0.48489    0.47809   -0.08842    3.70445
  326.16    0.16582    0.41542    0.40721   -0.08759    3.19960
  327.02    0.11541    0.35005    0.33973   -0.08812    2.53321
  327.89    0.06564    0.27195    0.25621   -0.09315    1.28261
  328.75    0.05836    0.25868    0.24158   -0.09420    1.12112
  329.61    0.06536    0.27171    0.25565   -0.09397    1.30381
  330.48    0.06257    0.26592    0.25015   -0.09214    1.12498
  331.34    0.04683    0.23542    0.21640   -0.09408    0.84790
  332.20    0.04454    0.22944    0.21104   -0.09139    0.74312
  333.06    0.04169    0.22423    0.20417   -0.09393    0.58286
  333.93    0.04012    0.22058    0.20029   -0.09361    0.64592
  334.79    0.04310    0.22686    0.20761   -0.09274    0.58640
  335.65    0.04684    0.23520    0.21642   -0.09352    0.98628
  336.52    0.04674    0.23579    0.21620   -0.09545    0.93431
  337.38    0.04476    0.23151    0.21156   -0.09532    0.76125
  338.24    0.03857    0.21773    0.19639   -0.09514    0.58436
  339.10    0.04277    0.22690    0.20680   -0.09462    0.57683
  339.97    0.05179    0.24139    0.22757   -0.08230    0.91297
  340.83    0.08232    0.29900    0.28691   -0.08681    1.03572
  341.69    0.07645    0.28971    0.27650   -0.08890    1.02099
  342.56    0.05677    0.25123    0.23826   -0.08163    0.83371
  343.42    0.04497    0.22539    0.21207   -0.07796    0.92240
  344.28    0.04175    0.21814    0.20432   -0.07791    0.99898
  345.14    0.03932    0.21448    0.19829   -0.08308    0.67013
  346.01    0.03739    0.21263    0.19335   -0.08963    0.53382
  346.87    0.03857    0.21550    0.19640   -0.08989    0.57772
  347.73    0.04021    0.21957    0.20053   -0.09067    0.57577
  348.60    0.04334    0.22855    0.20819   -0.09556    0.59112
  349.46    0.04116    0.22387    0.20287   -0.09587    0.56314
  350.32    0.04379    0.22879    0.20925   -0.09381    0.57413
  351.18    0.04441    0.23206    0.21074   -0.09842    0.94034
  352.05    0.06307    0.27050    0.25113   -0.10224    1.63611
  352.91    0.05191    0.24884    0.22785   -0.10147    1.33059
  353.77    0.04807    0.24067    0.21926   -0.10058    1.16569
  354.64    0.04240    0.22541    0.20592   -0.09295    0.97033
  355.50    0.03465    0.20477    0.18614   -0.08646    0.60053
  356.36    0.03430    0.20427    0.18521   -0.08725    0.53220
  357.22    0.03733    0.21157    0.19321   -0.08741    0.52628
  358.09    0.03728    0.21116    0.19308   -0.08668    0.53095
  358.95    0.04214    0.22489    0.20527   -0.09312    0.54499
  359.81    0.04449    0.23219    0.21093   -0.09832    0.55380
  360.68    0.04648    0.23674    0.21560   -0.09909    0.55552
  361.54    0.05241    0.24827    0.22893   -0.09756    0.88345
  362.40    0.06046    0.26204    0.24589   -0.09241    1.02050
  363.26    0.05549    0.25261    0.23557   -0.09288    1.00823
  364.13    0.04859    0.23940    0.22042   -0.09485    0.81489
  364.99    0.04357    0.22894    0.20873   -0.09531    0.75814
  365.85    0.04266    0.22642    0.20655   -0.09402    0.61292
