~Version Information
VERS. 2.0:
WRAP. NO:

~Well Information
STRT.FT -172.57:
STOP.FT 709.27:
STEP.FT 0.863:
NULL. -999.25:

~Curve Information
DEPT.FT     : Depth below casing
DAS_VAR.NM  : DAS Amplitude Variance
DAS_RMS.NM  : DAS RMS Amplitude
DAS_STD.NM  : DAS Standard Deviation
DAS_MEAN.NM : DAS Mean Amplitude
DAS_MAX.NM  : DAS Maximum Absolute Amplitude

~A  DEPT  DAS_VAR  DAS_RMS  DAS_STD  DAS_MEAN  DAS_MAX
 -172.57    0.00229    0.04789    0.04790   -0.00089    1.12241
 -171.71    0.00253    0.05032    0.05033   -0.00104    1.26452
 -170.85    0.00280    0.05290    0.05291   -0.00105    1.35905
 -169.98    0.00240    0.04899    0.04901   -0.00083    1.12935
 -169.12    0.00161    0.04008    0.04009   -0.00015    0.33704
 -168.26    0.00111    0.03327    0.03328   -0.00007    0.21630
 -167.40    0.00107    0.03271    0.03273   -0.00007    0.21425
 -166.53    0.00112    0.03352    0.03353    0.00000    0.22606
 -165.67    0.00091    0.03018    0.03019    0.00020    0.21190
 -164.81    0.00086    0.02924    0.02925    0.00010    0.17374
 -163.94    0.00103    0.03201    0.03202    0.00011    0.15066
 -163.08    0.00130    0.03599    0.03601   -0.00010    0.20752
 -162.22    0.00165    0.04064    0.04065   -0.00032    0.28910
 -161.35    0.00249    0.04984    0.04986   -0.00069    0.68826
 -160.49    0.00502    0.07084    0.07085   -0.00149    1.66156
 -159.63    0.01177    0.10846    0.10847   -0.00255    2.80709
 -158.77    0.02508    0.15833    0.15837   -0.00270    2.92777
 -157.90    0.04088    0.20213    0.20219   -0.00320    3.68896
 -157.04    0.13961    0.37350    0.37364   -0.00258    2.82820
 -156.18    0.32471    0.56962    0.56983   -0.00290    3.77647
 -155.31    0.54566    0.73840    0.73869   -0.00227    6.15310
 -154.45    0.83457    0.91321    0.91355   -0.00582    6.76386
 -153.59    1.31230    1.14521    1.14556   -0.01536   15.37899
 -152.73    2.13158    1.45961    1.45999   -0.02406   24.09380
 -151.86    3.32051    1.82186    1.82223   -0.03615   35.11814
 -151.00    3.28322    1.81158    1.81196   -0.03500   33.69013
 -150.14    3.61723    1.90144    1.90190   -0.03355   36.14225
 -149.27    3.77522    1.94237    1.94299   -0.02369   26.81184
 -148.41    3.84676    1.96057    1.96132   -0.01137   14.26669
 -147.55    4.36704    2.08892    2.08975   -0.00535   15.86765
 -146.69    5.64671    2.37535    2.37628   -0.00617   19.50952
 -145.82    6.49732    2.54798    2.54898   -0.00574   23.01295
 -144.96    7.35573    2.71108    2.71215   -0.00878   19.27925
 -144.10    8.72192    2.95214    2.95329   -0.01236   19.15690
 -143.23    9.52780    3.08556    3.08671   -0.02035   21.10077
 -142.37   10.38777    3.22182    3.22301   -0.02390   24.04701
 -141.51   11.04507    3.32216    3.32341   -0.02026   21.16883
 -140.65   10.19697    3.19205    3.19327   -0.01666   17.09888
 -139.78   10.22568    3.19654    3.19776   -0.01724   20.49136
 -138.92   10.33071    3.21290    3.21414   -0.01518   15.66050
 -138.06   11.64876    3.41172    3.41303   -0.01693   18.66460
 -137.19   12.92207    3.59337    3.59473   -0.02130   23.24520
 -136.33   13.87820    3.72393    3.72535   -0.02114   22.47696
 -135.47   16.19037    4.02220    4.02373   -0.02341   25.75989
 -134.61   21.49048    4.63397    4.63578   -0.01628   27.28016
 -133.74   24.56088    4.95393    4.95589   -0.00272   26.05421
 -132.88   25.55455    5.05314    5.05515    0.00230   26.65702
 -132.02   26.27449    5.12383    5.12586    0.00330   29.81219
 -131.15   26.24671    5.12112    5.12315    0.00197   31.47257
 -130.29   26.53088    5.14877    5.15081    0.00550   26.45296
 -129.43   26.62110    5.15752    5.15956    0.00571   32.91405
 -128.57   27.39087    5.23156    5.23363    0.00825   34.56020
 -127.70   27.98221    5.28774    5.28982    0.01446   32.11399
 -126.84   29.10044    5.39236    5.39448    0.01577   31.21422
 -125.98   31.10292    5.57480    5.57700    0.01215   28.44743
 -125.11   33.00386    5.74262    5.74490    0.00227   25.03980
 -124.25   34.94321    5.90895    5.91128    0.01471   23.20082
 -123.39   38.42907    6.19667    6.19912    0.01147   24.03244
 -122.53   41.55543    6.44379    6.44635    0.00236   25.27163
 -121.66   44.29459    6.65279    6.65542    0.01250   27.30501
 -120.80   45.36262    6.73251    6.73518    0.00766   27.51067
 -119.94   46.85022    6.84201    6.84472    0.00607   26.75972
 -119.07   49.07000    7.00222    7.00500    0.00353   25.36205
 -118.21   53.63630    7.32081    7.32368    0.02223   26.58339
 -117.35   55.72479    7.46197    7.46490    0.02098   33.86068
 -116.49   60.12493    7.75112    7.75403    0.05081   53.71159
 -115.62   63.57080    7.97006    7.97313    0.03832   33.59602
 -114.76   65.19207    8.07098    8.07416    0.01998   32.21518
 -113.90   66.71073    8.16444    8.16766    0.01770   36.24458
 -113.03   71.01572    8.42376    8.42708    0.01743   36.35725
 -112.17   75.06828    8.66077    8.66420    0.01744   39.89824
 -111.31   79.81029    8.93013    8.93366    0.01632   39.64617
 -110.45   84.68504    9.19883    9.20245    0.02607   40.47511
 -109.58   88.06472    9.38061    9.38428    0.03283   37.94400
 -108.72   92.80600    9.62986    9.63359    0.04393   40.91273
 -107.86   92.61067    9.61973    9.62344    0.04444   38.10224
 -106.99   98.85365    9.93869    9.94252    0.04808   39.81658
 -106.13  101.09539   10.05069   10.05462    0.03596   38.13286
 -105.27  105.38183   10.26152   10.26557    0.02545   37.95523
 -104.41  108.52465   10.41339   10.41752    0.01527   39.91116
 -103.54  116.20171   10.77543   10.77969    0.01746   43.37133
 -102.68  113.98401   10.67210   10.67633    0.01293   42.40817
 -101.82  116.93127   10.80919   10.81348    0.01305   43.61412
 -100.95  114.82684   10.71148   10.71573    0.00864   42.48208
 -100.09  115.58408   10.74674   10.75100   -0.00566   42.15486
  -99.23  118.47868   10.88047   10.88479   -0.00537   44.76201
  -98.37  118.12770   10.86434   10.86866   -0.00204   44.20925
  -97.50  122.61839   11.06893   11.07332    0.00649   45.99998
  -96.64  120.37267   10.96710   10.97145    0.01243   42.14254
  -95.78  122.72613   11.07379   11.07818    0.01326   43.42237
  -94.91  124.77709   11.16594   11.17037    0.01107   44.32219
  -94.05  124.58299   11.15725   11.16167    0.01137   47.48798
  -93.19  124.24105   11.14193   11.14635    0.01005   50.94202
  -92.33  126.97883   11.26404   11.26849    0.02206   50.26243
  -91.46  127.30780   11.27860   11.28308    0.00905   46.59942
  -90.60  125.03672   11.17755   11.18198    0.01529   43.47039
  -89.74  123.39567   11.10396   11.10836    0.01604   44.95982
  -88.87  132.45264   11.50426   11.50881    0.02167   52.39311
  -88.01  130.34640   11.41244   11.41693    0.02919   50.22794
  -87.15  137.04473   11.70201   11.70661    0.03356   62.10676
  -86.29  137.33204   11.71426   11.71888    0.02867   60.89919
  -85.42  137.80319   11.73436   11.73896    0.03841   70.81472
  -84.56  136.87703   11.69488   11.69945    0.04180   63.56311
  -83.70  132.03990   11.48643   11.49086    0.05537   62.05779
  -82.83  127.69460   11.29575   11.30020    0.02758   66.75278
  -81.97  121.87934   11.03554   11.03990    0.02514   61.79653
  -81.11  117.27159   10.82492   10.82920    0.01740   71.58596
  -80.25  112.68278   10.61101   10.61521    0.01585   55.19983
  -79.38  108.58981   10.41654   10.42064    0.02460   59.03787
  -78.52  102.51178   10.12081   10.12481    0.02043   58.59943
  -77.66   98.57917    9.92479    9.92870    0.02143   46.78738
  -76.79   95.29689    9.75816    9.76201    0.01957   52.07298
  -75.93   94.09982    9.69666    9.70051    0.00850   53.60302
  -75.07   89.34527    9.44853    9.45226    0.01661   40.40934
  -74.21   83.19088    9.11729    9.12090    0.00817   42.08727
  -73.34   76.85354    8.76316    8.76662    0.02037   39.58234
  -72.48   71.08040    8.42758    8.43092    0.00677   37.03199
  -71.62   64.62550    8.03583    8.03900    0.01757   33.97183
  -70.75   59.74643    7.72654    7.72958    0.02070   31.57974
  -69.89   59.50653    7.71102    7.71405    0.02320   34.50027
  -69.03   55.81996    7.46835    7.47128    0.02278   37.19886
  -68.17   53.24290    7.29393    7.29677    0.02719   32.53935
  -67.30   49.52368    7.03456    7.03731    0.02630   32.33401
  -66.44   46.94874    6.84925    6.85192    0.02603   32.77068
  -65.58   42.23059    6.49594    6.49851    0.01102   33.24150
