~Version Information
VERS. 2.0:
WRAP. NO:

~Well Information
STRT.FT -172.57:
STOP.FT 709.27:
STEP.FT 0.863:
NULL. -999.25:

~Curve Information
DEPT.FT     : Depth below casing
DAS_VAR.NM  : DAS Amplitude Variance
DAS_RMS.NM  : DAS RMS Amplitude
DAS_STD.NM  : DAS Standard Deviation
DAS_MEAN.NM : DAS Mean Amplitude
DAS_MAX.NM  : DAS Maximum Absolute Amplitude

~A  DEPT  DAS_VAR  DAS_RMS  DAS_STD  DAS_MEAN  DAS_MAX
# ...
   43.14    0.05582    0.24489    0.23625   -0.06479    2.17000
   44.01    0.05690    0.24707    0.23855   -0.06469    1.93685
   44.87    0.04839    0.22877    0.21997   -0.06313    1.40381
   45.73    0.05449    0.24150    0.23343   -0.06223    1.51609
   46.59    0.06131    0.25520    0.24761   -0.06215    1.41568
   47.46    0.07184    0.27518    0.26803   -0.06279    2.21847
   48.32    0.07476    0.28029    0.27343   -0.06213    1.88717
   49.18    0.07394    0.27792    0.27193   -0.05792    2.00403
   50.05    0.05624    0.24531    0.23714   -0.06312    2.05496
   50.91    0.04774    0.22837    0.21849   -0.06672    2.26109
   51.77    0.05331    0.24049    0.23090   -0.06757    2.49806
   52.63    0.05808    0.25068    0.24099   -0.06936    2.42166
   53.50    0.06445    0.26362    0.25387   -0.07139    2.59842
   54.36    0.05925    0.25402    0.24342   -0.07295    2.07863
   55.22    0.05496    0.24532    0.23443   -0.07259    1.84342
   56.09    0.04993    0.23475    0.22345   -0.07222    1.85978
   56.95    0.05225    0.23946    0.22858   -0.07165    2.11467
   57.81    0.08654    0.30198    0.29417   -0.06873    3.09642
   58.67    0.17666    0.42550    0.42031   -0.06730    3.45140
   59.54    0.22654    0.48143    0.47596   -0.07360    4.56258
   60.40    0.14382    0.38637    0.37923   -0.07471    3.61808
   61.26    0.08986    0.30801    0.29976   -0.07129    2.13415
   62.13    0.07317    0.27911    0.27050   -0.06920    1.88998
   62.99    0.06561    0.26521    0.25615   -0.06909    1.99259
   63.85    0.06440    0.26215    0.25377   -0.06611    1.80560
   64.71    0.06270    0.25840    0.25040   -0.06420    2.20269
   65.58    0.05187    0.23591    0.22776   -0.06181    1.74950
   66.44    0.06405    0.25981    0.25308   -0.05922    3.35163
   67.30    0.07193    0.27347    0.26819   -0.05400    2.14175
   68.17    0.07259    0.27516    0.26942   -0.05645    2.29519
   69.03    0.05728    0.24612    0.23933   -0.05784    2.05618
   69.89    0.04849    0.22877    0.22019   -0.06237    1.63174
   70.75    0.04644    0.22636    0.21551   -0.06952    1.06300
   71.62    0.05178    0.23852    0.22756   -0.07179    0.97915
   72.48    0.06574    0.26609    0.25640   -0.07154    1.88808
   73.34    0.09690    0.31799    0.31129   -0.06550    3.10239
   74.21    0.09355    0.31301    0.30586   -0.06711    2.11232
   75.07    0.07178    0.27596    0.26792   -0.06657    1.33209
   75.93    0.05838    0.25043    0.24163   -0.06619    1.41571
   76.79    0.05612    0.24575    0.23690   -0.06571    1.41230
   77.66    0.05000    0.23296    0.22361   -0.06565    1.46657
   78.52    0.05046    0.23394    0.22464   -0.06560    1.49599
   79.38    0.05456    0.24295    0.23357   -0.06719    1.69285
   80.25    0.05686    0.24771    0.23845   -0.06745    1.51101
   81.11    0.05750    0.24945    0.23978   -0.06911    1.54097
   81.97    0.05687    0.24821    0.23848   -0.06916    1.43280
   82.83    0.05484    0.24428    0.23417   -0.06983    1.59996
   83.70    0.05053    0.23541    0.22480   -0.07018    1.45516
   84.56    0.05004    0.23466    0.22369   -0.07117    1.43991
   85.42    0.04760    0.22972    0.21818   -0.07216    1.51042
   86.29    0.04639    0.22755    0.21538   -0.07368    1.45287
   87.15    0.04838    0.23232    0.21994   -0.07507    1.68280
   88.01    0.05400    0.24408    0.23237   -0.07498    1.96922
   88.87    0.05094    0.23793    0.22569   -0.07561    1.72606
   89.74    0.04956    0.23485    0.22263   -0.07503    1.61104
   90.60    0.04730    0.22978    0.21749   -0.07440    1.26103
   91.46    0.05205    0.23947    0.22815   -0.07304    1.88010
   92.33    0.05136    0.23784    0.22662   -0.07247    1.81889
   93.19    0.05153    0.23798    0.22700   -0.07174    1.87969
   94.05    0.05676    0.24850    0.23825   -0.07095    2.07671
   94.91    0.05710    0.24853    0.23897   -0.06862    2.08461
   95.78    0.05387    0.24151    0.23210   -0.06711    1.71929
   96.64    0.05680    0.24820    0.23832   -0.06965    1.44992
   97.50    0.05405    0.24175    0.23248   -0.06664    1.02080
   98.37    0.05556    0.24430    0.23572   -0.06454    1.29738
   99.23    0.06804    0.26862    0.26085   -0.06456    1.80843
  100.09    0.06292    0.25850    0.25083   -0.06288    1.80970
  100.95    0.06228    0.25713    0.24957   -0.06228    1.29091
  101.82    0.05553    0.24349    0.23565   -0.06165    1.56439
  102.68    0.04977    0.23172    0.22309   -0.06298    1.55584
  103.54    0.05293    0.23940    0.23006   -0.06653    1.63492
  104.41    0.04983    0.23365    0.22322   -0.06932    1.44974
  105.27    0.04873    0.23167    0.22075   -0.07055    1.33951
  106.13    0.04851    0.23168    0.22024   -0.07218    1.25900
  106.99    0.05274    0.24127    0.22964   -0.07428    1.33071
  107.86    0.05552    0.24717    0.23562   -0.07497    0.96420
  108.72    0.05482    0.24571    0.23414   -0.07478    0.90828
  109.58    0.05546    0.24632    0.23549   -0.07252    1.39475
  110.45    0.05847    0.25200    0.24180   -0.07129    2.03882
  111.31    0.05231    0.23911    0.22871   -0.07005    1.65606
  112.17    0.05589    0.24609    0.23641   -0.06864    2.33076
  113.03    0.05019    0.23448    0.22403   -0.06950    2.36071
  113.90    0.04836    0.22920    0.21990   -0.06492    1.93238
  114.76    0.05169    0.23618    0.22735   -0.06432    2.11441
  115.62    0.05563    0.24424    0.23585   -0.06381    2.36761
  116.49    0.05442    0.24202    0.23329   -0.06475    2.09279
  117.35    0.05867    0.25049    0.24223   -0.06419    2.55238
  118.21    0.07121    0.27469    0.26685   -0.06559    3.03257
  119.07    0.07384    0.27958    0.27174   -0.06618    3.10103
  119.94    0.06521    0.26363    0.25536   -0.06591    2.96259
  120.80    0.06881    0.26981    0.26231   -0.06359    3.19338
  121.66    0.05902    0.25068    0.24293   -0.06224    2.93490
  122.53    0.05297    0.23796    0.23016   -0.06077    2.68565
  123.39    0.07668    0.28268    0.27690   -0.05737    2.43433
  124.25    0.06811    0.26752    0.26098   -0.05923    1.61976
  125.11    0.07332    0.27758    0.27079   -0.06152    2.11706
  125.98    0.06431    0.26125    0.25359   -0.06320    1.83437
  126.84    0.05148    0.23592    0.22690   -0.06493    1.61440
  127.70    0.05776    0.24956    0.24033   -0.06757    2.13424
  128.57    0.07331    0.27944    0.27077   -0.06952    2.86407
  129.43    0.09529    0.31642    0.30870   -0.07003    5.24592
  130.29    0.10586    0.33317    0.32536   -0.07233    5.22016
  131.15    0.08131    0.29477    0.28515   -0.07515    3.38449
  132.02    0.06099    0.25755    0.24696   -0.07341    2.18837
  132.88    0.05681    0.24975    0.23835   -0.07488    1.64914
  133.74    0.05608    0.24743    0.23681   -0.07202    1.52472
  134.61    0.05097    0.23687    0.22577   -0.07195    1.65065
  135.47    0.05008    0.23446    0.22378   -0.07023    1.84950
  136.33    0.05247    0.23902    0.22907   -0.06854    1.93801
  137.19    0.05285    0.23910    0.22989   -0.06604    2.43508
  138.06    0.05236    0.23768    0.22883   -0.06457    2.81247
  138.92    0.06303    0.25956    0.25106   -0.06624    3.21459
  139.78    0.06990    0.27248    0.26439   -0.06633    3.35581
  140.65    0.07297    0.27843    0.27014   -0.06788    3.53918
  141.51    0.07285    0.27844    0.26991   -0.06879    3.37592
  142.37    0.06659    0.26706    0.25805   -0.06917    2.94881
  143.23    0.08703    0.30257    0.29502   -0.06771    4.80700
  144.10    0.08610    0.30121    0.29344   -0.06848    4.32734
  144.96    0.08328    0.29680    0.28858   -0.06988    3.96533
  145.82    0.09036    0.30842    0.30059   -0.06956    4.74790
  146.69    0.12646    0.36236    0.35561   -0.07035    6.01439
  147.55    0.10254    0.32764    0.32021   -0.06996    5.54063
  148.41    0.09893    0.32203    0.31453   -0.06968    5.52350
  149.27    0.07008    0.27392    0.26472   -0.07078    3.50006
  150.14    0.06822    0.27071    0.26119   -0.07152    3.50881
