~Version Information
VERS. 2.0:
WRAP. NO:

~Well Information
STRT.FT -172.57:
STOP.FT 709.27:
STEP.FT 0.863:
NULL. -999.25:

~Curve Information
DEPT.FT     : Depth below casing
DAS_VAR.NM  : DAS Amplitude Variance
DAS_RMS.NM  : DAS RMS Amplitude
DAS_STD.NM  : DAS Standard Deviation
DAS_MEAN.NM : DAS Mean Amplitude
DAS_MAX.NM  : DAS Maximum Absolute Amplitude

~A  DEPT  DAS_VAR  DAS_RMS  DAS_STD  DAS_MEAN  DAS_MAX
# ...
  258.86    0.04439    0.22256    0.21069   -0.07197    1.17344
  259.72    0.04539    0.22490    0.21304   -0.07232    1.18622
  260.58    0.04657    0.22784    0.21581   -0.07332    1.10354
  261.45    0.04502    0.22400    0.21219   -0.07203    0.98060
  262.31    0.04419    0.22168    0.21022   -0.07060    1.28877
  263.17    0.04213    0.21676    0.20524   -0.06996    1.07890
  264.04    0.04281    0.21889    0.20691   -0.07166    1.09827
  264.90    0.04424    0.22247    0.21033   -0.07272    1.39513
  265.76    0.04530    0.22481    0.21284   -0.07264    1.98877
  266.62    0.04729    0.22893    0.21745   -0.07183    2.51604
  267.49    0.04723    0.22879    0.21733   -0.07176    2.47491
  268.35    0.04985    0.23469    0.22327   -0.07258    2.78368
  269.21    0.04919    0.23287    0.22178   -0.07128    2.86784
  270.08    0.04997    0.23485    0.22353   -0.07233    2.76909
  270.94    0.05260    0.24029    0.22934   -0.07199    3.15581
  271.80    0.05726    0.25017    0.23930   -0.07326    3.19643
  272.66    0.05687    0.24921    0.23847   -0.07267    3.11522
  273.53    0.06088    0.25716    0.24673   -0.07282    3.22343
  274.39    0.05671    0.24881    0.23814   -0.07240    2.90330
  275.25    0.06432    0.26355    0.25362   -0.07201    3.47318
  276.12    0.06600    0.26643    0.25690   -0.07098    3.52511
  276.98    0.06994    0.27399    0.26447   -0.07198    3.46172
  277.84    0.06757    0.26939    0.25994   -0.07113    2.98038
  278.70    0.05532    0.24511    0.23520   -0.06931    2.86925
  279.57    0.04930    0.23216    0.22204   -0.06810    2.54123
  280.43    0.04256    0.21669    0.20629   -0.06656    1.93743
  281.29    0.04243    0.21555    0.20598   -0.06378    1.79154
  282.16    0.04102    0.21182    0.20254   -0.06229    2.22634
  283.02    0.03844    0.20572    0.19606   -0.06257    1.98754
  283.88    0.04508    0.22141    0.21232   -0.06307    2.85493
  284.74    0.05350    0.24024    0.23130   -0.06526    3.44165
  285.61    0.06027    0.25429    0.24549   -0.06666    4.35647
  286.47    0.06153    0.25722    0.24805   -0.06846    4.31251
  287.33    0.05878    0.25232    0.24245   -0.07021    4.00203
  288.20    0.07268    0.27855    0.26959   -0.07048    4.79320
  289.06    0.09643    0.31833    0.31054   -0.07057    6.24275
  289.92    0.10959    0.33860    0.33105   -0.07172    6.68721
  290.78    0.09449    0.31537    0.30739   -0.07103    5.86807
  291.65    0.10378    0.32999    0.32215   -0.07207    6.12616
  292.51    0.08986    0.30852    0.29976   -0.07346    5.22617
  293.37    0.10380    0.33013    0.32219   -0.07254    6.13506
  294.24    0.10003    0.32470    0.31628   -0.07400    5.40935
  295.10    0.10336    0.32958    0.32149   -0.07312    5.96950
  295.96    0.11285    0.34351    0.33594   -0.07233    6.45467
  296.82    0.09323    0.31348    0.30533   -0.07150    5.68269
  297.69    0.08452    0.29897    0.29073   -0.07019    5.48581
  298.55    0.07286    0.27907    0.26992   -0.07126    4.75539
  299.41    0.06310    0.26107    0.25120   -0.07144    3.65569
  300.28    0.06095    0.25659    0.24688   -0.07030    3.54804
  301.14    0.07562    0.28355    0.27498   -0.06961    4.41643
  302.00    0.06623    0.26657    0.25736   -0.06985    3.98994
  302.86    0.06057    0.25609    0.24610   -0.07115    3.17144
  303.73    0.07494    0.28275    0.27375   -0.07118    4.06619
  304.59    0.07452    0.28228    0.27299   -0.07222    4.26912
  305.45    0.07663    0.28571    0.27681   -0.07119    4.86041
  306.32    0.06930    0.27175    0.26324   -0.06788    4.27876
  307.18    0.06214    0.25724    0.24929   -0.06385    4.13222
  308.04    0.05348    0.23927    0.23125   -0.06177    3.10405
  308.90    0.05449    0.24037    0.23344   -0.05766    3.45393
  309.77    0.04859    0.22752    0.22042   -0.05672    2.85697
  310.63    0.06432    0.26024    0.25361   -0.05881    4.37024
  311.49    0.06872    0.26990    0.26214   -0.06466    4.45370
  312.36    0.08398    0.29727    0.28979   -0.06677    5.62920
  313.22    0.08722    0.30294    0.29533   -0.06800    5.77178
  314.08    0.07039    0.27348    0.26530   -0.06679    4.58355
  314.94    0.08658    0.30166    0.29424   -0.06702    4.98333
  315.81    0.08603    0.30100    0.29330   -0.06814    5.25707
  316.67    0.07810    0.28769    0.27946   -0.06881    4.87267
  317.53    0.09507    0.31578    0.30833   -0.06871    5.75733
  318.40    0.07268    0.27849    0.26960   -0.07022    4.56311
  319.26    0.08431    0.29864    0.29036   -0.07034    5.61229
  320.12    0.06498    0.26460    0.25492   -0.07131    4.17305
  320.98    0.06631    0.26717    0.25750   -0.07160    4.08661
  321.85    0.05618    0.24781    0.23702   -0.07264    3.07935
  322.71    0.05342    0.24231    0.23113   -0.07304    2.81662
  323.57    0.05709    0.24966    0.23894   -0.07267    3.27953
  324.44    0.05488    0.24510    0.23427   -0.07235    3.15441
  325.30    0.06261    0.26049    0.25021   -0.07278    3.70445
  326.16    0.05356    0.24242    0.23144   -0.07241    3.19960
  327.02    0.04476    0.22369    0.21156   -0.07290    2.53321
  327.89    0.03753    0.20693    0.19373   -0.07292    1.28261
  328.75    0.03653    0.20442    0.19114   -0.07268    1.12112
  329.61    0.03714    0.20617    0.19272   -0.07344    1.30381
  330.48    0.03821    0.20861    0.19546   -0.07310    1.12498
  331.34    0.03614    0.20367    0.19009   -0.07332    0.84790
  332.20    0.03519    0.20124    0.18758   -0.07307    0.74312
  333.06    0.03331    0.19627    0.18252   -0.07235    0.60392
  333.93    0.03291    0.19524    0.18140   -0.07237    0.64592
  334.79    0.03393    0.19790    0.18420   -0.07254    0.77585
  335.65    0.03475    0.19983    0.18641   -0.07220    0.98628
  336.52    0.03468    0.19983    0.18621   -0.07270    0.93431
  337.38    0.03593    0.20297    0.18956   -0.07275    0.76125
  338.24    0.03601    0.20309    0.18977   -0.07253    0.94002
  339.10    0.03507    0.20047    0.18727   -0.07175    0.74008
  339.97    0.03698    0.20338    0.19231   -0.06643    0.91297
  340.83    0.04832    0.22970    0.21982   -0.06692    1.22763
  341.69    0.04575    0.22375    0.21389   -0.06596    1.08686
  342.56    0.04264    0.21642    0.20649   -0.06507    0.83543
  343.42    0.04140    0.21372    0.20348   -0.06562    0.92240
  344.28    0.03638    0.20148    0.19074   -0.06513    0.99898
  345.14    0.03377    0.19583    0.18377   -0.06784    0.74525
  346.01    0.03460    0.19887    0.18602   -0.07053    0.84095
  346.87    0.03559    0.20184    0.18864   -0.07200    0.77221
  347.73    0.03466    0.19998    0.18618   -0.07318    0.57577
  348.60    0.03498    0.20098    0.18702   -0.07377    0.59112
  349.46    0.03553    0.20235    0.18849   -0.07380    0.56314
  350.32    0.03526    0.20130    0.18777   -0.07274    0.64409
  351.18    0.03481    0.20005    0.18657   -0.07237    0.94034
  352.05    0.03683    0.20482    0.19191   -0.07176    1.63611
  352.91    0.03498    0.19998    0.18702   -0.07100    1.33059
  353.77    0.03244    0.19327    0.18011   -0.07029    1.16569
  354.64    0.03030    0.18721    0.17406   -0.06910    0.97033
  355.50    0.03056    0.18753    0.17481   -0.06806    0.69168
  356.36    0.02960    0.18516    0.17204   -0.06863    0.67954
  357.22    0.02972    0.18552    0.17239   -0.06873    0.60970
  358.09    0.02987    0.18596    0.17283   -0.06882    0.53916
  358.95    0.03286    0.19462    0.18127   -0.07100    0.65672
  359.81    0.03538    0.20142    0.18811   -0.07220    0.82580
  360.68    0.03632    0.20400    0.19058   -0.07297    1.11075
  361.54    0.03912    0.21090    0.19779   -0.07340    0.97565
  362.40    0.04281    0.21944    0.20691   -0.07332    1.02050
  363.26    0.04319    0.22023    0.20781   -0.07313    1.05593
  364.13    0.04020    0.21342    0.20049   -0.07336    0.97114
  364.99    0.03843    0.20918    0.19605   -0.07315    0.96400
  365.85    0.03909    0.21044    0.19771   -0.07230    0.99229
