~Version Information
VERS. 2.0:
WRAP. NO:

~Well Information
STRT.FT -172.57:
STOP.FT 709.27:
STEP.FT 0.863:
NULL. -999.25:

~Curve Information
DEPT.FT     : Depth below casing
DAS_VAR.NM  : DAS Amplitude Variance
DAS_RMS.NM  : DAS RMS Amplitude
DAS_STD.NM  : DAS Standard Deviation
DAS_MEAN.NM : DAS Mean Amplitude
DAS_MAX.NM  : DAS Maximum Absolute Amplitude

~A  DEPT  DAS_VAR  DAS_RMS  DAS_STD  DAS_MEAN  DAS_MAX
# ...
  258.86    0.01131    0.10633    0.10637    0.00049    0.55152
  259.72    0.01182    0.10870    0.10874    0.00071    0.82093
  260.58    0.01170    0.10810    0.10814    0.00006    0.77474
  261.45    0.01169    0.10806    0.10811   -0.00019    0.77372
  262.31    0.01105    0.10509    0.10513   -0.00010    0.92214
  263.17    0.01097    0.10470    0.10474   -0.00076    0.83030
  264.04    0.01296    0.11381    0.11384   -0.00150    1.77388
  264.90    0.01658    0.12873    0.12876   -0.00223    2.69340
  265.76    0.02193    0.14806    0.14808   -0.00325    3.82999
  266.62    0.02742    0.16558    0.16560   -0.00399    4.59536
  267.49    0.02809    0.16759    0.16761   -0.00402    4.67748
  268.35    0.03381    0.18385    0.18386   -0.00450    5.37094
  269.21    0.03211    0.17917    0.17919   -0.00445    5.13300
  270.08    0.03180    0.17831    0.17833   -0.00436    5.09831
  270.94    0.03558    0.18861    0.18863   -0.00482    5.52887
  271.80    0.04274    0.20671    0.20673   -0.00504    6.24638
  272.66    0.04221    0.20543    0.20544   -0.00511    6.17444
  273.53    0.04464    0.21127    0.21129   -0.00529    6.42582
  274.39    0.03771    0.19417    0.19419   -0.00476    5.66812
  275.25    0.04864    0.22052    0.22054   -0.00562    6.75766
  276.12    0.04843    0.22005    0.22006   -0.00563    6.64809
  276.98    0.04910    0.22156    0.22158   -0.00560    6.72409
  277.84    0.04038    0.20093    0.20095   -0.00485    5.82397
  278.70    0.03222    0.17947    0.17949   -0.00452    5.16242
  279.57    0.02810    0.16761    0.16763   -0.00408    4.75505
  280.43    0.02050    0.14315    0.14317   -0.00319    3.72438
  281.29    0.01874    0.13686    0.13688   -0.00297    3.41654
  282.16    0.02225    0.14913    0.14915   -0.00360    4.07043
  283.02    0.01984    0.14085    0.14087   -0.00327    3.71094
  283.88    0.02768    0.16637    0.16637   -0.00437    4.76651
  284.74    0.04445    0.21083    0.21084   -0.00561    6.55145
  285.61    0.05938    0.24368    0.24368   -0.00680    7.78328
  286.47    0.05883    0.24255    0.24255   -0.00674    7.74727
  287.33    0.05570    0.23600    0.23601   -0.00638    7.46612
  288.20    0.07386    0.27176    0.27176   -0.00757    8.81580
  289.06    0.10960    0.33107    0.33106   -0.00956   10.92565
  289.92    0.13284    0.36448    0.36447   -0.01037   12.10911
  290.78    0.10268    0.32043    0.32043   -0.00902   10.46446
  291.65    0.10734    0.32763    0.32762   -0.00927   10.69659
  292.51    0.08351    0.28898    0.28898   -0.00793    9.19475
  293.37    0.10889    0.32998    0.32998   -0.00925   10.71757
  294.24    0.09534    0.30876    0.30877   -0.00836    9.91911
  295.10    0.11015    0.33188    0.33189   -0.00919   10.78844
  295.96    0.12551    0.35427    0.35427   -0.00993   11.62249
  296.82    0.09422    0.30695    0.30695   -0.00867    9.94877
  297.69    0.08830    0.29715    0.29715   -0.00836    9.62222
  298.55    0.07063    0.26576    0.26576   -0.00734    8.47960
  299.41    0.05106    0.22595    0.22596   -0.00588    7.03685
  300.28    0.05067    0.22507    0.22509   -0.00576    6.99254
  301.14    0.07293    0.27004    0.27006   -0.00710    8.65513
  302.00    0.05975    0.24443    0.24445   -0.00636    7.66761
  302.86    0.03945    0.19860    0.19862   -0.00496    5.73356
  303.73    0.06360    0.25217    0.25219   -0.00653    7.85546
  304.59    0.06474    0.25443    0.25444   -0.00674    7.97539
  305.45    0.07128    0.26698    0.26699   -0.00741    8.46608
  306.32    0.06304    0.25106    0.25107   -0.00676    7.95571
  307.18    0.05737    0.23952    0.23953   -0.00648    7.55243
  308.04    0.04006    0.20014    0.20015   -0.00507    6.04427
  308.90    0.04380    0.20928    0.20929   -0.00550    6.45347
  309.77    0.03615    0.19012    0.19013   -0.00474    5.69981
  310.63    0.06213    0.24925    0.24925   -0.00682    7.91521
  311.49    0.06524    0.25541    0.25542   -0.00695    8.09180
  312.36    0.08727    0.29541    0.29541   -0.00843    9.48945
  313.22    0.09120    0.30199    0.30199   -0.00861    9.75545
  314.08    0.06417    0.25331    0.25332   -0.00697    8.03232
  314.94    0.08064    0.28397    0.28398   -0.00774    9.20203
  315.81    0.08558    0.29254    0.29254   -0.00804    9.46658
  316.67    0.07190    0.26813    0.26814   -0.00738    8.57763
  317.53    0.09750    0.31225    0.31225   -0.00877   10.18754
  318.40    0.06629    0.25747    0.25747   -0.00701    8.14305
  319.26    0.08678    0.29459    0.29459   -0.00835    9.46431
  320.12    0.05526    0.23507    0.23508   -0.00633    7.26230
  320.98    0.05864    0.24214    0.24215   -0.00637    7.55396
  321.85    0.04059    0.20144    0.20146   -0.00487    6.02800
  322.71    0.03598    0.18967    0.18969   -0.00451    5.55603
  323.57    0.04432    0.21051    0.21053   -0.00517    6.41908
  324.44    0.04249    0.20611    0.20613   -0.00509    6.24166
  325.30    0.05414    0.23266    0.23267   -0.00597    7.26091
  326.16    0.03985    0.19960    0.19962   -0.00507    6.00536
  327.02    0.02658    0.16303    0.16305   -0.00398    4.57622
  327.89    0.01404    0.11846    0.11849   -0.00216    2.50621
  328.75    0.01298    0.11390    0.11393   -0.00190    2.22202
  329.61    0.01453    0.12051    0.12053   -0.00214    2.55985
  330.48    0.01336    0.11557    0.11560   -0.00190    2.22027
  331.34    0.01064    0.10309    0.10313   -0.00107    1.37313
  332.20    0.01013    0.10060    0.10063   -0.00098    1.22408
  333.06    0.00920    0.09590    0.09594   -0.00073    0.90471
  333.93    0.00912    0.09546    0.09549   -0.00078    0.97830
  334.79    0.00942    0.09704    0.09707   -0.00082    0.95266
  335.65    0.01074    0.10360    0.10363   -0.00127    1.59963
  336.52    0.01093    0.10452    0.10456   -0.00135    1.61844
  337.38    0.01046    0.10226    0.10230   -0.00123    1.35100
  338.24    0.00927    0.09623    0.09627   -0.00049    0.47128
  339.10    0.00922    0.09596    0.09600   -0.00063    0.65687
  339.97    0.01023    0.10112    0.10116   -0.00078    0.93903
  340.83    0.01445    0.12016    0.12021   -0.00107    1.37173
  341.69    0.01368    0.11691    0.11696   -0.00106    1.34791
  342.56    0.01247    0.11162    0.11166   -0.00109    1.36867
  343.42    0.01222    0.11049    0.11052   -0.00116    1.58583
  344.28    0.01156    0.10748    0.10751   -0.00127    1.68400
  345.14    0.01014    0.10067    0.10071   -0.00119    1.27365
  346.01    0.00922    0.09600    0.09604   -0.00043    0.54352
  346.87    0.00909    0.09531    0.09535   -0.00004    0.42571
  347.73    0.00898    0.09471    0.09475   -0.00013    0.33074
  348.60    0.00887    0.09415    0.09418   -0.00018    0.30740
  349.46    0.00910    0.09537    0.09540   -0.00038    0.38540
  350.32    0.00909    0.09533    0.09536   -0.00037    0.38621
  351.18    0.01027    0.10130    0.10134    0.00107    1.34627
  352.05    0.01367    0.11688    0.11691    0.00208    2.47499
  352.91    0.01171    0.10817    0.10820    0.00162    1.95880
  353.77    0.01041    0.10199    0.10202    0.00141    1.71243
  354.64    0.00935    0.09667    0.09670    0.00112    1.36724
  355.50    0.00824    0.09072    0.09075    0.00060    0.72687
  356.36    0.00769    0.08767    0.08770    0.00041    0.42927
  357.22    0.00762    0.08724    0.08728    0.00051    0.50793
  358.09    0.00794    0.08906    0.08910    0.00050    0.59660
  358.95    0.00854    0.09240    0.09243    0.00030    0.37782
  359.81    0.00885    0.09401    0.09405    0.00007    0.35390
  360.68    0.00924    0.09607    0.09611   -0.00021    0.50950
  361.54    0.01136    0.10656    0.10660   -0.00110    1.36662
  362.40    0.01277    0.11295    0.11299   -0.00141    1.73766
  363.26    0.01224    0.11061    0.11065   -0.00115    1.50935
  364.13    0.01102    0.10496    0.10500   -0.00091    1.14057
  364.99    0.01007    0.10029    0.10033   -0.00073    0.93626
  365.85    0.01006    0.10026    0.10030   -0.00072    0.85860
