~Version Information
VERS. 2.0:
WRAP. NO:

~Well Information
STRT.FT -172.57:
STOP.FT 709.27:
STEP.FT 0.863:
NULL. -999.25:

~Curve Information
DEPT.FT     : Depth below casing
DAS_VAR.NM  : DAS Amplitude Variance
DAS_RMS.NM  : DAS RMS Amplitude
DAS_STD.NM  : DAS Standard Deviation
DAS_MEAN.NM : DAS Mean Amplitude
DAS_MAX.NM  : DAS Maximum Absolute Amplitude

~A  DEPT  DAS_VAR  DAS_RMS  DAS_STD  DAS_MEAN  DAS_MAX
# ...
  -64.71   38.37661    6.19246    6.19489    0.01969   30.71503
  -63.85   34.40044    5.86289    5.86519    0.01838   30.77431
  -62.99   30.95893    5.56187    5.56408    0.00738   30.39112
  -62.13   26.33002    5.12924    5.13128   -0.00184   23.81128
  -61.26   22.65337    4.75768    4.75956    0.01029   21.83410
  -60.40   17.78857    4.21599    4.21765    0.00878   18.69094
  -59.54   13.59696    3.68595    3.68740    0.00864   16.03719
  -58.67   11.38147    3.37232    3.37364    0.01084   13.70611
  -57.81    9.18524    3.02953    3.03072    0.00901   12.55940
  -56.95    7.73882    2.78077    2.78187    0.00582   10.74258
  -56.09    6.84554    2.61536    2.61640    0.00367   10.07045
  -55.22    6.32383    2.51374    2.51472   -0.00968   12.74373
  -54.36    6.24835    2.49874    2.49967   -0.01726   21.13883
  -53.50    6.05195    2.45913    2.46007   -0.01231   13.99153
  -52.63    5.68660    2.38378    2.38466   -0.01804   18.78156
  -51.77    5.38859    2.32053    2.32133   -0.02329   23.73900
  -50.91    4.22870    2.05565    2.05638   -0.01896   20.63624
  -50.05    3.09746    1.75936    1.75996   -0.01879   21.09404
  -49.18    2.36286    1.53668    1.53716   -0.01998   23.72244
  -48.32    1.75953    1.32603    1.32647   -0.01533   19.58248
  -47.46    1.35504    1.16364    1.16406   -0.00931   12.07672
  -46.59    1.13048    1.06286    1.06324   -0.00895   12.00904
  -45.73    1.11621    1.05612    1.05651   -0.00796   11.66097
  -44.87    0.99146    0.99535    0.99572   -0.00712   11.08517
  -44.01    1.06354    1.03093    1.03128   -0.01073   12.79193
  -43.14    1.08278    1.04025    1.04057   -0.01380   16.22447
  -42.28    1.09472    1.04597    1.04629   -0.01416   17.20653
  -41.42    1.33124    1.15346    1.15379   -0.01716   21.86090
  -40.55    1.53208    1.23746    1.23777   -0.02093   25.19599
  -39.69    1.48217    1.21713    1.21744   -0.02007   24.29270
  -38.83    2.04500    1.42971    1.43004   -0.02613   32.20073
  -37.97    2.04042    1.42811    1.42843   -0.02658   31.33184
  -37.10    1.83444    1.35405    1.35441   -0.02183   26.73480
  -36.24    1.74787    1.32174    1.32207   -0.02261   27.25932
  -35.38    1.82468    1.35046    1.35081   -0.02286   27.96809
  -34.51    1.80812    1.34431    1.34466   -0.02187   26.98444
  -33.65    1.80206    1.34204    1.34241   -0.02098   26.12968
  -32.79    1.89815    1.37737    1.37773   -0.02261   27.74973
  -31.93    1.94494    1.39429    1.39461   -0.02547   30.04405
  -31.06    1.80143    1.34182    1.34217   -0.02211   26.79595
  -30.20    1.85627    1.36211    1.36245   -0.02349   28.93677
  -29.34    1.79120    1.33802    1.33836   -0.02298   27.50740
  -28.47    1.60424    1.26627    1.26659   -0.02188   25.36079
  -27.61    1.64712    1.28308    1.28340   -0.02199   26.89461
  -26.75    1.81660    1.34752    1.34781   -0.02548   30.63551
  -25.89    1.61935    1.27227    1.27254   -0.02449   28.96721
  -25.02    1.52437    1.23439    1.23465   -0.02369   28.51266
  -24.16    2.00048    1.41415    1.41438   -0.03045   36.78621
  -23.30    1.55842    1.24808    1.24836   -0.02316   28.26273
  -22.43    1.41154    1.18781    1.18808   -0.02165   26.49852
  -21.57    1.36098    1.16629    1.16661   -0.01811   22.17339
  -20.71    1.26388    1.12393    1.12422   -0.01845   21.00795
  -19.85    0.99928    0.99931    0.99964   -0.01152   13.95437
  -18.98    0.84560    0.91927    0.91957   -0.01081   13.51041
  -18.12    0.66147    0.81305    0.81331   -0.01077   12.72864
  -17.26    0.43777    0.66141    0.66164   -0.00667    7.72938
  -16.39    0.38593    0.62103    0.62123   -0.00750    8.60070
  -15.53    0.31452    0.56063    0.56082   -0.00595    7.56131
  -14.67    0.21258    0.46088    0.46106   -0.00182    7.88426
  -13.81    0.21800    0.46672    0.46691    0.00045    8.65125
  -12.94    0.23694    0.48658    0.48677    0.00308    8.76731
  -12.08    0.28265    0.53146    0.53165    0.00531    8.62464
  -11.22    0.32112    0.56648    0.56668    0.00527    8.12654
  -10.35    0.29750    0.54523    0.54544    0.00330    7.83319
   -9.49    0.27205    0.52138    0.52158    0.00129    7.79861
   -8.63    0.25539    0.50516    0.50536   -0.00158    7.29278
   -7.77    0.28891    0.53731    0.53750   -0.00469    7.42229
   -6.90    0.29366    0.54171    0.54190   -0.00500    7.73959
   -6.04    0.30738    0.55422    0.55441   -0.00566    7.69365
   -5.18    0.33133    0.57542    0.57561   -0.00629    7.82309
   -4.31    0.33636    0.57976    0.57997   -0.00483    7.59279
   -3.45    0.34129    0.58399    0.58420   -0.00521    7.57480
   -2.59    0.35258    0.59359    0.59379   -0.00642    7.67953
   -1.73    0.32831    0.57280    0.57298   -0.00686    7.89555
   -0.86    0.30431    0.55145    0.55164   -0.00567    7.11453
    0.00    0.32208    0.56732    0.56752   -0.00563    7.18925
    0.86    0.32995    0.57422    0.57441   -0.00676    7.88823
    1.73    0.30365    0.55085    0.55104   -0.00554    7.34940
    2.59    0.23288    0.48241    0.48258   -0.00476    6.48739
    3.45    0.22061    0.46955    0.46969   -0.00674    8.05382
    4.31    0.20706    0.45491    0.45504   -0.00700    8.27281
    5.18    0.20241    0.44977    0.44990   -0.00672    8.91001
    6.04    0.16782    0.40953    0.40966   -0.00532    6.74795
    6.90    0.14477    0.38036    0.38048   -0.00480    5.95482
    7.77    0.19365    0.43995    0.44006   -0.00781    9.04096
    8.63    0.17166    0.41420    0.41432   -0.00657    7.97397
    9.49    0.11335    0.33659    0.33668   -0.00508    6.33507
   10.35    0.11689    0.34180    0.34189   -0.00554    6.88333
   11.22    0.09973    0.31570    0.31579   -0.00436    5.78792
   12.08    0.08982    0.29959    0.29971   -0.00204    3.23462
   12.94    0.10943    0.33068    0.33080   -0.00248    3.99632
   13.81    0.13357    0.36535    0.36547   -0.00453    5.51917
   14.67    0.13296    0.36451    0.36463   -0.00407    4.84105
   15.53    0.11308    0.33618    0.33628   -0.00461    5.04593
   16.39    0.12251    0.34994    0.35002   -0.00643    6.57487
   17.26    0.10504    0.32401    0.32409   -0.00540    6.41975
   18.12    0.09816    0.31323    0.31331   -0.00562    6.83434
   18.98    0.08278    0.28764    0.28772   -0.00442    5.36644
   19.85    0.10023    0.31648    0.31658   -0.00382    4.49163
   20.71    0.10248    0.32001    0.32012   -0.00386    4.42901
   21.57    0.11872    0.34444    0.34456   -0.00344    4.65969
   22.43    0.09487    0.30790    0.30801   -0.00311    3.92422
   23.30    0.06954    0.26362    0.26371   -0.00322    3.89731
   24.16    0.04012    0.20023    0.20030   -0.00251    2.27112
   25.02    0.03429    0.18511    0.18518    0.00073    1.86861
   25.89    0.03782    0.19439    0.19447    0.00026    1.73336
   26.75    0.04668    0.21598    0.21606   -0.00040    1.97178
   27.61    0.04608    0.21459    0.21467   -0.00114    1.90454
   28.47    0.04647    0.21549    0.21557   -0.00140    2.08997
   29.34    0.04807    0.21918    0.21925   -0.00296    3.77450
   30.20    0.04606    0.21457    0.21463   -0.00355    4.21807
   31.06    0.06207    0.24908    0.24914   -0.00441    5.51224
   31.93    0.04213    0.20519    0.20525   -0.00301    3.65295
   32.79    0.04068    0.20163    0.20169   -0.00262    3.22366
   33.65    0.06058    0.24608    0.24613   -0.00470    5.75899
   34.51    0.07472    0.27330    0.27335   -0.00544    6.76488
   35.38    0.05000    0.22356    0.22360   -0.00434    5.48099
   36.24    0.03548    0.18832    0.18837   -0.00288    3.50299
   37.10    0.02427    0.15572    0.15578   -0.00092    1.96431
   37.97    0.02152    0.14665    0.14670    0.00030    1.61710
   38.83    0.02026    0.14227    0.14232   -0.00008    1.37041
   39.69    0.02269    0.15056    0.15062   -0.00013    1.42043
   40.55    0.02535    0.15915    0.15921   -0.00007    1.76957
   41.42    0.02217    0.14882    0.14888    0.00033    1.47780
   42.28    0.01834    0.13537    0.13542    0.00038    1.04817
