~Version Information
VERS. 2.0:
WRAP. NO:

~Well Information
STRT.FT -172.57:
STOP.FT 709.27:
STEP.FT 0.863:
NULL. -999.25:

~Curve Information
DEPT.FT     : Depth below casing
DAS_VAR.NM  : DAS Amplitude Variance
DAS_RMS.NM  : DAS RMS Amplitude
DAS_STD.NM  : DAS Standard Deviation
DAS_MEAN.NM : DAS Mean Amplitude
DAS_MAX.NM  : DAS Maximum Absolute Amplitude

~A  DEPT  DAS_VAR  DAS_RMS  DAS_STD  DAS_MEAN  DAS_MAX
# ...
   43.14    0.08300    0.29957    0.28810   -0.08486    1.35718
   44.01    0.10081    0.32747    0.31751   -0.08359    1.44272
   44.87    0.08326    0.29828    0.28855   -0.07856    1.15478
   45.73    0.08350    0.29690    0.28896   -0.07154    1.03002
   46.59    0.09033    0.30854    0.30056   -0.07322    1.28473
   47.46    0.11870    0.35162    0.34453   -0.07484    1.61927
   48.32    0.10743    0.33550    0.32777   -0.07568    1.37246
   49.18    0.08672    0.30142    0.29447   -0.06796    1.49085
   50.05    0.05096    0.23818    0.22574   -0.07781    1.15778
   50.91    0.03315    0.19824    0.18208   -0.07956    0.75890
   51.77    0.03818    0.21119    0.19540   -0.08143    0.99282
   52.63    0.05783    0.25340    0.24048   -0.08188    1.45211
   53.50    0.07673    0.28993    0.27700   -0.08809    2.00034
   54.36    0.09063    0.31414    0.30104   -0.09251    2.07863
   55.22    0.09258    0.31648    0.30428   -0.08993    1.84342
   56.09    0.08230    0.29966    0.28688   -0.08918    1.85978
   56.95    0.09029    0.31294    0.30049   -0.09021    2.11467
   57.81    0.17334    0.42396    0.41635   -0.08578    3.09642
   58.67    0.22049    0.47386    0.46957   -0.07260    3.36857
   59.54    0.34010    0.58898    0.58318   -0.09317    3.81629
   60.40    0.26012    0.51787    0.51001   -0.09755    3.61808
   61.26    0.14645    0.39121    0.38269   -0.08607    2.13415
   62.13    0.10511    0.33426    0.32421   -0.08488    1.18903
   62.99    0.08183    0.29707    0.28606   -0.08292    1.13641
   63.85    0.06666    0.26955    0.25819   -0.07979    1.19039
   64.71    0.07016    0.27472    0.26487   -0.07554    1.55158
   65.58    0.06839    0.27202    0.26152   -0.07734    1.74950
   66.44    0.15910    0.40603    0.39888   -0.08150    3.35163
   67.30    0.17067    0.41687    0.41312   -0.06370    2.14175
   68.17    0.16576    0.41019    0.40714   -0.05845    2.29519
   69.03    0.06935    0.26962    0.26335   -0.06102    1.25778
   69.89    0.04069    0.21418    0.20173   -0.07351    0.58656
   70.75    0.04144    0.22037    0.20356   -0.08575    0.79484
   71.62    0.04857    0.23590    0.22038   -0.08575    0.76952
   72.48    0.11947    0.35591    0.34564   -0.08870    1.88808
   73.34    0.28916    0.53980    0.53774   -0.06187    3.10239
   74.21    0.17853    0.42698    0.42252   -0.06912    2.11232
   75.07    0.09863    0.32200    0.31405   -0.07484    1.30226
   75.93    0.06383    0.26252    0.25266   -0.07375    0.94128
   76.79    0.05066    0.23531    0.22508   -0.07064    0.75271
   77.66    0.04284    0.21930    0.20698   -0.07407    0.71808
   78.52    0.04083    0.21582    0.20206   -0.07731    0.51387
   79.38    0.04699    0.23042    0.21678   -0.07975    0.74850
   80.25    0.07424    0.28293    0.27247   -0.07889    1.51101
   81.11    0.07276    0.28169    0.26975   -0.08360    1.54097
   81.97    0.07661    0.28831    0.27679   -0.08330    1.43280
   82.83    0.08242    0.29917    0.28709   -0.08684    1.59996
   83.70    0.07263    0.28308    0.26950   -0.08893    1.45516
   84.56    0.07073    0.27860    0.26594   -0.08536    1.43991
   85.42    0.07058    0.27830    0.26567   -0.08525    1.51042
   86.29    0.06714    0.27274    0.25912   -0.08729    1.45287
   87.15    0.07160    0.28113    0.26758   -0.08850    1.68280
   88.01    0.10795    0.33775    0.32856   -0.08196    1.96922
   88.87    0.08504    0.30323    0.29162   -0.08592    1.72606
   89.74    0.06997    0.27882    0.26453   -0.09030    1.61104
   90.60    0.05523    0.25142    0.23502   -0.09100    1.26103
   91.46    0.08593    0.30490    0.29313   -0.08670    1.88010
   92.33    0.08884    0.30838    0.29807   -0.08212    1.81889
   93.19    0.09796    0.32223    0.31299   -0.08010    1.87969
   94.05    0.10742    0.33626    0.32776   -0.07903    2.07671
   94.91    0.10967    0.33881    0.33116   -0.07574    2.08461
   95.78    0.08281    0.29788    0.28776   -0.07991    1.71929
   96.64    0.07491    0.28602    0.27370   -0.08552    1.44992
   97.50    0.06456    0.26646    0.25408   -0.08246    1.02080
   98.37    0.07044    0.27649    0.26541   -0.07995    0.69963
   99.23    0.09655    0.31963    0.31073   -0.07840    1.62277
  100.09    0.07776    0.28765    0.27885   -0.07358    1.03533
  100.95    0.11124    0.34000    0.33353   -0.07056    1.29091
  101.82    0.10875    0.33633    0.32978   -0.07046    1.56439
  102.68    0.07389    0.28035    0.27183   -0.07153    1.55584
  103.54    0.06475    0.26510    0.25446   -0.07671    1.63492
  104.41    0.06169    0.26259    0.24837   -0.08725    1.40039
  105.27    0.06550    0.26977    0.25594   -0.08740    1.33951
  106.13    0.04767    0.23479    0.21834   -0.08784    0.71958
  106.99    0.05523    0.24973    0.23501   -0.08628    0.82400
  107.86    0.06582    0.26922    0.25656   -0.08381    0.86008
  108.72    0.06583    0.26833    0.25658   -0.08082    0.90828
  109.58    0.07410    0.28243    0.27221   -0.07795    1.39475
  110.45    0.11028    0.34020    0.33208   -0.07790    2.03882
  111.31    0.08366    0.29919    0.28925   -0.07949    1.65606
  112.17    0.11807    0.35188    0.34361   -0.08004    2.33076
  113.03    0.10930    0.34171    0.33061   -0.08986    2.36071
  113.90    0.10038    0.32779    0.31683   -0.08731    1.93238
  114.76    0.11522    0.34953    0.33944   -0.08713    2.11441
  115.62    0.12680    0.36530    0.35609   -0.08571    2.36761
  116.49    0.09927    0.32506    0.31506   -0.08335    2.08520
  117.35    0.13749    0.37840    0.37080   -0.08035    2.55238
  118.21    0.18241    0.43413    0.42710   -0.08407    3.03257
  119.07    0.19620    0.44927    0.44295   -0.08205    3.10103
  119.94    0.17715    0.42715    0.42090   -0.07931    2.96259
  120.80    0.20015    0.45219    0.44738   -0.07377    3.19338
  121.66    0.15732    0.40275    0.39664   -0.07590    2.93490
  122.53    0.09634    0.31648    0.31039   -0.06597    2.68565
  123.39    0.17860    0.42471    0.42262   -0.05262    2.43433
  124.25    0.11731    0.34769    0.34251   -0.06505    1.52386
  125.11    0.08754    0.30464    0.29587   -0.07583    1.14253
  125.98    0.07292    0.28023    0.27003   -0.07756    1.07935
  126.84    0.07116    0.27675    0.26676   -0.07631    1.61440
  127.70    0.10278    0.32838    0.32060   -0.07499    2.13424
  128.57    0.14870    0.39272    0.38562   -0.07970    2.86407
  129.43    0.33564    0.58193    0.57934   -0.06981    5.24592
  130.29    0.38349    0.62170    0.61927   -0.07175    5.22016
  131.15    0.21507    0.46978    0.46375   -0.08259    3.38449
  132.02    0.11629    0.34942    0.34101   -0.08032    2.18837
  132.88    0.08157    0.29807    0.28561   -0.08790    1.64914
  133.74    0.08198    0.29900    0.28632   -0.08876    1.52472
  134.61    0.08488    0.30419    0.29134   -0.09014    1.65065
  135.47    0.08454    0.30225    0.29075   -0.08539    1.84950
  136.33    0.08518    0.30306    0.29186   -0.08447    1.93801
  137.19    0.12109    0.35612    0.34797   -0.08004    2.43508
  138.06    0.13082    0.36908    0.36169   -0.07831    2.81247
  138.92    0.18529    0.43765    0.43045   -0.08528    3.21459
  139.78    0.19798    0.45273    0.44495   -0.08992    3.35581
  140.65    0.22434    0.48055    0.47364   -0.08853    3.53918
  141.51    0.20134    0.45654    0.44870   -0.09062    3.37592
  142.37    0.16679    0.41701    0.40840   -0.08962    2.94881
  143.23    0.33374    0.58143    0.57770   -0.07860    4.80700
  144.10    0.30544    0.55682    0.55267   -0.07939    4.32734
  144.96    0.27733    0.53195    0.52662   -0.08474    3.96533
  145.82    0.31264    0.56323    0.55915   -0.07949    4.74790
  146.69    0.56086    0.75120    0.74891   -0.08101    6.01439
  147.55    0.39759    0.63333    0.63055   -0.07566    5.54063
  148.41    0.40047    0.63570    0.63283   -0.07660    5.52350
  149.27    0.21661    0.47253    0.46541   -0.08874    3.50006
  150.14    0.20401    0.45882    0.45168   -0.08738    3.50881
