~Version Information
VERS. 2.0:
WRAP. NO:

~Well Information
STRT.FT -172.57:
STOP.FT 709.27:
STEP.FT 0.863:
NULL. -999.25:

~Curve Information
DEPT.FT     : Depth below casing
DAS_VAR.NM  : DAS Amplitude Variance
DAS_RMS.NM  : DAS RMS Amplitude
DAS_STD.NM  : DAS Standard Deviation
DAS_MEAN.NM : DAS Mean Amplitude
DAS_MAX.NM  : DAS Maximum Absolute Amplitude

~A  DEPT  DAS_VAR  DAS_RMS  DAS_STD  DAS_MEAN  DAS_MAX
# ...
  474.57    0.02143    0.14637    0.14640   -0.00326    3.88371
  475.44    0.03445    0.18559    0.18560   -0.00463    5.53428
  476.30    0.03491    0.18684    0.18685   -0.00471    5.53057
  477.16    0.03587    0.18938    0.18940   -0.00446    5.61388
  478.02    0.03330    0.18247    0.18250   -0.00420    5.34831
  478.89    0.05184    0.22766    0.22769   -0.00561    7.04301
  479.75    0.03839    0.19591    0.19593   -0.00479    5.78358
  480.61    0.05225    0.22856    0.22858   -0.00571    7.05061
  481.48    0.06355    0.25208    0.25210   -0.00636    7.93076
  482.34    0.05534    0.23524    0.23525   -0.00611    7.31679
  483.20    0.06019    0.24533    0.24534   -0.00645    7.69685
  484.06    0.05591    0.23644    0.23645   -0.00610    7.41395
  484.93    0.05330    0.23085    0.23087   -0.00591    7.23281
  485.79    0.05770    0.24019    0.24020   -0.00643    7.59852
  486.65    0.04930    0.22202    0.22203   -0.00569    6.88538
  487.52    0.04262    0.20642    0.20644   -0.00512    6.24927
  488.38    0.03356    0.18318    0.18320   -0.00466    5.34572
  489.24    0.04707    0.21693    0.21695   -0.00558    6.68718
  490.11    0.04441    0.21071    0.21073   -0.00537    6.52190
  490.97    0.05768    0.24014    0.24016   -0.00622    7.66141
  491.83    0.06303    0.25105    0.25106   -0.00677    8.08161
  492.69    0.05758    0.23996    0.23997   -0.00631    7.68208
  493.56    0.05196    0.22793    0.22794   -0.00601    7.29723
  494.42    0.03012    0.17353    0.17354   -0.00457    5.34980
  495.28    0.01096    0.10469    0.10470   -0.00233    2.52621
  496.15    0.00602    0.07756    0.07758   -0.00080    0.74520
  497.01    0.01364    0.11676    0.11678   -0.00238    2.85591
  497.87    0.02926    0.17106    0.17107   -0.00447    5.08268
  498.73    0.03097    0.17597    0.17598   -0.00437    5.21009
  499.60    0.02447    0.15642    0.15644   -0.00369    4.32736
  500.46    0.02033    0.14255    0.14257   -0.00314    3.68004
  501.32    0.02153    0.14670    0.14672   -0.00331    3.82856
  502.19    0.01649    0.12838    0.12841   -0.00246    2.84422
  503.05    0.01654    0.12860    0.12863   -0.00238    2.78314
  503.91    0.01662    0.12889    0.12892   -0.00239    2.80566
  504.77    0.03171    0.17806    0.17807   -0.00450    5.10675
  505.64    0.02246    0.14985    0.14987   -0.00336    3.88101
  506.50    0.02301    0.15166    0.15168   -0.00338    4.01017
  507.36    0.02948    0.17169    0.17171   -0.00414    4.85691
  508.23    0.02876    0.16956    0.16958   -0.00412    4.73353
  509.09    0.03662    0.19135    0.19137   -0.00463    5.63613
  509.95    0.04302    0.20739    0.20741   -0.00507    6.18750
  510.81    0.03675    0.19169    0.19171   -0.00466    5.41248
  511.68    0.03654    0.19114    0.19116   -0.00444    5.51305
  512.54    0.03165    0.17788    0.17790   -0.00434    4.96788
  513.40    0.03448    0.18566    0.18567   -0.00456    5.33949
  514.27    0.02458    0.15676    0.15678   -0.00354    4.14367
  515.13    0.01635    0.12783    0.12786   -0.00241    2.84748
  515.99    0.01230    0.11090    0.11093   -0.00166    1.82887
  516.85    0.01399    0.11824    0.11827   -0.00215    2.34454
  517.72    0.01503    0.12255    0.12258   -0.00232    2.68000
  518.58    0.01947    0.13952    0.13954   -0.00308    3.59757
  519.44    0.01935    0.13907    0.13909   -0.00296    3.62878
  520.31    0.02983    0.17270    0.17271   -0.00438    5.07331
  521.17    0.03362    0.18334    0.18334   -0.00491    5.50770
  522.03    0.03085    0.17562    0.17564   -0.00428    5.20560
  522.89    0.02236    0.14952    0.14954   -0.00343    4.08601
  523.76    0.01964    0.14012    0.14014   -0.00306    3.67498
  524.62    0.03242    0.18003    0.18005   -0.00453    5.25250
  525.48    0.05745    0.23966    0.23969   -0.00592    7.36088
  526.35    0.02679    0.16366    0.16368   -0.00376    4.34502
  527.21    0.01366    0.11686    0.11689   -0.00188    2.16796
  528.07    0.01347    0.11604    0.11607   -0.00194    2.20221
  528.93    0.01152    0.10729    0.10732   -0.00171    1.94730
  529.80    0.00976    0.09874    0.09877   -0.00135    1.45278
  530.66    0.01053    0.10260    0.10263   -0.00145    1.66851
  531.52    0.01443    0.12011    0.12014   -0.00221    2.69130
  532.39    0.01250    0.11180    0.11182   -0.00207    2.33199
  533.25    0.01313    0.11458    0.11460   -0.00227    2.55950
  534.11    0.01373    0.11714    0.11717   -0.00198    2.49443
  534.97    0.01270    0.11265    0.11268   -0.00186    2.15538
  535.84    0.01060    0.10294    0.10297   -0.00128    1.56540
  536.70    0.01018    0.10085    0.10088   -0.00121    1.46224
  537.56    0.00856    0.09250    0.09254    0.00008    0.32383
  538.43    0.00892    0.09441    0.09445    0.00031    0.44852
  539.29    0.00997    0.09982    0.09985   -0.00082    0.92721
  540.15    0.01038    0.10184    0.10188   -0.00104    1.17596
  541.01    0.00970    0.09845    0.09849   -0.00056    0.54630
  541.88    0.00974    0.09866    0.09870   -0.00006    0.34496
  542.74    0.00933    0.09654    0.09658    0.00028    0.42612
  543.60    0.00824    0.09076    0.09080   -0.00026    0.42925
  544.47    0.00849    0.09209    0.09212   -0.00047    0.42669
  545.33    0.00830    0.09105    0.09108   -0.00049    0.47646
  546.19    0.00840    0.09162    0.09165   -0.00064    0.77052
  547.05    0.00898    0.09472    0.09475   -0.00066    0.77759
  547.92    0.00915    0.09563    0.09567   -0.00058    0.69947
  548.78    0.00842    0.09173    0.09177   -0.00036    0.56095
  549.64    0.00932    0.09648    0.09652   -0.00057    0.88982
  550.51    0.01100    0.10482    0.10486   -0.00065    0.92832
  551.37    0.01094    0.10454    0.10458   -0.00055    0.78246
  552.23    0.01032    0.10155    0.10159   -0.00062    0.85758
  553.09    0.00957    0.09778    0.09781   -0.00061    0.80104
  553.96    0.00960    0.09792    0.09796   -0.00074    0.86704
  554.82    0.00919    0.09582    0.09585   -0.00117    1.25171
  555.68    0.00797    0.08926    0.08929   -0.00099    1.10087
  556.55    0.00725    0.08514    0.08518   -0.00058    0.67391
  557.41    0.00769    0.08765    0.08768   -0.00044    0.51276
  558.27    0.00823    0.09067    0.09071   -0.00036    0.38982
  559.13    0.00866    0.09305    0.09308   -0.00052    0.55824
  560.00    0.00902    0.09492    0.09496   -0.00039    0.44984
  560.86    0.00949    0.09736    0.09739   -0.00001    0.38421
  561.72    0.00978    0.09888    0.09892    0.00057    0.66298
  562.59    0.00902    0.09492    0.09495    0.00061    0.78213
  563.45    0.00850    0.09216    0.09219    0.00052    0.62500
  564.31    0.00864    0.09293    0.09296    0.00060    0.68947
  565.17    0.00878    0.09366    0.09369    0.00065    0.71413
  566.04    0.00895    0.09457    0.09460    0.00058    0.65837
  566.90    0.00936    0.09673    0.09677    0.00098    1.09279
  567.76    0.01014    0.10068    0.10071    0.00151    1.64288
  568.63    0.01026    0.10128    0.10130    0.00170    1.84322
  569.49    0.00857    0.09254    0.09257    0.00110    1.17984
  570.35    0.00894    0.09455    0.09458    0.00111    1.20324
  571.21    0.00890    0.09432    0.09435    0.00089    1.00004
  572.08    0.00846    0.09196    0.09200    0.00078    0.90259
  572.94    0.00795    0.08911    0.08915    0.00055    0.60537
  573.80    0.00750    0.08656    0.08660    0.00040    0.41009
  574.67    0.00767    0.08753    0.08756   -0.00006    0.34535
  575.53    0.00870    0.09322    0.09326   -0.00033    0.53330
  576.39    0.00904    0.09507    0.09510   -0.00028    0.61014
  577.25    0.00905    0.09508    0.09512   -0.00003    0.75953
  578.12    0.01036    0.10175    0.10179    0.00039    0.62482
  578.98    0.00979    0.09890    0.09893    0.00066    0.73561
  579.84    0.00996    0.09977    0.09981    0.00061    0.80361
  580.71    0.01026    0.10128    0.10131    0.00085    1.00301
  581.57    0.00926    0.09618    0.09621    0.00067    0.81274
