~Version Information
VERS. 2.0:
WRAP. NO:

~Well Information
STRT.FT -172.57:
STOP.FT 709.27:
STEP.FT 0.863:
NULL. -999.25:

~Curve Information
DEPT.FT     : Depth below casing
DAS_VAR.NM  : DAS Amplitude Variance
DAS_RMS.NM  : DAS RMS Amplitude
DAS_STD.NM  : DAS Standard Deviation
DAS_MEAN.NM : DAS Mean Amplitude
DAS_MAX.NM  : DAS Maximum Absolute Amplitude

~A  DEPT  DAS_VAR  DAS_RMS  DAS_STD  DAS_MEAN  DAS_MAX
# ...
  474.57    0.10044    0.32885    0.31692   -0.09087    1.99858
  475.44    0.14997    0.39630    0.38726   -0.08896    2.89336
  476.30    0.15335    0.40079    0.39159   -0.09022    2.97883
  477.16    0.16049    0.41024    0.40062   -0.09323    2.93393
  478.02    0.15405    0.40251    0.39249   -0.09395    2.85719
  478.89    0.21910    0.47571    0.46808   -0.09174    3.61551
  479.75    0.17071    0.42192    0.41317   -0.09084    3.01423
  480.61    0.23652    0.49281    0.48633   -0.08751    3.55981
  481.48    0.29438    0.54787    0.54257   -0.08607    3.99705
  482.34    0.25358    0.50936    0.50357   -0.08529    3.92465
  483.20    0.26094    0.51661    0.51082   -0.08600    4.16674
  484.06    0.24315    0.49964    0.49310   -0.08852    3.88740
  484.93    0.22642    0.48284    0.47583   -0.08931    3.71755
  485.79    0.25108    0.50682    0.50108   -0.08472    4.13032
  486.65    0.21404    0.46966    0.46265   -0.08789    3.50387
  487.52    0.18005    0.43175    0.42432   -0.08579    3.16420
  488.38    0.14583    0.38960    0.38187   -0.08230    2.94985
  489.24    0.20714    0.46121    0.45513   -0.08199    3.44656
  490.11    0.19270    0.44545    0.43897   -0.08246    3.26246
  490.97    0.26691    0.52184    0.51664   -0.08300    3.90269
  491.83    0.26916    0.52421    0.51881   -0.08447    4.27505
  492.69    0.25256    0.50684    0.50255   -0.07572    3.89451
  493.56    0.20512    0.45662    0.45290   -0.06727    3.72177
  494.42    0.11826    0.34774    0.34389   -0.05761    2.87807
  495.28    0.03776    0.20014    0.19433   -0.05001    1.46679
  496.15    0.01364    0.12191    0.11678   -0.03607    0.39574
  497.01    0.05035    0.22692    0.22438   -0.03778    1.50856
  497.87    0.12222    0.35329    0.34960   -0.05720    2.85507
  498.73    0.13017    0.36661    0.36079   -0.07042    2.66645
  499.60    0.10350    0.32962    0.32171   -0.07568    2.21105
  500.46    0.09289    0.31573    0.30478   -0.08550    1.87031
  501.32    0.09647    0.32153    0.31060   -0.08626    1.99893
  502.19    0.08582    0.30571    0.29295   -0.09009    1.44312
  503.05    0.08921    0.31128    0.29868   -0.09044    1.39341
  503.91    0.08905    0.31155    0.29842   -0.09222    1.40657
  504.77    0.14843    0.39351    0.38526   -0.08512    2.90965
  505.64    0.10616    0.33688    0.32583   -0.08898    2.08116
  506.50    0.10600    0.33708    0.32558   -0.09060    2.05617
  507.36    0.13017    0.37012    0.36079   -0.08687    2.62161
  508.23    0.12406    0.36253    0.35222   -0.08979    2.64977
  509.09    0.15896    0.40833    0.39870   -0.09304    2.86382
  509.95    0.19048    0.44417    0.43644   -0.08865    3.14640
  510.81    0.16051    0.40842    0.40063   -0.08482    3.05367
  511.68    0.15074    0.39822    0.38825   -0.09319    2.79156
  512.54    0.13331    0.37546    0.36512   -0.09165    2.83784
  513.40    0.15171    0.39840    0.38950   -0.08861    2.89337
  514.27    0.11383    0.34895    0.33739   -0.09253    2.19583
  515.13    0.08138    0.30031    0.28527   -0.09620    1.46322
  515.99    0.06851    0.27678    0.26175   -0.09205    0.91548
  516.85    0.07248    0.28318    0.26922   -0.09009    1.34508
  517.72    0.07552    0.28833    0.27480   -0.08964    1.44910
  518.58    0.09205    0.31576    0.30339   -0.09037    1.96724
  519.44    0.09107    0.31414    0.30179   -0.09008    1.82741
  520.31    0.13602    0.37727    0.36881   -0.08406    2.78747
  521.17    0.14942    0.39438    0.38654   -0.08334    3.23069
  522.03    0.14462    0.38830    0.38030   -0.08340    2.68260
  522.89    0.10184    0.33001    0.31912   -0.08737    2.19704
  523.76    0.09100    0.31240    0.30167   -0.08425    1.94097
  524.62    0.15275    0.39686    0.39083   -0.07481    3.01469
  525.48    0.25607    0.50902    0.50603   -0.06675    3.72753
  526.35    0.12396    0.35946    0.35208   -0.07705    2.49241
  527.21    0.07235    0.28119    0.26898   -0.08438    1.18616
  528.07    0.06282    0.26312    0.25064   -0.08223    1.20011
  528.93    0.05312    0.24357    0.23048   -0.08062    1.01305
  529.80    0.04414    0.22284    0.21010   -0.07588    0.78995
  530.66    0.04854    0.23291    0.22031   -0.07732    0.84132
  531.52    0.06519    0.26623    0.25533   -0.07776    1.44748
  532.39    0.05464    0.24522    0.23376   -0.07611    1.26540
  533.25    0.05751    0.25064    0.23981   -0.07503    1.42298
  534.11    0.06434    0.26607    0.25365   -0.08255    1.44429
  534.97    0.05816    0.25446    0.24117   -0.08311    1.08593
  535.84    0.05247    0.24359    0.22906   -0.08459    0.92445
  536.70    0.05049    0.24001    0.22470   -0.08599    0.86273
  537.56    0.05005    0.24012    0.22371   -0.08882    0.67764
  538.43    0.05205    0.24581    0.22814   -0.09308    0.60153
  539.29    0.05433    0.25016    0.23309   -0.09247    0.69831
  540.15    0.05817    0.25762    0.24119   -0.09229    0.65694
  541.01    0.05816    0.25802    0.24116   -0.09349    0.65358
  541.88    0.05374    0.25006    0.23181   -0.09533    0.69247
  542.74    0.05192    0.24709    0.22787   -0.09705    0.64151
  543.60    0.04360    0.22694    0.20881   -0.09025    0.58237
  544.47    0.04250    0.22243    0.20615   -0.08493    0.60374
  545.33    0.04204    0.22247    0.20505   -0.08764    0.59058
  546.19    0.03837    0.21342    0.19589   -0.08595    0.51229
  547.05    0.03927    0.21587    0.19818   -0.08684    0.52447
  547.92    0.04101    0.22030    0.20250   -0.08805    0.52413
  548.78    0.04275    0.22535    0.20676   -0.09094    0.52878
  549.64    0.05417    0.24888    0.23274   -0.08987    0.66387
  550.51    0.06703    0.27379    0.25890   -0.09113    0.94709
  551.37    0.06674    0.27213    0.25834   -0.08767    1.01618
  552.23    0.05227    0.24121    0.22862   -0.07877    0.73435
  553.09    0.05211    0.23891    0.22828   -0.07250    0.72727
  553.96    0.05190    0.23811    0.22782   -0.07129    0.82552
  554.82    0.04985    0.23368    0.22327   -0.07096    0.84248
  555.68    0.03731    0.20365    0.19316   -0.06611    0.65645
  556.55    0.02981    0.18616    0.17265   -0.07082    0.52513
  557.41    0.03572    0.20518    0.18898   -0.08114    0.58991
  558.27    0.04572    0.22997    0.21382   -0.08612    0.61815
  559.13    0.04847    0.23624    0.22016   -0.08722    0.60553
  560.00    0.05060    0.24184    0.22494   -0.09040    0.60023
  560.86    0.05605    0.25445    0.23676   -0.09488    0.62450
  561.72    0.05517    0.25406    0.23489   -0.09838    0.55044
  562.59    0.05357    0.25090    0.23145   -0.09837    0.55306
  563.45    0.05381    0.25055    0.23197   -0.09626    0.62208
  564.31    0.05024    0.24339    0.22415   -0.09631    0.61246
  565.17    0.05102    0.24516    0.22589   -0.09676    0.65748
  566.04    0.04995    0.24207    0.22350   -0.09447    0.64134
  566.90    0.05345    0.24831    0.23119   -0.09224    0.75102
  567.76    0.05399    0.25120    0.23236   -0.09702    1.14296
  568.63    0.05849    0.25992    0.24185   -0.09693    1.28606
  569.49    0.04661    0.23508    0.21590   -0.09438    0.86727
  570.35    0.04975    0.24114    0.22304   -0.09314    0.86504
  571.21    0.05096    0.24380    0.22573   -0.09363    0.72069
  572.08    0.04975    0.24059    0.22305   -0.09170    0.65021
  572.94    0.04909    0.23936    0.22155   -0.09209    0.54337
  573.80    0.05042    0.24176    0.22454   -0.09117    0.55009
  574.67    0.05349    0.24898    0.23128   -0.09380    0.62643
  575.53    0.05349    0.24855    0.23127   -0.09268    0.60759
  576.39    0.04867    0.23747    0.22061   -0.08939    0.74037
  577.25    0.04390    0.22599    0.20951   -0.08612    0.63783
  578.12    0.05295    0.24715    0.23012   -0.09177    0.66032
  578.98    0.05032    0.24136    0.22433   -0.09062    0.67941
  579.84    0.04488    0.22931    0.21185   -0.08918    0.61664
  580.71    0.04810    0.23609    0.21932   -0.08891    0.72106
  581.57    0.04702    0.23402    0.21683   -0.08952    0.65460
