~Version Information
VERS. 2.0:
WRAP. NO:

~Well Information
STRT.FT -172.57:
STOP.FT 709.27:
STEP.FT 0.863:
NULL. -999.25:

~Curve Information
DEPT.FT     : Depth below casing
DAS_VAR.NM  : DAS Amplitude Variance
DAS_RMS.NM  : DAS RMS Amplitude
DAS_STD.NM  : DAS Standard Deviation
DAS_MEAN.NM : DAS Mean Amplitude
DAS_MAX.NM  : DAS Maximum Absolute Amplitude

~A  DEPT  DAS_VAR  DAS_RMS  DAS_STD  DAS_MEAN  DAS_MAX
# ...
  -64.71  126.98860   11.25512   11.26892    0.62816   38.43227
  -63.85  112.66150   10.61007   10.61421    0.73351   36.69948
  -62.99   97.64327    9.87492    9.88146    0.64277   34.37558
  -62.13   94.25037    9.69882    9.70826    0.58336   32.50877
  -61.26   71.31483    8.44052    8.44481    0.56895   29.79373
  -60.40   66.28505    8.13393    8.14156    0.49401   26.72070
  -59.54   48.68603    6.97889    6.97754    0.53789   24.04430
  -58.67   36.10509    6.01074    6.00875    0.47378   20.22260
  -57.81   26.26552    5.12006    5.12499    0.30897   15.92786
  -56.95   21.54771    4.63210    4.64195    0.16826   15.85808
  -56.09   19.03556    4.35201    4.36298    0.10089   15.93391
  -55.22   21.40337    4.61369    4.62638    0.04033   16.72239
  -54.36   24.07262    4.89284    4.90639    0.03154   15.09063
  -53.50   30.35798    5.49690    5.50981    0.16304   16.25316
  -52.63   33.19570    5.74897    5.76157    0.19832   18.12389
  -51.77   37.12263    6.07911    6.09283    0.19796   19.30689
  -50.91   32.33503    5.67542    5.68639    0.23454   18.03575
  -50.05   23.69470    4.86072    4.86772    0.25214   18.18381
  -49.18   15.80614    3.97107    3.97569    0.22602   17.71860
  -48.32    8.17845    2.85354    2.85980    0.09833   17.27371
  -47.46    6.00556    2.44384    2.45062    0.01176   16.68213
  -46.59    5.44330    2.32664    2.33309   -0.01364   15.26141
  -45.73    4.69321    2.16050    2.16638   -0.02525   15.77626
  -44.87    4.40380    2.09281    2.09852   -0.02260   14.93015
  -44.01    5.06345    2.24403    2.25021   -0.01884   16.25487
  -43.14    5.42710    2.32317    2.32961   -0.01391   16.80009
  -42.28    6.17913    2.47901    2.48579   -0.02637   16.71336
  -41.42    6.92625    2.62481    2.63178   -0.04283   17.67445
  -40.55    7.82892    2.79031    2.79802   -0.02036   17.28772
  -39.69    7.41811    2.71627    2.72362   -0.03492   17.47372
  -38.83    9.80906    3.12324    3.13194   -0.00649   17.65520
  -37.97    8.91131    2.97693    2.98518   -0.01709   17.73571
  -37.10    8.42337    2.89436    2.90230   -0.02693   16.98466
  -36.24    8.48093    2.90413    2.91220   -0.01292   17.33452
  -35.38    9.05626    3.00116    3.00936   -0.03146   16.75790
  -34.51    8.12753    2.84302    2.85088   -0.02045   15.33384
  -33.65    7.53560    2.73760    2.74510   -0.02707   14.81037
  -32.79    8.26202    2.86648    2.87437   -0.02377   16.54564
  -31.93    9.11030    3.01003    3.01833   -0.02452   16.98411
  -31.06    8.33369    2.87887    2.88681   -0.02255   15.89729
  -30.20    8.10914    2.83982    2.84766   -0.02190   15.04317
  -29.34    8.20055    2.85594    2.86366   -0.03737   15.95624
  -28.47    7.11611    2.66018    2.66760    0.00024   16.20106
  -27.61    7.07559    2.65264    2.66000   -0.01516   14.55624
  -26.75    6.99250    2.63712    2.64433   -0.02743   16.67899
  -25.89    6.05416    2.45382    2.46052   -0.02691   16.38512
  -25.02    5.79316    2.40023    2.40690   -0.01233   15.66431
  -24.16    7.91417    2.80539    2.81321    0.00087   20.00365
  -23.30    5.70121    2.38123    2.38772   -0.02695   15.03197
  -22.43    5.41002    2.31952    2.32594   -0.01376   14.05478
  -21.57    4.84387    2.19495    2.20088   -0.02922   12.60472
  -20.71    4.99088    2.22783    2.23403   -0.00900   12.70204
  -19.85    3.98221    1.99053    1.99555   -0.04588   12.09604
  -18.98    3.23936    1.79528    1.79982   -0.04055   10.92987
  -18.12    2.99703    1.72689    1.73119   -0.04224    9.75810
  -17.26    1.98493    1.40582    1.40887   -0.04927    8.13233
  -16.39    1.54543    1.24056    1.24315   -0.04622    6.24001
  -15.53    1.14142    1.06643    1.06837   -0.04678    5.39693
  -14.67    0.40714    0.63905    0.63807   -0.05931    3.80270
  -13.81    0.30810    0.55939    0.55507   -0.08078    3.42515
  -12.94    0.57010    0.75608    0.75505   -0.06870    3.42969
  -12.08    1.03089    1.01332    1.01533   -0.04076    4.60152
  -11.22    1.39730    1.17952    1.18207   -0.04156    6.14083
  -10.35    1.75671    1.32344    1.32541   -0.06739    7.50628
   -9.49    1.55315    1.24429    1.24626   -0.06120    6.99637
   -8.63    1.61447    1.26824    1.27062   -0.05417    7.06966
   -7.77    1.10815    1.05114    1.05269   -0.05387    5.15006
   -6.90    0.92882    0.96367    0.96375   -0.07066    4.08102
   -6.04    0.82851    0.90930    0.91022   -0.05407    4.61594
   -5.18    0.86117    0.92795    0.92799   -0.06864    4.50753
   -4.31    0.82275    0.90653    0.90706   -0.06008    4.86282
   -3.45    1.01399    1.00498    1.00697   -0.04043    5.91296
   -2.59    1.18526    1.08626    1.08870   -0.03588    5.42753
   -1.73    1.04942    1.02191    1.02441   -0.02654    4.75516
   -0.86    1.03486    1.01530    1.01728   -0.04151    5.06290
    0.00    1.04617    1.02152    1.02282   -0.05615    5.12503
    0.86    1.01960    1.00793    1.00975   -0.04467    4.56089
    1.73    1.01044    1.00379    1.00521   -0.05257    5.47053
    2.59    0.85042    0.92160    0.92218   -0.06041    5.32306
    3.45    0.82435    0.90734    0.90794   -0.05908    4.56900
    4.31    0.72144    0.84879    0.84937   -0.05488    4.70341
    5.18    0.84252    0.91803    0.91789   -0.07023    4.99325
    6.04    0.61679    0.78556    0.78536   -0.06117    3.70753
    6.90    0.49663    0.70595    0.70472   -0.06701    3.63550
    7.77    0.63205    0.79434    0.79502   -0.04943    5.22819
    8.63    0.57658    0.75965    0.75933   -0.06074    4.19080
    9.49    0.45300    0.67462    0.67305   -0.06804    3.18110
   10.35    0.46240    0.68206    0.68000   -0.07326    3.51551
   11.22    0.41548    0.64746    0.64458   -0.07767    3.25951
   12.08    0.33101    0.57935    0.57533   -0.08044    3.64394
   12.94    0.43759    0.66369    0.66151   -0.07293    3.71547
   13.81    0.57573    0.75741    0.75877   -0.03361    3.51275
   14.67    0.49722    0.70319    0.70514   -0.00376    3.57515
   15.53    0.40354    0.63434    0.63525   -0.03287    3.56270
   16.39    0.50795    0.71269    0.71271   -0.05292    4.63297
   17.26    0.37763    0.61556    0.61452   -0.05810    3.62092
   18.12    0.35078    0.59383    0.59226   -0.06168    3.49991
   18.98    0.28088    0.53213    0.52998   -0.06200    2.73531
   19.85    0.30224    0.55162    0.54976   -0.06109    2.53600
   20.71    0.32290    0.56892    0.56824   -0.05068    2.52258
   21.57    0.44547    0.66763    0.66743   -0.05237    3.51089
   22.43    0.28228    0.53211    0.53130   -0.04926    2.31380
   23.30    0.21646    0.46802    0.46525   -0.06148    2.09664
   24.16    0.17987    0.42719    0.42411   -0.06018    2.21435
   25.02    0.25173    0.50414    0.50173   -0.06179    3.00020
   25.89    0.22868    0.48350    0.47820   -0.07978    2.27127
   26.75    0.21858    0.47224    0.46752   -0.07511    2.31045
   27.61    0.21528    0.46809    0.46398   -0.07093    2.04761
   28.47    0.19737    0.44893    0.44426   -0.07257    2.07364
   29.34    0.17163    0.41877    0.41429   -0.06846    2.05889
   30.20    0.18639    0.43463    0.43173   -0.05957    2.30766
   31.06    0.25792    0.50957    0.50786   -0.05634    2.76401
   31.93    0.15289    0.39371    0.39101   -0.05446    1.89616
   32.79    0.21743    0.46854    0.46629   -0.05748    2.25197
   33.65    0.28202    0.53342    0.53106   -0.06390    2.97008
   34.51    0.45274    0.67209    0.67286   -0.03836    3.38636
   35.38    0.22201    0.47488    0.47117   -0.06884    2.86147
   36.24    0.13894    0.37893    0.37274   -0.07364    1.78185
   37.10    0.08242    0.29692    0.28708   -0.07878    1.55595
   37.97    0.07456    0.28441    0.27306   -0.08211    1.32191
   38.83    0.06558    0.26970    0.25608   -0.08675    1.15266
   39.69    0.06465    0.26837    0.25426   -0.08792    1.03223
   40.55    0.05253    0.24292    0.22919   -0.08230    1.12023
   41.42    0.04643    0.22912    0.21547   -0.07955    1.00377
   42.28    0.07115    0.27793    0.26673   -0.08059    1.18905
