~Version Information
VERS. 2.0:
WRAP. NO:

~Well Information
STRT.FT -172.57:
STOP.FT 709.27:
STEP.FT 0.863:
NULL. -999.25:

~Curve Information
DEPT.FT     : Depth below casing
DAS_VAR.NM  : DAS Amplitude Variance
DAS_RMS.NM  : DAS RMS Amplitude
DAS_STD.NM  : DAS Standard Deviation
DAS_MEAN.NM : DAS Mean Amplitude
DAS_MAX.NM  : DAS Maximum Absolute Amplitude

~A  DEPT  DAS_VAR  DAS_RMS  DAS_STD  DAS_MEAN  DAS_MAX
# ...
  582.43    0.04039    0.21416    0.20096   -0.07423    0.98393
  583.29    0.03922    0.21121    0.19804   -0.07361    0.97468
  584.16    0.03736    0.20737    0.19329   -0.07530    0.66719
  585.02    0.03568    0.20265    0.18889   -0.07358    0.69023
  585.88    0.03385    0.19629    0.18399   -0.06859    1.03894
  586.75    0.03387    0.19539    0.18403   -0.06583    1.03168
  587.61    0.03542    0.19974    0.18821   -0.06710    1.03636
  588.47    0.03537    0.19959    0.18806   -0.06708    1.27220
  589.33    0.03593    0.20122    0.18955   -0.06774    1.31054
  590.20    0.03377    0.19682    0.18376   -0.07071    1.03270
  591.06    0.03453    0.19956    0.18583   -0.07292    0.75403
  591.92    0.03554    0.20250    0.18852   -0.07412    0.66860
  592.79    0.03626    0.20442    0.19042   -0.07455    0.65560
  593.65    0.03822    0.20917    0.19551   -0.07455    0.63839
  594.51    0.03803    0.20873    0.19502   -0.07460    0.64585
  595.37    0.03951    0.21212    0.19877   -0.07425    0.93612
  596.24    0.04191    0.21756    0.20471   -0.07387    1.06285
  597.10    0.04086    0.21544    0.20213   -0.07477    1.03647
  597.96    0.03908    0.21117    0.19769   -0.07444    1.21984
  598.83    0.03840    0.20908    0.19596   -0.07311    1.15814
  599.69    0.03692    0.20437    0.19215   -0.06982    0.87215
  600.55    0.03375    0.19587    0.18373   -0.06810    0.79058
  601.41    0.03460    0.19686    0.18601   -0.06466    1.07633
  602.28    0.02959    0.18170    0.17200   -0.05875    0.95087
  603.14    0.02409    0.16316    0.15522   -0.05048    0.99701
  604.00    0.02321    0.15922    0.15234   -0.04649    0.81874
  604.87    0.02303    0.15881    0.15175   -0.04700    0.77465
  605.73    0.02343    0.16038    0.15305   -0.04810    0.72377
  606.59    0.02555    0.16802    0.15983   -0.05201    0.72407
  607.45    0.02788    0.17610    0.16699   -0.05611    0.86166
  608.32    0.03159    0.18815    0.17773   -0.06195    0.84564
  609.18    0.03626    0.20104    0.19041   -0.06475    1.27925
  610.04    0.04174    0.21484    0.20431   -0.06670    1.65039
  610.91    0.04128    0.21415    0.20317   -0.06794    1.55098
  611.77    0.03784    0.20624    0.19452   -0.06875    0.90985
  612.63    0.04451    0.22191    0.21098   -0.06905    1.07317
  613.49    0.04979    0.23453    0.22314   -0.07249    1.18145
  614.36    0.05240    0.24030    0.22890   -0.07341    1.10906
  615.22    0.05250    0.24036    0.22913   -0.07291    1.08728
  616.08    0.07072    0.27371    0.26593   -0.06521    1.24083
  616.95    0.10143    0.32257    0.31848   -0.05195    1.47919
  617.81    0.14625    0.38308    0.38242   -0.02493    1.64142
  618.67    0.16783    0.40955    0.40967   -0.00554    1.70325
  619.53    0.17187    0.41442    0.41458   -0.00223    1.57418
  620.40    0.17347    0.41634    0.41650   -0.00260    1.86843
  621.26    0.16501    0.40606    0.40621   -0.00277    2.51966
  622.12    0.16357    0.40428    0.40443   -0.00305    2.88706
  622.99    0.16008    0.39995    0.40010   -0.00225    2.52915
  623.85    0.15929    0.39896    0.39911   -0.00292    1.58546
  624.71    0.16069    0.40070    0.40086   -0.00201    1.54567
  625.57    0.16697    0.40846    0.40862   -0.00114    1.56321
  626.44    0.16821    0.40997    0.41013   -0.00185    1.64450
  627.30    0.17456    0.41764    0.41780   -0.00078    1.77958
  628.16    0.15575    0.39449    0.39465   -0.00059    1.65491
  629.03    0.14782    0.38432    0.38448    0.00086    2.16949
  629.89    0.13328    0.36493    0.36508    0.00096    1.82149
  630.75    0.11233    0.33503    0.33516   -0.00089    1.51208
  631.61    0.12780    0.35735    0.35749   -0.00192    1.86854
  632.48    0.16251    0.40296    0.40312   -0.00017    2.54339
  633.34    0.22166    0.47063    0.47081   -0.00207    2.83884
  634.20    0.28113    0.53001    0.53022   -0.00176    2.72665
  635.07    0.31328    0.55949    0.55971   -0.00163    2.81870
  635.93    0.31935    0.56489    0.56511   -0.00227    2.93694
  636.79    0.31643    0.56230    0.56252   -0.00332    2.69716
  637.65    0.31878    0.56438    0.56460   -0.00206    2.74400
  638.52    0.31788    0.56359    0.56381   -0.00295    3.00795
  639.38    0.34175    0.58436    0.58459   -0.00105    2.71032
  640.24    0.40042    0.63254    0.63279    0.00080    2.62407
  641.11    0.44152    0.66420    0.66447   -0.00103    2.81587
  641.97    0.47946    0.69216    0.69243    0.00351    3.03535
  642.83    0.51861    0.71986    0.72015    0.00050    3.22992
  643.69    0.51653    0.71842    0.71870   -0.00052    3.16739
  644.56    0.49541    0.70358    0.70386    0.00237    2.74919
  645.42    0.45277    0.67261    0.67288   -0.00004    2.50846
  646.28    0.42332    0.65037    0.65063   -0.00121    2.62113
  647.15    0.35784    0.59796    0.59820    0.00068    2.34252
  648.01    0.32102    0.56636    0.56659   -0.00224    3.70992
  648.87    0.27042    0.51982    0.52002   -0.00307    3.33329
  649.73    0.21016    0.45825    0.45843   -0.00081    3.35815
  650.60    0.11074    0.33266    0.33278   -0.00287    1.91716
  651.46    0.04447    0.21081    0.21088   -0.00218    0.94969
  652.32    0.01729    0.13157    0.13148   -0.00618    1.43167
  653.19    0.03968    0.20030    0.19920   -0.02168    3.77730
  654.05    0.07753    0.27972    0.27844   -0.02789    6.59524
  654.91    0.02193    0.15041    0.14809   -0.02664    1.95431
  655.77    0.03884    0.19920    0.19707   -0.02958    1.96894
  656.64    0.03913    0.20027    0.19782   -0.03169    1.99789
  657.50    0.08740    0.29763    0.29564   -0.03540    5.06578
  658.36    0.04308    0.21016    0.20756   -0.03348    2.00535
  659.23    0.29016    0.53989    0.53867   -0.03932   13.17567
  660.09    0.23315    0.48419    0.48285   -0.03850   11.92054
  660.95    0.11289    0.33780    0.33599   -0.03624    8.21141
  661.81    0.02767    0.16978    0.16634   -0.03433    2.54755
  662.68    0.03779    0.19692    0.19440   -0.03186    2.22755
  663.54    0.45495    0.67478    0.67450   -0.02736   15.47178
  664.40    0.58965    0.76803    0.76789   -0.02636   17.15496
  665.27    0.90875    0.95320    0.95328   -0.02346   22.63590
  666.13    0.48929    0.69980    0.69949   -0.02853   16.40668
  666.99    0.19985    0.44793    0.44705   -0.03085   10.09888
  667.85    0.14271    0.37948    0.37776   -0.03762    8.26388
  668.72    0.94773    0.97433    0.97352   -0.04829   25.08066
  669.58    0.99247    0.99680    0.99623   -0.04395   23.90828
  670.44    0.96299    0.98208    0.98132   -0.04756   24.74400
  671.31    0.33619    0.58086    0.57982   -0.03835   11.49955
  672.17    0.16915    0.41244    0.41128   -0.03306    6.78803
  673.03    0.85690    0.92565    0.92569   -0.02490   23.61737
  673.89    0.60073    0.77533    0.77507   -0.02978   16.59927
  674.76    0.48823    0.69917    0.69873   -0.03149   14.91256
  675.62    0.12383    0.35346    0.35189   -0.03470    5.63689
  676.48    0.15071    0.38978    0.38822   -0.03654    6.64534
  677.35    0.17711    0.42222    0.42085   -0.03605    6.43633
  678.21    0.27097    0.52172    0.52055   -0.03796    7.96196
  679.07    0.39599    0.63004    0.62927   -0.03578   12.60661
  679.93    0.42277    0.65086    0.65021   -0.03438   13.60545
  680.80    0.15125    0.39115    0.38891   -0.04316    2.63814
  681.66    0.15292    0.39357    0.39106   -0.04579    2.91510
  682.52    0.32436    0.57071    0.56953   -0.03998    9.34288
  683.39    0.51892    0.72101    0.72036   -0.03671   15.97246
  684.25    0.24592    0.49714    0.49590   -0.03777    9.36053
  685.11    0.45628    0.67605    0.67549   -0.03350   14.63822
  685.97    0.58162    0.76305    0.76264   -0.03303   16.56550
  686.84    0.16697    0.41025    0.40862   -0.03828    3.79001
  687.70    0.23860    0.49026    0.48847   -0.04409    8.58510
  688.56    0.27631    0.52722    0.52565   -0.04324   10.28835
  689.43    0.34536    0.58905    0.58767   -0.04354   12.07259
