~Version Information
VERS. 2.0:
WRAP. NO:

~Well Information
STRT.FT -172.57:
STOP.FT 709.27:
STEP.FT 0.863:
NULL. -999.25:

~Curve Information
DEPT.FT     : Depth below casing
DAS_VAR.NM  : DAS Amplitude Variance
DAS_RMS.NM  : DAS RMS Amplitude
DAS_STD.NM  : DAS Standard Deviation
DAS_MEAN.NM : DAS Mean Amplitude
DAS_MAX.NM  : DAS Maximum Absolute Amplitude

~A  DEPT  DAS_VAR  DAS_RMS  DAS_STD  DAS_MEAN  DAS_MAX
# ...
  151.00    0.20252    0.45764    0.45002   -0.08968    3.51312
  151.86    0.16284    0.41247    0.40353   -0.09053    2.95522
  152.73    0.16199    0.41078    0.40248   -0.08746    2.97322
  153.59    0.15399    0.40064    0.39241   -0.08591    2.84890
  154.45    0.14574    0.39030    0.38176   -0.08606    2.82075
  155.31    0.09123    0.31224    0.30204   -0.08230    1.81298
  156.18    0.06941    0.27381    0.26346   -0.07708    1.07242
  157.04    0.07879    0.29030    0.28070   -0.07693    1.11185
  157.90    0.09830    0.32159    0.31353   -0.07528    1.29501
  158.77    0.07809    0.28917    0.27945   -0.07719    0.96015
  159.63    0.07188    0.27795    0.26810   -0.07602    0.99345
  160.49    0.07199    0.27628    0.26831   -0.06882    1.38560
  161.35    0.13149    0.36783    0.36262   -0.06739    2.48288
  162.22    0.08579    0.29972    0.29289   -0.06725    1.79338
  163.08    0.11118    0.33876    0.33344   -0.06473    1.80811
  163.94    0.11708    0.34861    0.34218   -0.07138    2.16651
  164.81    0.11517    0.34798    0.33937   -0.08097    2.59742
  165.67    0.11915    0.35548    0.34518   -0.08876    2.23023
  166.53    0.11283    0.34651    0.33590   -0.08870    2.37642
  167.40    0.10984    0.34257    0.33143   -0.09013    2.21188
  168.26    0.12166    0.35861    0.34880   -0.08725    2.53630
  169.12    0.09948    0.32649    0.31541   -0.08758    2.35367
  169.98    0.13703    0.37904    0.37018   -0.08602    2.92801
  170.85    0.12238    0.35918    0.34983   -0.08553    2.67513
  171.71    0.12007    0.35643    0.34650   -0.08743    2.48907
  172.57    0.12685    0.36504    0.35616   -0.08431    2.98341
  173.44    0.14886    0.39401    0.38582   -0.08493    2.98419
  174.30    0.13109    0.37035    0.36206   -0.08245    2.94046
  175.16    0.12844    0.36796    0.35838   -0.08758    2.46524
  176.02    0.10530    0.33561    0.32450   -0.08899    2.12425
  176.89    0.09665    0.32274    0.31089   -0.08970    1.92537
  177.75    0.09815    0.32420    0.31328   -0.08662    2.10534
  178.61    0.07269    0.28372    0.26961   -0.09062    1.50634
  179.48    0.05518    0.25111    0.23490   -0.09048    0.97746
  180.34    0.05202    0.24511    0.22808   -0.09135    0.99317
  181.20    0.06194    0.26521    0.24888   -0.09349    1.47549
  182.06    0.08582    0.30582    0.29296   -0.09046    1.97142
  182.93    0.09702    0.32318    0.31148   -0.08924    2.07156
  183.79    0.08465    0.30403    0.29095   -0.09084    1.82931
  184.65    0.10680    0.33784    0.32681   -0.08905    2.26762
  185.52    0.12028    0.35624    0.34682   -0.08538    2.83387
  186.38    0.08782    0.30897    0.29634   -0.09018    1.87849
  187.24    0.08831    0.30949    0.29717   -0.08924    1.98583
  188.10    0.10716    0.33811    0.32735   -0.08808    2.25434
  188.97    0.09804    0.32426    0.31312   -0.08744    2.23912
  189.83    0.06941    0.27698    0.26345   -0.08772    1.55266
  190.69    0.09267    0.31662    0.30441   -0.08999    1.87003
  191.56    0.10040    0.32824    0.31686   -0.08886    1.90776
  192.42    0.14061    0.38386    0.37498   -0.08672    2.40241
  193.28    0.11160    0.34476    0.33406   -0.08878    2.12802
  194.14    0.14008    0.38315    0.37427   -0.08664    2.66451
  195.01    0.22558    0.48073    0.47495   -0.08230    3.56067
  195.87    0.19607    0.44810    0.44280   -0.07621    3.40668
  196.73    0.14679    0.38928    0.38313   -0.07459    2.90073
  197.60    0.15510    0.39979    0.39383   -0.07478    3.33400
  198.46    0.17077    0.42112    0.41325   -0.08672    3.12877
  199.32    0.21494    0.46994    0.46362   -0.08424    3.80527
  200.18    0.14465    0.38843    0.38032   -0.08388    2.95680
  201.05    0.08933    0.31187    0.29889   -0.09180    1.84672
  201.91    0.05311    0.24894    0.23046   -0.09567    0.84052
  202.77    0.04703    0.23708    0.21686   -0.09716    0.58931
  203.64    0.05058    0.24400    0.22490   -0.09611    0.54683
  204.50    0.06106    0.26492    0.24711   -0.09727    0.73066
  205.36    0.05236    0.24723    0.22883   -0.09515    0.82129
  206.22    0.05088    0.24382    0.22556   -0.09408    0.93605
  207.09    0.04639    0.23510    0.21538   -0.09561    0.79364
  207.95    0.04669    0.23453    0.21607   -0.09261    0.54840
  208.81    0.04504    0.23121    0.21222   -0.09312    0.56127
  209.68    0.04010    0.21830    0.20024   -0.08821    0.60448
  210.54    0.03284    0.19810    0.18122   -0.08115    0.59967
  211.40    0.03139    0.19396    0.17718   -0.08000    0.58366
  212.26    0.03065    0.19144    0.17508   -0.07853    0.52042
  213.13    0.03000    0.19144    0.17321   -0.08255    0.48486
  213.99    0.03418    0.20310    0.18489   -0.08517    0.56605
  214.85    0.03884    0.21580    0.19708   -0.08912    0.62614
  215.72    0.04216    0.22586    0.20533   -0.09532    0.66345
  216.58    0.04521    0.23324    0.21262   -0.09718    0.93480
  217.44    0.04990    0.24337    0.22337   -0.09803    1.15075
  218.30    0.05170    0.24795    0.22737   -0.10036    1.21686
  219.17    0.05957    0.26385    0.24407   -0.10187    1.42951
  220.03    0.05098    0.24706    0.22579   -0.10168    1.23064
  220.89    0.04801    0.24125    0.21912   -0.10225    1.23916
  221.76    0.06461    0.27336    0.25419   -0.10232    1.75988
  222.62    0.08890    0.31513    0.29816   -0.10441    2.53796
  223.48    0.10855    0.34539    0.32947   -0.10655    2.81829
  224.34    0.06309    0.27097    0.25117   -0.10339    1.66360
  225.21    0.05647    0.25882    0.23763   -0.10409    1.39831
  226.07    0.06165    0.26916    0.24829   -0.10555    1.81316
  226.93    0.05773    0.26110    0.24027   -0.10377    1.61581
  227.80    0.05888    0.26262    0.24266   -0.10205    1.63026
  228.66    0.09480    0.32502    0.30790   -0.10661    2.50541
  229.52    0.11808    0.35970    0.34363   -0.10936    2.97889
  230.38    0.12789    0.37310    0.35761   -0.10966    3.18330
  231.25    0.12864    0.37411    0.35867   -0.10970    3.01134
  232.11    0.12863    0.37423    0.35866   -0.11013    3.24069
  232.97    0.14137    0.39087    0.37600   -0.11040    3.61964
  233.84    0.22582    0.48516    0.47521   -0.10400    4.17683
  234.70    0.46113    0.68765    0.67906   -0.11955    6.73459
  235.56    0.25246    0.51316    0.50245   -0.11084    5.03173
  236.42    0.19285    0.45025    0.43914   -0.10464    4.23165
  237.29    0.19064    0.44722    0.43662   -0.10212    3.94990
  238.15    0.15410    0.40561    0.39256   -0.10617    3.69373
  239.01    0.12368    0.36603    0.35168   -0.10480    3.14093
  239.88    0.08712    0.31119    0.29516   -0.10100    2.48808
  240.74    0.07464    0.29041    0.27320   -0.10055    2.06002
  241.60    0.06231    0.26853    0.24962   -0.10072    1.61348
  242.46    0.05311    0.24927    0.23046   -0.09655    1.01946
  243.33    0.04739    0.23606    0.21770   -0.09270    0.87340
  244.19    0.04422    0.22811    0.21028   -0.08977    0.74462
  245.05    0.04504    0.22963    0.21223   -0.08908    0.94130
  245.92    0.04174    0.22165    0.20429   -0.08731    0.70448
  246.78    0.04172    0.22144    0.20426   -0.08687    0.89956
  247.64    0.06167    0.26536    0.24833   -0.09535    1.70979
  248.50    0.05890    0.25986    0.24268   -0.09466    1.10986
  249.37    0.03848    0.21439    0.19617   -0.08770    0.59160
  250.23    0.03894    0.21859    0.19733   -0.09519    0.57305
  251.09    0.04547    0.23365    0.21323   -0.09684    0.83485
  251.96    0.05086    0.24498    0.22552   -0.09716    0.80186
  252.82    0.04776    0.23911    0.21854   -0.09839    0.63348
  253.68    0.05318    0.24927    0.23062   -0.09617    0.73747
  254.54    0.04664    0.23568    0.21596   -0.09574    0.58650
  255.41    0.04677    0.23499    0.21626   -0.09334    0.56530
  256.27    0.04184    0.22565    0.20455   -0.09650    0.55839
  257.13    0.04039    0.22221    0.20097   -0.09597    0.56735
  258.00    0.03921    0.21908    0.19802   -0.09488    0.56666
