~Version Information
VERS. 2.0:
WRAP. NO:

~Well Information
STRT.FT -172.57:
STOP.FT 709.27:
STEP.FT 0.863:
NULL. -999.25:

~Curve Information
DEPT.FT     : Depth below casing
DAS_VAR.NM  : DAS Amplitude Variance
DAS_RMS.NM  : DAS RMS Amplitude
DAS_STD.NM  : DAS Standard Deviation
DAS_MEAN.NM : DAS Mean Amplitude
DAS_MAX.NM  : DAS Maximum Absolute Amplitude

~A  DEPT  DAS_VAR  DAS_RMS  DAS_STD  DAS_MEAN  DAS_MAX
# ...
  582.43    0.05544    0.25351    0.23547   -0.09557    0.76705
  583.29    0.05285    0.24761    0.22989   -0.09356    0.69409
  584.16    0.05191    0.24788    0.22784   -0.09909    0.65377
  585.02    0.05307    0.24909    0.23037   -0.09628    0.66721
  585.88    0.04376    0.22502    0.20920   -0.08433    0.63205
  586.75    0.04694    0.22962    0.21666   -0.07775    0.76220
  587.61    0.05297    0.24343    0.23016   -0.08110    0.73069
  588.47    0.04054    0.21722    0.20134   -0.08290    0.51419
  589.33    0.03917    0.21407    0.19793   -0.08288    0.55749
  590.20    0.04025    0.21846    0.20061   -0.08776    0.61958
  591.06    0.04544    0.23196    0.21316   -0.09284    0.57528
  591.92    0.04581    0.23457    0.21404   -0.09730    0.63133
  592.79    0.05074    0.24465    0.22525   -0.09693    0.65560
  593.65    0.05385    0.25044    0.23205   -0.09576    0.63839
  594.51    0.05251    0.24804    0.22916   -0.09643    0.64585
  595.37    0.04791    0.23827    0.21889   -0.09552    0.60893
  596.24    0.04779    0.23735    0.21860   -0.09388    0.54790
  597.10    0.04448    0.23127    0.21090   -0.09621    0.52757
  597.96    0.04799    0.23799    0.21907   -0.09442    0.52518
  598.83    0.04757    0.23765    0.21811   -0.09576    0.54262
  599.69    0.04235    0.22628    0.20578   -0.09534    0.54801
  600.55    0.04015    0.22164    0.20037   -0.09590    0.57163
  601.41    0.04105    0.22119    0.20262   -0.08999    0.57514
  602.28    0.03661    0.20936    0.19134   -0.08617    0.57823
  603.14    0.03138    0.19136    0.17715   -0.07358    0.53916
  604.00    0.03408    0.19635    0.18461   -0.06828    0.78994
  604.87    0.03523    0.19987    0.18769   -0.07012    0.77465
  605.73    0.03548    0.20036    0.18836   -0.06972    0.72377
  606.59    0.03157    0.19080    0.17768   -0.07079    0.72407
  607.45    0.03478    0.20044    0.18651   -0.07472    0.63523
  608.32    0.04552    0.23004    0.21336   -0.08745    0.84564
  609.18    0.05067    0.24330    0.22510   -0.09385    0.66258
  610.04    0.05322    0.24941    0.23070   -0.09632    0.56572
  610.91    0.05036    0.24318    0.22441   -0.09517    0.60267
  611.77    0.04846    0.23910    0.22014   -0.09475    0.68872
  612.63    0.07553    0.28994    0.27482   -0.09464    1.07317
  613.49    0.08224    0.30304    0.28678   -0.10025    1.18145
  614.36    0.08075    0.30033    0.28416   -0.09949    1.10906
  615.22    0.07800    0.29623    0.27929   -0.10089    1.08728
  616.08    0.07980    0.29599    0.28250   -0.09082    1.24083
  616.95    0.08712    0.30151    0.29517   -0.06534    1.21338
  617.81    0.19098    0.43673    0.43701   -0.02855    1.64142
  618.67    0.17212    0.41373    0.41487   -0.00328    1.42876
  619.53    0.18676    0.43096    0.43216   -0.00300    1.38807
  620.40    0.22785    0.47601    0.47734   -0.00174    1.86843
  621.26    0.28796    0.53516    0.53662   -0.00615    2.51966
  622.12    0.30575    0.55146    0.55294   -0.00810    2.88706
  622.99    0.23982    0.48836    0.48971   -0.00211    2.52915
  623.85    0.19949    0.44540    0.44664   -0.00207    1.46224
  624.71    0.18247    0.42598    0.42717    0.00102    1.18064
  625.57    0.17954    0.42255    0.42372    0.00172    1.23685
  626.44    0.17876    0.42164    0.42281    0.00245    1.42994
  627.30    0.17653    0.41904    0.42016    0.00617    1.44097
  628.16    0.15464    0.39218    0.39325    0.00460    1.37852
  629.03    0.15308    0.39026    0.39125    0.00844    2.16949
  629.89    0.15830    0.39686    0.39787    0.00872    1.82149
  630.75    0.12042    0.34609    0.34701    0.00523    1.05862
  631.61    0.12293    0.34964    0.35061    0.00182    1.10068
  632.48    0.13030    0.36001    0.36098    0.00509    1.17415
  633.34    0.23536    0.48381    0.48514   -0.00521    2.34419
  634.20    0.31908    0.56333    0.56487   -0.00510    2.71773
  635.07    0.34105    0.58238    0.58400   -0.00312    1.78277
  635.93    0.32310    0.56684    0.56842    0.00121    1.67910
  636.79    0.29217    0.53909    0.54052    0.00853    1.73557
  637.65    0.26824    0.51650    0.51791    0.00546    1.51121
  638.52    0.28673    0.53405    0.53548    0.00835    1.52158
  639.38    0.33529    0.57745    0.57904    0.00486    1.72864
  640.24    0.43800    0.66002    0.66182    0.00726    1.73753
  641.11    0.55595    0.74356    0.74562   -0.00335    2.20205
  641.97    0.60259    0.77411    0.77627    0.00047    2.51815
  642.83    0.65399    0.80645    0.80870    0.00020    2.84204
  643.69    0.66445    0.81287    0.81514    0.00116    2.92758
  644.56    0.62053    0.78555    0.78774    0.00124    2.74451
  645.42    0.56673    0.75072    0.75281   -0.00113    2.24265
  646.28    0.55837    0.74519    0.74724   -0.00678    2.04972
  647.15    0.53747    0.73111    0.73312   -0.00664    2.27300
  648.01    0.51074    0.71280    0.71466   -0.01349    3.70992
  648.87    0.43046    0.65435    0.65610   -0.00976    3.33329
  649.73    0.36994    0.60654    0.60823   -0.00163    3.35815
  650.60    0.18801    0.43252    0.43360   -0.01060    1.91716
  651.46    0.08214    0.28584    0.28661   -0.00408    0.94969
  652.32    0.04259    0.20583    0.20637   -0.00399    1.43167
  653.19    0.19354    0.44008    0.43993   -0.03470    3.77730
  654.05    0.44763    0.66927    0.66905   -0.05269    6.59524
  654.91    0.02671    0.16505    0.16343   -0.02609    1.16478
  655.77    0.08377    0.29024    0.28944   -0.03050    1.96894
  656.64    0.05209    0.23045    0.22823   -0.03618    1.88278
  657.50    0.36770    0.60713    0.60638   -0.05436    5.06578
  658.36    0.06000    0.24735    0.24494   -0.03898    1.80956
  659.23    1.81830    1.34721    1.34845   -0.08222   13.17567
  660.09    1.46048    1.20773    1.20850   -0.07908   11.92054
  660.95    0.64776    0.80504    0.80484   -0.06262    8.21141
  661.81    0.05883    0.24623    0.24255   -0.04615    2.54755
  662.68    0.10408    0.32338    0.32261   -0.03280    2.22755
  663.54    2.96916    1.71833    1.72313    0.00102   15.47178
  664.40    3.88497    1.96558    1.97103    0.01094   17.15496
  665.27    6.06764    2.45676    2.46326    0.04194   22.63590
  666.13    3.17012    1.77554    1.78048    0.00512   16.40668
  666.99    1.12759    1.05895    1.06188   -0.00789   10.09888
  667.85    0.73048    0.85415    0.85468   -0.05608    8.26388
  668.72    6.27547    2.50193    2.50509   -0.13804   25.08066
  669.58    6.63910    2.57199    2.57665   -0.11366   23.90828
  670.44    6.28358    2.50276    2.50671   -0.12308   24.74400
  671.31    1.73405    1.31483    1.31683   -0.06609   11.49955
  672.17    0.68129    0.82336    0.82540   -0.02036    6.78803
  673.03    5.54829    2.34939    2.35548    0.04671   23.61737
  673.89    3.59005    1.88953    1.89474    0.01520   16.59927
  674.76    2.65200    1.62397    1.62850    0.00026   14.91256
  675.62    0.35551    0.59504    0.59625   -0.02310    5.63689
  676.48    0.55670    0.74434    0.74613   -0.02065    6.64534
  677.35    0.53410    0.72898    0.73082   -0.01673    6.43633
  678.21    0.91222    0.95263    0.95510   -0.01851    7.96196
  679.07    1.94859    1.39204    1.39592    0.00219   12.60661
  679.93    2.05742    1.43048    1.43437    0.01644   13.60545
  680.80    0.16626    0.40747    0.40776   -0.02636    1.74724
  681.66    0.17867    0.42352    0.42270   -0.04109    1.91826
  682.52    1.37721    1.17034    1.17355   -0.01165    9.34288
  683.39    2.92339    1.70504    1.70979   -0.00158   15.97246
  684.25    1.08744    1.03995    1.04280   -0.01019    9.36053
  685.11    2.50634    1.57874    1.58314    0.00042   14.63822
  685.97    3.28353    1.80701    1.81205    0.00100   16.56550
  686.84    0.28779    0.53582    0.53646   -0.03029    3.52536
  687.70    0.76755    0.87639    0.87610   -0.06914    8.58510
  688.56    1.11827    1.05707    1.05748   -0.07307   10.28835
  689.43    1.42472    1.19329    1.19362   -0.08453   12.07259
