~Version Information
VERS. 2.0:
WRAP. NO:

~Well Information
STRT.FT -172.57:
STOP.FT 709.27:
STEP.FT 0.863:
NULL. -999.25:

~Curve Information
DEPT.FT     : Depth below casing
DAS_VAR.NM  : DAS Amplitude Variance
DAS_RMS.NM  : DAS RMS Amplitude
DAS_STD.NM  : DAS Standard Deviation
DAS_MEAN.NM : DAS Mean Amplitude
DAS_MAX.NM  : DAS Maximum Absolute Amplitude

~A  DEPT  DAS_VAR  DAS_RMS  DAS_STD  DAS_MEAN  DAS_MAX
# ...
  151.00    0.04935    0.22211    0.22214   -0.00520    6.57764
  151.86    0.04016    0.20037    0.20040   -0.00456    5.71018
  152.73    0.04061    0.20149    0.20151   -0.00474    5.76772
  153.59    0.03845    0.19605    0.19608   -0.00460    5.59446
  154.45    0.03562    0.18870    0.18873   -0.00418    5.26820
  155.31    0.02357    0.15350    0.15353   -0.00307    3.60625
  156.18    0.01750    0.13226    0.13230   -0.00175    1.91028
  157.04    0.01923    0.13864    0.13868   -0.00149    1.64822
  157.90    0.02280    0.15095    0.15100   -0.00221    2.42999
  158.77    0.01902    0.13787    0.13792   -0.00159    1.70268
  159.63    0.01807    0.13440    0.13444   -0.00158    1.64670
  160.49    0.02171    0.14729    0.14733   -0.00223    2.72467
  161.35    0.03349    0.18298    0.18300   -0.00407    4.93368
  162.22    0.02242    0.14971    0.14974   -0.00292    3.50955
  163.08    0.02311    0.15200    0.15203   -0.00301    3.53161
  163.94    0.02729    0.16517    0.16519   -0.00358    4.22487
  164.81    0.03053    0.17470    0.17472   -0.00415    4.66711
  165.67    0.02871    0.16941    0.16943   -0.00375    4.42115
  166.53    0.02810    0.16761    0.16763   -0.00391    4.34540
  167.40    0.02701    0.16433    0.16435   -0.00359    4.24758
  168.26    0.03163    0.17784    0.17786   -0.00424    4.84220
  169.12    0.02724    0.16503    0.16505   -0.00381    4.25704
  169.98    0.03442    0.18551    0.18553   -0.00468    5.22656
  170.85    0.03208    0.17910    0.17911   -0.00439    4.90762
  171.71    0.02961    0.17207    0.17209   -0.00412    4.62934
  172.57    0.03306    0.18181    0.18182   -0.00465    5.05760
  173.44    0.03826    0.19558    0.19560   -0.00491    5.62749
  174.30    0.03367    0.18347    0.18348   -0.00466    5.06769
  175.16    0.03120    0.17662    0.17664   -0.00409    4.73829
  176.02    0.02641    0.16248    0.16251   -0.00357    4.16925
  176.89    0.02318    0.15221    0.15224   -0.00312    3.69984
  177.75    0.02541    0.15937    0.15940   -0.00350    3.99323
  178.61    0.01864    0.13649    0.13653   -0.00238    2.78849
  179.48    0.01497    0.12233    0.12237   -0.00179    1.92374
  180.34    0.01438    0.11989    0.11993   -0.00167    1.87375
  181.20    0.01827    0.13515    0.13518   -0.00251    2.91109
  182.06    0.02340    0.15294    0.15297   -0.00328    3.78582
  182.93    0.02497    0.15799    0.15802   -0.00344    4.06705
  183.79    0.02192    0.14803    0.14806   -0.00308    3.64286
  184.65    0.02766    0.16628    0.16630   -0.00375    4.48672
  185.52    0.03043    0.17444    0.17445   -0.00433    4.81381
  186.38    0.02275    0.15080    0.15083   -0.00313    3.69708
  187.24    0.02362    0.15366    0.15368   -0.00326    3.81435
  188.10    0.02712    0.16467    0.16469   -0.00364    4.35656
  188.97    0.02555    0.15981    0.15984   -0.00349    4.06733
  189.83    0.01793    0.13386    0.13389   -0.00246    2.77691
  190.69    0.02302    0.15168    0.15171   -0.00295    3.60798
  191.56    0.02449    0.15647    0.15650   -0.00317    3.71275
  192.42    0.03197    0.17877    0.17880   -0.00400    4.72483
  193.28    0.02690    0.16398    0.16400   -0.00348    4.02078
  194.14    0.03398    0.18431    0.18433   -0.00432    4.97259
  195.01    0.05394    0.23223    0.23225   -0.00586    7.01300
  195.87    0.04705    0.21688    0.21690   -0.00536    6.56740
  196.73    0.03914    0.19782    0.19784   -0.00482    5.70136
  197.60    0.03931    0.19824    0.19826   -0.00513    5.82218
  198.46    0.04390    0.20950    0.20952   -0.00510    6.23077
  199.32    0.05403    0.23243    0.23245   -0.00601    7.10221
  200.18    0.03463    0.18608    0.18610   -0.00459    5.27184
  201.05    0.02208    0.14858    0.14861   -0.00302    3.64149
  201.91    0.01198    0.10940    0.10943   -0.00130    1.48177
  202.77    0.01048    0.10235    0.10239   -0.00076    0.80243
  203.64    0.01068    0.10329    0.10333   -0.00083    0.87929
  204.50    0.01159    0.10760    0.10764   -0.00114    1.30404
  205.36    0.01117    0.10565    0.10569   -0.00117    1.39134
  206.22    0.01170    0.10813    0.10816   -0.00132    1.58906
  207.09    0.01176    0.10841    0.10844   -0.00126    1.45318
  207.95    0.01084    0.10410    0.10414   -0.00069    0.74530
  208.81    0.01073    0.10354    0.10358   -0.00064    0.71337
  209.68    0.01078    0.10376    0.10380   -0.00046    0.48216
  210.54    0.01021    0.10099    0.10103   -0.00044    0.45829
  211.40    0.01052    0.10251    0.10255   -0.00040    0.87491
  212.26    0.00993    0.09963    0.09967   -0.00043    0.57827
  213.13    0.00962    0.09803    0.09807   -0.00038    0.46573
  213.99    0.00960    0.09793    0.09797   -0.00015    0.42444
  214.85    0.00969    0.09839    0.09843    0.00023    0.39584
  215.72    0.01052    0.10250    0.10254    0.00069    0.82173
  216.58    0.01133    0.10639    0.10642    0.00106    1.23057
  217.44    0.01233    0.11100    0.11103    0.00135    1.61213
  218.30    0.01266    0.11249    0.11252    0.00146    1.69244
  219.17    0.01390    0.11785    0.11789    0.00182    2.12137
  220.03    0.01230    0.11087    0.11090    0.00152    1.72237
  220.89    0.01192    0.10914    0.10917    0.00151    1.61568
  221.76    0.01565    0.12507    0.12510    0.00236    2.63159
  222.62    0.02288    0.15124    0.15126    0.00348    3.89887
  223.48    0.02659    0.16303    0.16305    0.00379    4.46771
  224.34    0.01578    0.12558    0.12561    0.00205    2.59871
  225.21    0.01374    0.11720    0.11723    0.00160    2.06643
  226.07    0.01609    0.12680    0.12683    0.00218    2.67461
  226.93    0.01456    0.12064    0.12068    0.00187    2.32577
  227.80    0.01463    0.12091    0.12094    0.00193    2.37707
  228.66    0.02329    0.15257    0.15260    0.00331    3.89808
  229.52    0.02839    0.16847    0.16849    0.00403    4.51046
  230.38    0.03078    0.17543    0.17545    0.00433    4.82956
  231.25    0.03014    0.17358    0.17361    0.00409    4.67834
  232.11    0.03203    0.17896    0.17898    0.00434    4.88463
  232.97    0.03701    0.19237    0.19238    0.00491    5.49160
  233.84    0.05814    0.24111    0.24113    0.00611    7.43478
  234.70    0.11558    0.33997    0.33997    0.00960   11.10105
  235.56    0.06457    0.25410    0.25411    0.00699    7.94993
  236.42    0.05195    0.22792    0.22793    0.00595    6.97939
  237.29    0.04789    0.21881    0.21883    0.00561    6.69366
  238.15    0.03991    0.19976    0.19978    0.00508    5.91772
  239.01    0.03160    0.17774    0.17776    0.00428    4.97622
  239.88    0.02374    0.15405    0.15408    0.00327    3.84831
  240.74    0.01881    0.13710    0.13713    0.00262    3.01433
  241.60    0.01469    0.12116    0.12119    0.00201    2.31333
  242.46    0.01209    0.10991    0.10995    0.00126    1.64220
  243.33    0.01120    0.10578    0.10582    0.00098    1.29356
  244.19    0.01086    0.10416    0.10420    0.00082    1.07656
  245.05    0.01139    0.10668    0.10672    0.00108    1.35203
  245.92    0.01112    0.10540    0.10544    0.00076    0.97621
  246.78    0.01175    0.10837    0.10841    0.00099    1.22481
  247.64    0.01569    0.12524    0.12528    0.00205    2.27248
  248.50    0.01295    0.11377    0.11380    0.00122    1.39396
  249.37    0.01089    0.10432    0.10436    0.00036    0.39042
  250.23    0.01075    0.10366    0.10370    0.00018    0.41824
  251.09    0.01192    0.10912    0.10916    0.00091    1.04561
  251.96    0.01238    0.11123    0.11127    0.00089    1.06876
  252.82    0.01191    0.10910    0.10914    0.00064    0.74531
  253.68    0.01238    0.11123    0.11127    0.00082    1.00005
  254.54    0.01163    0.10781    0.10785    0.00047    0.58851
  255.41    0.01097    0.10469    0.10473   -0.00045    0.55044
  256.27    0.01004    0.10017    0.10021    0.00048    0.53564
  257.13    0.00995    0.09969    0.09973    0.00045    0.50874
  258.00    0.01030    0.10146    0.10150    0.00008    0.42893
