~Version Information
VERS. 2.0:
WRAP. NO:

~Well Information
STRT.FT -172.57:
STOP.FT 709.27:
STEP.FT 0.863:
NULL. -999.25:

~Curve Information
DEPT.FT     : Depth below casing
DAS_VAR.NM  : DAS Amplitude Variance
DAS_RMS.NM  : DAS RMS Amplitude
DAS_STD.NM  : DAS Standard Deviation
DAS_MEAN.NM : DAS Mean Amplitude
DAS_MAX.NM  : DAS Maximum Absolute Amplitude

~A  DEPT  DAS_VAR  DAS_RMS  DAS_STD  DAS_MEAN  DAS_MAX
# ...
   43.14    0.01624    0.12740    0.12745    0.00046    1.06654
   44.01    0.01694    0.13011    0.13016    0.00107    1.19586
   44.87    0.01668    0.12911    0.12915    0.00145    1.79552
   45.73    0.01863    0.13645    0.13650    0.00138    1.56182
   46.59    0.02038    0.14270    0.14276    0.00098    1.29260
   47.46    0.02274    0.15074    0.15080    0.00082    1.35437
   48.32    0.02341    0.15293    0.15299    0.00032    1.27833
   49.18    0.02285    0.15109    0.15115   -0.00002    1.19211
   50.05    0.01722    0.13117    0.13122   -0.00024    1.28990
   50.91    0.01414    0.11888    0.11893    0.00004    1.20849
   51.77    0.01703    0.13045    0.13050    0.00101    1.34058
   52.63    0.02043    0.14288    0.14293    0.00185    2.08189
   53.50    0.02461    0.15682    0.15686    0.00268    3.15282
   54.36    0.02187    0.14785    0.14788    0.00270    3.05267
   55.22    0.01871    0.13677    0.13680    0.00236    2.63980
   56.09    0.01857    0.13622    0.13626    0.00244    2.82784
   56.95    0.02130    0.14592    0.14595    0.00281    3.28384
   57.81    0.03937    0.19838    0.19842    0.00418    4.73470
   58.67    0.06738    0.25952    0.25958    0.00455    5.16626
   59.54    0.09333    0.30542    0.30550    0.00549    6.58110
   60.40    0.05914    0.24314    0.24319    0.00485    5.35298
   61.26    0.02383    0.15429    0.15435    0.00059    1.14837
   62.13    0.02020    0.14207    0.14213   -0.00074    1.29877
   62.99    0.01830    0.13521    0.13526   -0.00075    1.40795
   63.85    0.01992    0.14110    0.14115   -0.00138    1.97202
   64.71    0.02134    0.14605    0.14610   -0.00197    2.67266
   65.58    0.01618    0.12716    0.12720   -0.00129    1.36969
   66.44    0.01907    0.13806    0.13811   -0.00082    1.99039
   67.30    0.02037    0.14266    0.14272   -0.00057    1.31237
   68.17    0.02155    0.14674    0.14679   -0.00094    1.27903
   69.03    0.01678    0.12949    0.12954    0.00070    1.64493
   69.89    0.01373    0.11711    0.11716    0.00056    1.03795
   70.75    0.01204    0.10971    0.10975    0.00066    0.77759
   71.62    0.01327    0.11515    0.11519    0.00063    0.72975
   72.48    0.02016    0.14195    0.14200   -0.00150    2.28950
   73.34    0.05017    0.22395    0.22399   -0.00511    6.18470
   74.21    0.03360    0.18326    0.18331   -0.00260    3.47083
   75.07    0.01905    0.13795    0.13801   -0.00069    1.07709
   75.93    0.01497    0.12230    0.12235   -0.00058    0.93702
   76.79    0.01381    0.11747    0.11751   -0.00016    0.64254
   77.66    0.01263    0.11233    0.11238    0.00017    0.74407
   78.52    0.01296    0.11382    0.11386   -0.00011    0.70851
   79.38    0.01507    0.12271    0.12275   -0.00042    0.95295
   80.25    0.01912    0.13823    0.13828   -0.00169    2.32809
   81.11    0.02077    0.14407    0.14411   -0.00228    2.84268
   81.97    0.01961    0.13999    0.14003   -0.00206    2.61113
   82.83    0.01757    0.13252    0.13256   -0.00163    2.33869
   83.70    0.01553    0.12457    0.12461   -0.00149    2.09131
   84.56    0.01622    0.12733    0.12736   -0.00188    2.31161
   85.42    0.01518    0.12317    0.12320   -0.00158    2.19370
   86.29    0.01486    0.12188    0.12192   -0.00159    2.19789
   87.15    0.01769    0.13297    0.13300   -0.00215    2.83622
   88.01    0.02348    0.15320    0.15323   -0.00315    3.87623
   88.87    0.02046    0.14302    0.14305   -0.00277    3.38506
   89.74    0.01723    0.13125    0.13128   -0.00207    2.73905
   90.60    0.01515    0.12303    0.12307   -0.00167    2.16562
   91.46    0.01987    0.14091    0.14095   -0.00234    3.14560
   92.33    0.02009    0.14170    0.14174   -0.00259    3.22620
   93.19    0.02145    0.14642    0.14645   -0.00284    3.45182
   94.05    0.02549    0.15962    0.15965   -0.00329    3.96871
   94.91    0.02517    0.15862    0.15865   -0.00325    3.93097
   95.78    0.02131    0.14594    0.14597   -0.00279    3.32343
   96.64    0.01868    0.13662    0.13666   -0.00202    2.53225
   97.50    0.01640    0.12801    0.12805   -0.00158    1.88380
   98.37    0.01537    0.12392    0.12397   -0.00065    0.74496
   99.23    0.01863    0.13645    0.13651   -0.00057    1.01457
  100.09    0.01783    0.13349    0.13354   -0.00100    1.18992
  100.95    0.01877    0.13698    0.13702   -0.00169    1.89056
  101.82    0.01878    0.13699    0.13703   -0.00201    2.58160
  102.68    0.01708    0.13064    0.13068   -0.00194    2.49786
  103.54    0.01834    0.13539    0.13543   -0.00199    2.60698
  104.41    0.01673    0.12930    0.12934   -0.00163    2.15585
  105.27    0.01619    0.12721    0.12725   -0.00162    2.14069
  106.13    0.01405    0.11850    0.11854   -0.00098    1.20818
  106.99    0.01547    0.12432    0.12436   -0.00117    1.46276
  107.86    0.01579    0.12561    0.12565   -0.00109    1.42238
  108.72    0.01668    0.12910    0.12914   -0.00154    1.78576
  109.58    0.01951    0.13964    0.13968   -0.00223    2.64900
  110.45    0.02493    0.15787    0.15790   -0.00311    3.83906
  111.31    0.02034    0.14258    0.14261   -0.00275    3.17696
  112.17    0.02739    0.16549    0.16551   -0.00370    4.34235
  113.03    0.02225    0.14912    0.14915   -0.00271    3.75328
  113.90    0.02143    0.14637    0.14640   -0.00293    3.66227
  114.76    0.02509    0.15838    0.15841   -0.00331    4.10552
  115.62    0.02918    0.17080    0.17083   -0.00372    4.61943
  116.49    0.02424    0.15565    0.15568   -0.00303    3.83660
  117.35    0.03029    0.17402    0.17404   -0.00372    4.69153
  118.21    0.03894    0.19730    0.19733   -0.00431    5.48534
  119.07    0.04042    0.20102    0.20105   -0.00449    5.67638
  119.94    0.03842    0.19598    0.19600   -0.00456    5.64180
  120.80    0.04539    0.21303    0.21305   -0.00528    6.37654
  121.66    0.03826    0.19558    0.19559   -0.00484    5.80109
  122.53    0.02791    0.16703    0.16705   -0.00407    4.40349
  123.39    0.02197    0.14815    0.14821   -0.00100    1.81227
  124.25    0.02094    0.14466    0.14471    0.00097    1.60564
  125.11    0.01851    0.13600    0.13606    0.00016    1.13072
  125.98    0.01730    0.13148    0.13152   -0.00145    1.46491
  126.84    0.02006    0.14161    0.14164   -0.00273    3.04718
  127.70    0.02697    0.16420    0.16423   -0.00360    4.23508
  128.57    0.03733    0.19317    0.19320   -0.00426    5.35017
  129.43    0.08638    0.29389    0.29390   -0.00803    9.31292
  130.29    0.09090    0.30148    0.30149   -0.00811    9.53907
  131.15    0.05211    0.22826    0.22828   -0.00548    6.65311
  132.02    0.02745    0.16566    0.16569   -0.00358    4.07693
  132.88    0.02093    0.14462    0.14466   -0.00253    3.02900
  133.74    0.02106    0.14510    0.14514   -0.00264    2.99412
  134.61    0.02021    0.14212    0.14215   -0.00264    3.09747
  135.47    0.02182    0.14769    0.14772   -0.00288    3.50671
  136.33    0.02401    0.15493    0.15495   -0.00319    3.86077
  137.19    0.02919    0.17084    0.17086   -0.00394    4.78840
  138.06    0.03315    0.18205    0.18207   -0.00440    5.30006
  138.92    0.04175    0.20431    0.20433   -0.00477    6.10071
  139.78    0.04632    0.21520    0.21523   -0.00499    6.39289
  140.65    0.05418    0.23273    0.23276   -0.00561    7.04977
  141.51    0.04775    0.21848    0.21851   -0.00495    6.39221
  142.37    0.04011    0.20026    0.20029   -0.00447    5.66367
  143.23    0.07626    0.27613    0.27614   -0.00735    8.75690
  144.10    0.07141    0.26722    0.26723   -0.00684    8.37405
  144.96    0.06499    0.25491    0.25493   -0.00635    7.84547
  145.82    0.07206    0.26842    0.26843   -0.00719    8.39779
  146.69    0.12651    0.35566    0.35568   -0.00950   11.64036
  147.55    0.09580    0.30951    0.30952   -0.00844    9.87400
  148.41    0.09698    0.31140    0.31141   -0.00848   10.02018
  149.27    0.05239    0.22887    0.22889   -0.00569    6.96115
  150.14    0.05242    0.22893    0.22895   -0.00558    6.90801
