~Version Information
VERS. 2.0:
WRAP. NO:

~Well Information
STRT.FT -172.57:
STOP.FT 709.27:
STEP.FT 0.863:
NULL. -999.25:

~Curve Information
DEPT.FT     : Depth below casing
DAS_VAR.NM  : DAS Amplitude Variance
DAS_RMS.NM  : DAS RMS Amplitude
DAS_STD.NM  : DAS Standard Deviation
DAS_MEAN.NM : DAS Mean Amplitude
DAS_MAX.NM  : DAS Maximum Absolute Amplitude

~A  DEPT  DAS_VAR  DAS_RMS  DAS_STD  DAS_MEAN  DAS_MAX
 -172.57    0.00579    0.07651    0.07607    0.00848    0.69110
 -171.71    0.00588    0.07722    0.07670    0.00920    0.80936
 -170.85    0.00659    0.08170    0.08120    0.00928    0.81630
 -169.98    0.00647    0.08089    0.08045    0.00875    0.61471
 -169.12    0.00680    0.08283    0.08247    0.00806    0.48170
 -168.26    0.00513    0.07189    0.07160    0.00684    0.44544
 -167.40    0.00475    0.06924    0.06890    0.00717    0.42927
 -166.53    0.00526    0.07285    0.07252    0.00714    0.39041
 -165.67    0.00420    0.06517    0.06484    0.00681    0.38312
 -164.81    0.00392    0.06290    0.06258    0.00656    0.34468
 -163.94    0.00482    0.06979    0.06946    0.00706    0.38212
 -163.08    0.00613    0.07849    0.07827    0.00628    0.57431
 -162.22    0.00676    0.08245    0.08223    0.00646    0.49467
 -161.35    0.00840    0.09187    0.09165    0.00692    0.47065
 -160.49    0.01191    0.10932    0.10913    0.00708    0.94235
 -159.63    0.02339    0.15314    0.15295    0.00879    1.68660
 -158.77    0.07736    0.27847    0.27814    0.01569    3.86433
 -157.90    0.12488    0.35332    0.35338    0.00747    2.24616
 -157.04    0.42919    0.65487    0.65513   -0.00063    6.11991
 -156.18    1.04225    1.02051    1.02091    0.00333    9.05945
 -155.31    1.80224    1.34195    1.34247    0.00470   10.30707
 -154.45    2.68186    1.63702    1.63764    0.01011   14.23526
 -153.59    3.75261    1.93662    1.93717    0.02965   13.83271
 -152.73    5.43072    2.32996    2.33039    0.04807   18.15448
 -151.86    7.57593    2.75143    2.75244    0.02117   26.93986
 -151.00    7.93336    2.81552    2.81662   -0.00827   26.24496
 -150.14    9.94377    3.15241    3.15338   -0.04215   24.60881
 -149.27   13.33867    3.65302    3.65221   -0.12823   28.97002
 -148.41   16.37439    4.04877    4.04653   -0.17653   26.84875
 -147.55   18.83143    4.34255    4.33952   -0.20308   32.87698
 -146.69   25.58539    5.06098    5.05820   -0.21999   46.62842
 -145.82   30.91606    5.56054    5.56022   -0.16774   57.14665
 -144.96   37.91330    6.15617    6.15738   -0.12354   48.19312
 -144.10   45.31956    6.73137    6.73198   -0.16644   45.72543
 -143.23   46.14593    6.79221    6.79308   -0.15740   41.61004
 -142.37   48.12949    6.93613    6.93754   -0.13656   38.43373
 -141.51   50.51355    7.10493    7.10729   -0.08118   33.78888
 -140.65   48.64172    6.97196    6.97436   -0.07132   35.41988
 -139.78   52.12573    7.21708    7.21981   -0.04363   37.24790
 -138.92   56.31609    7.50148    7.50440   -0.02932   34.89867
 -138.06   64.32077    8.01687    8.02002    0.02040   40.64346
 -137.19   68.35302    8.26435    8.26759    0.02620   45.74513
 -136.33   75.85246    8.70588    8.70933    0.01008   37.48473
 -135.47   85.87931    9.26349    9.26711    0.03383   39.82587
 -134.61  106.02715   10.29286   10.29695    0.00315   55.65376
 -133.74  123.59801   11.11325   11.11746   -0.06623   63.96800
 -132.88  127.83531   11.30225   11.30643   -0.08324   67.99924
 -132.02  130.83662   11.43401   11.43838   -0.06142   49.03409
 -131.15  122.24922   11.05258   11.05664   -0.08560   44.57333
 -130.29  126.60376   11.24743   11.25183   -0.03761   54.75836
 -129.43  122.95004   11.08421   11.08828   -0.08540   45.97424
 -128.57  128.73805   11.34231   11.34628   -0.10971   52.65565
 -127.70  133.28962   11.54105   11.54511   -0.11003   47.39784
 -126.84  139.86208   11.82332   11.82633   -0.19946   51.87144
 -125.98  147.55323   12.14472   12.14715   -0.24114   50.89018
 -125.11  158.89556   12.60445   12.60538   -0.32060   54.24290
 -124.25  170.85620   13.07103   13.07120   -0.36210   59.57420
 -123.39  178.45097   13.35899   13.35855   -0.39135   64.55415
 -122.53  194.77787   13.95523   13.95628   -0.35374   68.22577
 -121.66  207.40978   14.39939   14.40173   -0.31186   77.94965
 -120.80  212.68308   14.58058   14.58366   -0.28093   70.85759
 -119.94  219.39238   14.80943   14.81190   -0.31784   68.24257
 -119.07  227.32072   15.07467   15.07716   -0.32452   64.47586
 -118.21  243.40299   15.59777   15.60138   -0.28376   73.45348
 -117.35  247.28529   15.72062   15.72531   -0.22104   66.65489
 -116.49  250.81521   15.83216   15.83715   -0.20287   71.50339
 -115.62  274.21844   16.55381   16.55954   -0.16676   72.99930
 -114.76  288.55208   16.98058   16.98682   -0.13039   76.12045
 -113.90  291.14909   17.05661   17.06309   -0.09997   80.52560
 -113.03  302.26267   17.37949   17.38570   -0.15478   80.45789
 -112.17  316.72889   17.79040   17.79688   -0.14425   81.61450
 -111.31  325.21061   18.02750   18.03360   -0.19567   92.53830
 -110.45  343.95777   18.53956   18.54610   -0.17507   90.75955
 -109.58  355.99590   18.86191   18.86785   -0.24148  100.07910
 -108.72  368.00270   19.17800   19.18340   -0.29183   94.62216
 -107.86  371.94697   19.28059   19.28593   -0.29891   95.61389
 -106.99  385.59477   19.63059   19.63657   -0.26701   99.27390
 -106.13  387.68626   19.68415   19.68975   -0.29515   99.43356
 -105.27  402.34011   20.05231   20.05842   -0.27263  105.09927
 -104.41  409.90849   20.24092   20.24620   -0.33447  109.70160
 -103.54  440.39280   20.97931   20.98554   -0.29661  127.46500
 -102.68  428.46319   20.69376   20.69935   -0.32919  118.49985
 -101.82  450.48945   21.21880   21.22474   -0.32496  117.69656
 -100.95  449.35644   21.19135   21.19803   -0.27108  112.95294
 -100.09  444.98757   21.08832   21.09473   -0.28779  111.35489
  -99.23  456.72315   21.36526   21.37108   -0.33691  108.11057
  -98.37  451.13407   21.23466   21.23992   -0.36685  109.49445
  -97.50  468.56363   21.64104   21.64633   -0.37785  101.26160
  -96.64  461.10738   21.46759   21.47341   -0.34076   94.13705
  -95.78  473.41993   21.75184   21.75822   -0.31355   87.60010
  -94.91  473.19240   21.74648   21.75299   -0.30423   93.43854
  -94.05  465.86943   21.57733   21.58401   -0.28567   91.85150
  -93.19  476.58312   21.82538   21.83078   -0.37728   97.99234
  -92.33  477.82560   21.85366   21.85922   -0.36918   97.26880
  -91.46  482.59404   21.96293   21.96802   -0.39919  107.35699
  -90.60  481.11720   21.92974   21.93438   -0.42188  101.48499
  -89.74  470.25646   21.67946   21.68540   -0.34052   99.04572
  -88.87  505.31780   22.47221   22.47927   -0.28899  111.23669
  -88.01  497.31471   22.29396   22.30055   -0.31704  108.53848
  -87.15  518.88928   22.77205   22.77914   -0.29777  107.94949
  -86.29  517.26467   22.73638   22.74345   -0.29798  113.07385
  -85.42  520.61366   22.80930   22.81696   -0.25212  111.28946
  -84.56  520.25867   22.80083   22.80918   -0.17930  108.15314
  -83.70  504.60729   22.45555   22.46347   -0.21179  101.68304
  -82.83  480.06069   21.90230   21.91029   -0.17648  115.55640
  -81.97  470.75083   21.68952   21.69679   -0.24065  106.90805
  -81.11  449.46484   21.19338   21.20059   -0.22672  108.22495
  -80.25  433.91304   20.82332   20.83058   -0.20497   99.02011
  -79.38  415.29037   20.37145   20.37867   -0.18763  100.65302
  -78.52  394.65629   19.85897   19.86596   -0.18867   95.89658
  -77.66  384.74174   19.60792   19.61483   -0.18506   89.67740
  -76.79  375.78262   19.37804   19.38511   -0.15499   88.58282
  -75.93  373.41414   19.31663   19.32393   -0.12037  111.46201
  -75.07  344.02837   18.54107   18.54800   -0.12645   74.87830
  -74.21  321.48714   17.92339   17.93006   -0.12611   79.65424
  -73.34  302.16057   17.37653   17.38277   -0.15149   72.72882
  -72.48  275.68077   16.59820   16.60364   -0.19529   71.27554
  -71.62  248.11035   15.74594   15.75152   -0.14595   65.09879
  -70.75  230.75025   15.18541   15.19047   -0.17183   65.57289
  -69.89  225.10946   14.99878   15.00365   -0.18069   67.42490
  -69.03  218.13856   14.76484   14.76951   -0.18696   73.04831
  -68.17  203.93682   14.27611   14.28065   -0.18005   69.33211
  -67.30  192.56396   13.87221   13.87674   -0.16473   63.29128
  -66.44  183.22057   13.53190   13.53590   -0.19292   63.64749
  -65.58  165.30367   12.85301   12.85705   -0.16535   59.58932
