~Version Information
VERS. 2.0:
WRAP. NO:

~Well Information
STRT.FT -172.57:
STOP.FT 709.27:
STEP.FT 0.863:
NULL. -999.25:

~Curve Information
DEPT.FT     : Depth below casing
DAS_VAR.NM  : DAS Amplitude Variance
DAS_RMS.NM  : DAS RMS Amplitude
DAS_STD.NM  : DAS Standard Deviation
DAS_MEAN.NM : DAS Mean Amplitude
DAS_MAX.NM  : DAS Maximum Absolute Amplitude

~A  DEPT  DAS_VAR  DAS_RMS  DAS_STD  DAS_MEAN  DAS_MAX
# ...
  151.00    0.07039    0.27500    0.26531   -0.07274    3.51312
  151.86    0.06462    0.26441    0.25420   -0.07311    2.95522
  152.73    0.06522    0.26521    0.25538   -0.07189    2.97322
  153.59    0.06222    0.25954    0.24943   -0.07208    2.84890
  154.45    0.06155    0.25808    0.24809   -0.07144    2.82075
  155.31    0.05461    0.24346    0.23369   -0.06857    1.81298
  156.18    0.05524    0.24391    0.23502   -0.06557    1.07242
  157.04    0.06323    0.25959    0.25146   -0.06484    1.11185
  157.90    0.07032    0.27294    0.26519   -0.06501    1.29501
  158.77    0.06405    0.26148    0.25308   -0.06615    1.00916
  159.63    0.06116    0.25556    0.24730   -0.06485    1.13759
  160.49    0.06134    0.25567    0.24766   -0.06389    1.76457
  161.35    0.06224    0.25708    0.24947   -0.06248    2.48288
  162.22    0.05046    0.23202    0.22463   -0.05842    1.79338
  163.08    0.05287    0.23655    0.22993   -0.05592    1.80811
  163.94    0.05665    0.24615    0.23802   -0.06309    2.16651
  164.81    0.05711    0.24804    0.23899   -0.06674    2.59742
  165.67    0.05745    0.24965    0.23970   -0.07012    2.23023
  166.53    0.05569    0.24653    0.23599   -0.07162    2.37642
  167.40    0.05681    0.24911    0.23835   -0.07273    2.21188
  168.26    0.05908    0.25317    0.24306   -0.07119    2.53630
  169.12    0.05659    0.24804    0.23788   -0.07059    2.35367
  169.98    0.06010    0.25510    0.24516   -0.07087    2.92801
  170.85    0.05805    0.25102    0.24094   -0.07075    2.67513
  171.71    0.05686    0.24862    0.23845   -0.07071    2.48907
  172.57    0.05650    0.24780    0.23769   -0.07039    2.98341
  173.44    0.05859    0.25170    0.24206   -0.06933    2.98419
  174.30    0.05980    0.25411    0.24455   -0.06941    2.94046
  175.16    0.05904    0.25304    0.24297   -0.07101    2.46524
  176.02    0.05367    0.24226    0.23166   -0.07115    2.12425
  176.89    0.05182    0.23830    0.22765   -0.07073    1.92537
  177.75    0.05375    0.24209    0.23185   -0.06999    2.10534
  178.61    0.04929    0.23321    0.22201   -0.07166    1.50634
  179.48    0.04554    0.22512    0.21340   -0.07195    0.97746
  180.34    0.04417    0.22224    0.21017   -0.07250    0.99317
  181.20    0.04501    0.22426    0.21216   -0.07292    1.47549
  182.06    0.04962    0.23419    0.22274   -0.07259    1.97142
  182.93    0.05018    0.23548    0.22402   -0.07284    2.07156
  183.79    0.04776    0.23010    0.21855   -0.07224    1.82931
  184.65    0.05074    0.23652    0.22526   -0.07238    2.26762
  185.52    0.05349    0.24218    0.23128   -0.07213    2.83387
  186.38    0.04918    0.23355    0.22177   -0.07351    1.87849
  187.24    0.04973    0.23447    0.22300   -0.07272    1.98583
  188.10    0.05167    0.23872    0.22731   -0.07320    2.25434
  188.97    0.05113    0.23769    0.22612   -0.07354    2.23912
  189.83    0.04903    0.23304    0.22144   -0.07288    1.55266
  190.69    0.05503    0.24552    0.23458   -0.07278    1.87003
  191.56    0.05882    0.25310    0.24252   -0.07275    1.90776
  192.42    0.06384    0.26304    0.25267   -0.07348    2.40241
  193.28    0.06122    0.25796    0.24743   -0.07328    2.12802
  194.14    0.06613    0.26697    0.25716   -0.07209    2.66451
  195.01    0.07463    0.28171    0.27319   -0.06919    3.56067
  195.87    0.06305    0.25956    0.25110   -0.06613    3.40668
  196.73    0.05764    0.24888    0.24007   -0.06596    2.90073
  197.60    0.05715    0.24824    0.23907   -0.06719    3.33400
  198.46    0.06003    0.25481    0.24501   -0.07034    3.12877
  199.32    0.06686    0.26780    0.25857   -0.07008    3.80527
  200.18    0.05695    0.24887    0.23864   -0.07096    2.95680
  201.05    0.04761    0.22975    0.21819   -0.07220    1.84672
  201.91    0.03978    0.21177    0.19946   -0.07137    0.84052
  202.77    0.03789    0.20711    0.19465   -0.07096    0.68365
  203.64    0.03910    0.20987    0.19773   -0.07056    0.68587
  204.50    0.04020    0.21279    0.20050   -0.07150    0.73066
  205.36    0.03798    0.20760    0.19487   -0.07178    0.82129
  206.22    0.03839    0.20843    0.19594   -0.07129    0.93605
  207.09    0.03955    0.21138    0.19887   -0.07185    0.79364
  207.95    0.04102    0.21471    0.20254   -0.07148    0.73902
  208.81    0.04093    0.21440    0.20232   -0.07118    0.76542
  209.68    0.04205    0.21662    0.20507   -0.07004    0.84633
  210.54    0.04088    0.21341    0.20219   -0.06852    0.90755
  211.40    0.04433    0.22079    0.21054   -0.06674    1.35974
  212.26    0.04129    0.21333    0.20321   -0.06517    1.07406
  213.13    0.03845    0.20714    0.19610   -0.06696    0.94952
  213.99    0.03776    0.20629    0.19432   -0.06944    0.79600
  214.85    0.03739    0.20566    0.19335   -0.07028    0.65263
  215.72    0.03795    0.20770    0.19480   -0.07228    0.66345
  216.58    0.03902    0.21037    0.19753   -0.07258    0.93480
  217.44    0.03997    0.21270    0.19992   -0.07283    1.15075
  218.30    0.04058    0.21420    0.20144   -0.07303    1.21686
  219.17    0.04203    0.21771    0.20502   -0.07346    1.42951
  220.03    0.03975    0.21243    0.19938   -0.07352    1.23064
  220.89    0.03951    0.21182    0.19877   -0.07340    1.23916
  221.76    0.04202    0.21760    0.20499   -0.07324    1.75988
  222.62    0.04542    0.22499    0.21313   -0.07235    2.53796
  223.48    0.04832    0.23136    0.21982   -0.07243    2.81829
  224.34    0.04260    0.21873    0.20639   -0.07267    1.66360
  225.21    0.04293    0.21939    0.20720   -0.07235    1.39831
  226.07    0.04189    0.21738    0.20467   -0.07348    1.81316
  226.93    0.04131    0.21607    0.20324   -0.07357    1.61581
  227.80    0.04101    0.21542    0.20250   -0.07371    1.63026
  228.66    0.04884    0.23303    0.22099   -0.07420    2.50541
  229.52    0.05397    0.24423    0.23231   -0.07566    2.97889
  230.38    0.05498    0.24622    0.23447   -0.07545    3.18330
  231.25    0.05792    0.25217    0.24067   -0.07560    3.01134
  232.11    0.06070    0.25732    0.24638   -0.07454    3.24069
  232.97    0.06290    0.26162    0.25079   -0.07482    3.61964
  233.84    0.07568    0.28487    0.27509   -0.07438    4.17683
  234.70    0.10746    0.33648    0.32782   -0.07643    6.73459
  235.56    0.07464    0.28305    0.27320   -0.07442    5.03173
  236.42    0.06304    0.26132    0.25109   -0.07277    4.23165
  237.29    0.06190    0.25901    0.24879   -0.07239    3.94990
  238.15    0.05660    0.24909    0.23791   -0.07407    3.69373
  239.01    0.05372    0.24347    0.23177   -0.07487    3.14093
  239.88    0.04950    0.23435    0.22248   -0.07392    2.48808
  240.74    0.04735    0.22974    0.21759   -0.07397    2.06002
  241.60    0.04188    0.21716    0.20466   -0.07287    1.61348
  242.46    0.03910    0.21031    0.19774   -0.07183    1.01946
  243.33    0.03795    0.20686    0.19481   -0.06979    0.87340
  244.19    0.03864    0.20826    0.19658   -0.06899    0.78364
  245.05    0.03815    0.20655    0.19533   -0.06739    0.94130
  245.92    0.03852    0.20701    0.19626   -0.06608    0.85356
  246.78    0.03980    0.20990    0.19950   -0.06548    0.89956
  247.64    0.04436    0.22133    0.21061   -0.06830    1.70979
  248.50    0.04322    0.21876    0.20790   -0.06831    1.10986
  249.37    0.04172    0.21503    0.20426   -0.06745    0.69679
  250.23    0.04055    0.21363    0.20138   -0.07154    0.66373
  251.09    0.04176    0.21661    0.20436   -0.07204    0.83485
  251.96    0.04411    0.22207    0.21001   -0.07243    0.80186
  252.82    0.04399    0.22191    0.20975   -0.07268    0.72385
  253.68    0.04513    0.22401    0.21244   -0.07132    0.73747
  254.54    0.04370    0.22080    0.20904   -0.07134    0.83977
  255.41    0.04274    0.21804    0.20674   -0.06952    0.91374
  256.27    0.03844    0.20783    0.19606   -0.06914    0.79794
  257.13    0.03805    0.20702    0.19506   -0.06955    0.70386
  258.00    0.04083    0.21395    0.20207   -0.07051    0.78283
